id,name,latitude,longitude,address,url,status,phone,primary-type,types,rating,rating-count,price-level
ChIJze4YtU0f0i0R_AaBVuESL_s,"Tegal Dukuh Camp, Taro-Bali",-8.3731286,115.286756,"Br Taro Kaja, Taro, Kec. Tegallalang, Kabupaten Gianyar, Bali 80561, Indonesia",https://maps.google.com/?cid=18099706186453550844,OPERATIONAL,+62 812-4623-3299,campground,"campground, park, lodging",5,16,
ChIJ8xLqQNYh0i0RNHGrqoIUY2E,Bali Taro Adventures,-8.3692295,115.28231989999999,"Jl. Br.Pakuseba, Taro, Kec. Tegallalang, Kabupaten Gianyar, Bali 80561, Indonesia",https://maps.google.com/?cid=7017475195815031092,CLOSED_TEMPORARILY,+62 851-0018-8225,,tourist_attraction,4.5,137,
ChIJHcp8FLcf0i0RCSK6yo4whug,Gerobak Bucun Desa,-8.3675622,115.2837083,"Jl. Br.Pakuseba No.25, Taro, Kec. Tegallalang, Kabupaten Gianyar, Bali 80561, Indonesia",https://maps.google.com/?cid=16755132853523194377,OPERATIONAL,+62 819-9918-1400,cafe,"cafe, food",5,1,
ChIJb4rXLfQf0i0RKlT3PfbPxP0,Dapur Bambu,-8.3714865,115.2884157,"J7HQ+C93, Jl. Raya Taro, Taro, Kec. Tegallalang, Kabupaten Gianyar, Bali 80561, Indonesia",https://maps.google.com/?cid=18285969043539579946,OPERATIONAL,+62 812-3862-2421,restaurant,"restaurant, food",4.6,5,
ChIJn1nvu2If0i0RqyFluFI-WV8,Pondok Namatni,-8.373655099999999,115.2848223,"Taro, Tegallalang, Gianyar Regency, Bali, Indonesia",https://maps.google.com/?cid=6870591231532278187,OPERATIONAL,,,lodging,,,
