id,name,latitude,longitude,address,url,status,phone,primary-type,types,rating,rating-count,price-level
ChIJVV4K5bIX0i0RkGes-LAEPKU,Arcadia villa,-8.5126404,115.3168117,"Bakbakan, Gianyar, Gianyar Regency, Bali 80515, Indonesia",https://maps.google.com/?cid=11906396672993552272,OPERATIONAL,+62 823-2260-1466,hotel,"hotel, lodging",4.8,20,
ChIJaY6ERLcX0i0RvFl3rl5v8LA,Topan HOUSE,-8.5125022,115.31242460000001,"F8P6+XXV, Siangan, Gianyar, Gianyar Regency, Bali 80515, Indonesia",https://maps.google.com/?cid=12749812997530540476,OPERATIONAL,+62 857-3711-9879,lodging,lodging,5,6,
ChIJYewEXLkX0i0RGUG-Ak9JW08,Warung LARIS BFC SIANGAN,-8.5078616,115.31299080000001,"F8R7+V55, Jl. Raya Siangan, Siangan, Kec. Gianyar, Kabupaten Gianyar, Bali 80515, Indonesia",https://maps.google.com/?cid=5718244755574243609,OPERATIONAL,+62 812-4645-4336,restaurant,"restaurant, food",4,20,PRICE_LEVEL_INEXPENSIVE
ChIJV8JTezUX0i0RCJPnbzQzkUA,Babi Guling Ayu Rita,-8.514104399999999,115.3125101,"F8P6+9X4, Jl. Raya Siangan, Siangan, Kec. Gianyar, Kabupaten Gianyar, Bali 80515, Indonesia",https://maps.google.com/?cid=4652556190359196424,OPERATIONAL,+62 881-0371-44716,restaurant,"restaurant, food",,,
ChIJoQYxPMMX0i0Rcc0vIWaJnBs,Wr. GARASI Pak AGUS,-8.5076342,115.3130197,"F8R7+W6R, Jl. Raya Siangan, Siangan, Kec. Gianyar, Kabupaten Gianyar, Bali 80515, Indonesia",https://maps.google.com/?cid=1989616207127367025,OPERATIONAL,+62 812-3855-128,breakfast_restaurant,"breakfast_restaurant, restaurant, food",5,1,
ChIJj77QxrYX0i0RTtSwHADwKKw,WARUNG MAKAN Bu Made,-8.515548599999999,115.31232750000001,"F8M6+QWP, Jl. Raya Siangan, Siangan, Kec. Gianyar, Kabupaten Gianyar, Bali 80515, Indonesia",https://maps.google.com/?cid=12405429056864048206,OPERATIONAL,,restaurant,"restaurant, food",,,
ChIJuw4O4pYX0i0RnDhDEeBMlG4,Pondok wijaya,-8.5076269,115.31218080000001,"Gg. Dolly No.9, Siangan, Kec. Gianyar, Kabupaten Gianyar, Bali 80515, Indonesia",https://maps.google.com/?cid=7968078165971253404,OPERATIONAL,,private_guest_room,"private_guest_room, lodging",3,1,
