id,name,latitude,longitude,address,url,status,phone,primary-type,types,rating,rating-count,price-level
ChIJoYsKx5Al0i0RTaGKai0kcj8,Warung Paon Madhus,-8.4440308,115.1175972,"Br, H449+92Q, Jl. Raya Tegallinggah Jl. Mambang Kaja, Tegallinggah, Kec. Penebel, Kabupaten Tabanan, Bali 82121, Indonesia",https://maps.google.com/?cid=4571756349214073165,OPERATIONAL,+62 857-3848-4868,restaurant,"restaurant, food",5,4,
ChIJE53afuUl0i0RoUYv-mIuvx0,Warung Bu Ngurah,-8.4429343,115.1191013,"H449+RJH, Jl. Raya Tegallinggah, Tegallinggah, Kec. Penebel, Kabupaten Tabanan, Bali 82152, Indonesia",https://maps.google.com/?cid=2143482950290720417,OPERATIONAL,+62 812-3665-8593,restaurant,"restaurant, food",5,1,
ChIJNS1bR9cl0i0RTIlWU-VnuL8,Stone River,-8.4440295,115.1163033,"Tegallinggah, Penebel, Tabanan Regency, Bali 82152, Indonesia",https://maps.google.com/?cid=13814906091602348364,OPERATIONAL,,tourist_attraction,tourist_attraction,,,
ChIJV5z1Ur0l0i0Rn6fGmGViFs0,Sanggar Rwa Bhineda,-8.444421,115.11840149999999,"H449+69J, Tegallinggah, Penebel, Tabanan Regency, Bali 82152, Indonesia",https://maps.google.com/?cid=14778107415757236127,CLOSED_TEMPORARILY,,museum,museum,,,
ChIJNQblbC0l0i0R6sbXOBLkCYA,Rumah pakcil,-8.444360900000001,115.11783699999998,"H449+744, Tegallinggah, Penebel, Tabanan Regency, Bali 82152, Indonesia",https://maps.google.com/?cid=9226156078559381226,OPERATIONAL,,hostel,"hostel, lodging",,,
ChIJ1-Kujjgl0i0Re6JbbDe9vDM,Warung sembriwing,-8.4402767,115.12284169999998,"H45F+V5W, Tegallinggah, Penebel, Tabanan Regency, Bali 82152, Indonesia",https://maps.google.com/?cid=3728062637294723707,CLOSED_TEMPORARILY,,coffee_shop,"coffee_shop, cafe, store, food",,,
ChIJsTTqO9cl0i0RO2feKxCNLbU,DG Transport,-8.4405889,115.1228223,"H45F+Q48, Tegallinggah, Penebel, Tabanan Regency, Bali 82152, Indonesia",https://maps.google.com/?cid=13055245995411924795,OPERATIONAL,,car_rental,car_rental,,,
