id,name,latitude,longitude,address,url,status,phone,primary-type,types,rating,rating-count,price-level
ChIJFxhUJdJz0i0RmcLAZ6ZS1Xs,OREGANO WARUNG,-8.707899399999999,115.4783485,"Crystal Bay Beach, Jl. Raya, Sakti, Kec. Nusa Penida, Kabupaten Klungkung, Bali 80771, Indonesia",https://maps.google.com/?cid=8923129111363240601,OPERATIONAL,+62 852-5366-2928,restaurant,"restaurant, food",4.5,370,
ChIJm7oCHQRy0i0RSn29pUcvNtw,NYUH KADAH GUEST HOUSE,-8.7064366,115.47926059999998,"Jalan Raya Crystal Bay Nusa Penida Klungkung, Sakti, Kec. Nusa Penida, Kabupaten Klungkung, Bali 80771, Indonesia",https://maps.google.com/?cid=15867922321856363850,OPERATIONAL,+62 821-4703-6722,,lodging,4.5,72,
ChIJKYcsuehz0i0RPLGKUnyHj2o,GRIYATAMA WARUNG,-8.7079001,115.4785162,"Jl. Raya Crystal Bay, Sakti, Kec. Nusa Penida, Kabupaten Klungkung, Bali 80771, Indonesia",https://maps.google.com/?cid=7678504857720500540,OPERATIONAL,+62 821-4519-5591,restaurant,"restaurant, food",4.8,141,
ChIJo3DjPo1z0i0RC1MT40ybIYo,Dangin Kubu Bungalow,-8.707327399999999,115.48263379999997,"Sakti, Nusa Penida, Klungkung Regency, Bali 80771, Indonesia",https://maps.google.com/?cid=9953407405995021067,OPERATIONAL,+62 852-3745-0465,hostel,"hostel, lodging",5,48,
ChIJn6rpSQBz0i0RKjJa-tlmrVU,Red Chili Penida,-8.7063864,115.478869,"7FWG+5GG, Sakti, Nusa Penida, Klungkung Regency, Bali 80771, Indonesia",https://maps.google.com/?cid=6173703750588969514,OPERATIONAL,+62 823-4053-0914,italian_restaurant,"italian_restaurant, restaurant, food",5,100,
ChIJ0w9MBDxz0i0RbLOh2UpZ0Lw,Warung kubu restaurant & souvenir & Radjas bungalow,-8.707381,115.48298249999999,"Sakti, Nusa Penida, Klungkung Regency, Bali 80771, Indonesia",https://maps.google.com/?cid=13605472652299973484,OPERATIONAL,,brunch_restaurant,"brunch_restaurant, restaurant, food",4.5,32,
ChIJPUgn-a1z0i0RagosFBfQkkE,Warung Sate Pari,-8.707190599999999,115.4783894,"7FVH+49C, Sakti, Nusa Penida, Klungkung Regency, Bali 80771, Indonesia",https://maps.google.com/?cid=4725067756606327402,OPERATIONAL,,indonesian_restaurant,"indonesian_restaurant, restaurant, food",4.8,16,
ChIJ0_cRuT9z0i0RCLx0U8Ymqrw,radjes bungalow,-8.7082488,115.48303969999998,"jalam raya sakti, banjar, Sakti, Kec. Nusa Penida, Kabupaten Klungkung, Bali 80771, Indonesia",https://maps.google.com/?cid=13594721058416802824,OPERATIONAL,+62 823-4053-1016,hotel,"hotel, lodging",5,8,
ChIJkTWWWgBz0i0RliPnXouaVQM,LAMIMA RESTAURANT,-8.7069266,115.47849319999999,"7FVH+69H, Sakti, Nusa Penida, Klungkung Regency, Bali 80771, Indonesia",https://maps.google.com/?cid=240268078517527446,OPERATIONAL,,restaurant,"restaurant, food",5,84,
ChIJ2ahdEg9z0i0R2qgKSGkN2Ek,Halo nusa garden,-8.7062886,115.48270209999998,"Unnamed Road, 7FVM+F3P, Sakti, Kec. Nusa Penida, Kabupaten Klungkung, Bali 80771, Indonesia",https://maps.google.com/?cid=5321017705569626330,OPERATIONAL,+62 812-3611-0567,,lodging,3,2,
