id,name,latitude,longitude,address,url,status,phone,primary-type,types,rating,rating-count,price-level
ChIJrZJ_bT8h0i0Rlo1XcQsyXBk,PONDOK INDAH,-8.3549465,115.209077,"Sulangai, Petang, Badung Regency, Bali 80353, Indonesia",https://maps.google.com/?cid=1827390573533171094,OPERATIONAL,,hostel,"hostel, lodging",5,3,
ChIJdeWfeDYh0i0R7qmWDZ5ku3M,Pempatan agung Pancoran mbah,-8.3572893,115.2054966,"J6V4+35Q, Sulangai, Petang, Badung Regency, Bali 80353, Indonesia",https://maps.google.com/?cid=8339369765002193390,OPERATIONAL,,tourist_attraction,tourist_attraction,,,
ChIJucDm8M0h0i0RLybm6Ry1gA4,Warung CAW Bu Arya,-8.3533004,115.20553849999999,"J6W4+M6F, Sulangai, Petang, Badung Regency, Bali 80353, Indonesia",https://maps.google.com/?cid=1045034249337841199,OPERATIONAL,,cafe,"cafe, food",3,2,
ChIJLezWufch0i0RQ9ebaHUOuDM,MIE NYAMO BALI,-8.351726,115.20621209999999,"J6X4+8F4, Sulangai, Petang, Badung Regency, Bali, Indonesia",https://maps.google.com/?cid=3726744589078091587,OPERATIONAL,+62 857-3937-4297,restaurant,"restaurant, food",5,1,
ChIJn9qRiLoh0i0R9TYw2i2O3XM,アリスクリスナの民家,-8.3517064,115.20626639999999,"J6X4+8G6, Sulangai, Petang, Badung Regency, Bali 80353, Indonesia",https://maps.google.com/?cid=8348985611800033013,OPERATIONAL,,private_guest_room,"private_guest_room, lodging",5,1,
ChIJcZUdv0kh0i0RmJi-kSIQG2w,RQ House,-8.3513442,115.20547079999999,"J6X4+F59, Sulangai, Petang, Badung Regency, Bali 80353, Indonesia",https://maps.google.com/?cid=7789837721127524504,OPERATIONAL,,hostel,"hostel, lodging",5,1,
ChIJwQL1NAAh0i0R1Auz0ArDJL0,Sty,-8.3513419,115.2056384,"J6X4+F76, Sulangai, Petang, Badung Regency, Bali, Indonesia",https://maps.google.com/?cid=13629232823548447700,OPERATIONAL,,hostel,"hostel, lodging",,,
ChIJW2ZxyWIh0i0RSKBPW8aw5ME,HOME STAY ROTSS,-8.3508053,115.2053047,"Unnamed Road, J6X4+M4F, Sulangai, Kec. Petang, Kabupaten Badung, Bali 80353, Indonesia",https://maps.google.com/?cid=13971486309992079432,OPERATIONAL,,private_guest_room,"private_guest_room, lodging",,,
ChIJrQ--aA4h0i0Ro3bvnszcnOI,Home Ayu,-8.351273899999999,115.20654599999999,"J6X4+FJJ, Sulangai, Petang, Badung Regency, Bali 80353, Indonesia",https://maps.google.com/?cid=16329169120336508579,OPERATIONAL,,private_guest_room,"private_guest_room, lodging",5,1,
ChIJ6Zii8IQh0i0RLo7SFsjEtZ0,Tegal Mawa Jalan Pura Pucak Tedung,-8.3590764,115.2063099,"Sulangai, Petang, Badung Regency, Bali 80353, Indonesia",https://maps.google.com/?cid=11364205598394715694,OPERATIONAL,+62 812-3794-1341,,lodging,4.5,2,
ChIJ3a9ho3Yh0i0Rh5TnKxtI5o0,Pernan Home,-8.351035,115.20670129999999,"J6X4+HMP, Sulangai, Petang, Badung Regency, Bali, Indonesia",https://maps.google.com/?cid=10224939285529203847,OPERATIONAL,,hotel,"hotel, lodging",,,
