id,name,latitude,longitude,address,url,status,phone,primary-type,types,rating,rating-count,price-level
ChIJ2Xkb_q8H0i0RaGZJzbs2w3s,Coral View Villas,-8.4297089,115.6270854,"Po. Box. 121 Amlapura, Amed Karangasem Bali, Bukit, Karangasem, Karangasem Regency, Bali 80811, Indonesia",https://maps.google.com/?cid=8918031867354637928,OPERATIONAL,,hotel,"hotel, lodging",4.5,2,
ChIJi5TSFYwH0i0Ru7mHwqJMOOo,"Bedawang lounge, purify & healing",-8.4233286,115.62592590000001,"HJGG+M9, Tegallinggah, Karangasem, Karangasem Regency, Bali, Indonesia",https://maps.google.com/?cid=16877323865503021499,OPERATIONAL,+62 812-3641-6274,private_guest_room,"private_guest_room, lodging",5,6,
ChIJ_____68H0i0Rv6VFiHW0tTg,Bali Shangrila Hotel,-8.4297004,115.62740350000001,"Ds Samuh, Amlapura, HJCG+4X6, Bukit, Kec. Karangasem, Kabupaten Karangasem, Bali 80811, Indonesia",https://maps.google.com/?cid=4086370653799032255,OPERATIONAL,+62 363 41622,hotel,"hotel, lodging",,,
ChIJ2UtfOs4H0i0RXf1R1vRZBR4,Warung makan merta rauh sai,-8.4240427,115.63055029999998,"HJGJ+33X, Jl. Raya Bukit Lempuyang, Bukit, Kec. Karangasem, Kabupaten Karangasem, Bali 80811, Indonesia",https://maps.google.com/?cid=2163234104123981149,OPERATIONAL,,breakfast_restaurant,"breakfast_restaurant, restaurant, food",,,
ChIJ__M33z4H0i0RHk30y99lBy8,IWSA,-8.4257457,115.62395539999999,"HJFF+PH4, Tegallinggah, Karangasem, Karangasem Regency, Bali 80811, Indonesia",https://maps.google.com/?cid=3388789256493485342,OPERATIONAL,,,lodging,,,
ChIJgz4kMh4H0i0RtLJUcSoaipg,RUMAH ASNAWI,-8.4217967,115.6293634,"HJHH+7PQ, Jl. Raya Bukit Lempuyang, Bukit, Kec. Karangasem, Kabupaten Karangasem, Bali 80811, Indonesia",https://maps.google.com/?cid=10991626610143441588,OPERATIONAL,+62 823-4066-5383,lodging,lodging,5,3,
ChIJoZLbEdkH0i0RAWKEWNglfJo,Rumah Dek Ngurah,-8.4235256,115.63104080000001,"HJGJ+PC7, Jl. Raya Bukit Lempuyang, Bukit, Kec. Karangasem, Kabupaten Karangasem, Bali 80811, Indonesia",https://maps.google.com/?cid=11131813990081257985,OPERATIONAL,,private_guest_room,"private_guest_room, lodging",1,1,
