id,name,latitude,longitude,address,url,status,phone,primary-type,types,rating,rating-count,price-level
ChIJ93viDd0X0i0RokCC4Z_TgDo,Sumampan Waterfall,-8.5514923,115.29039759999998,"Kemenuh, Sukawati, Gianyar Regency, Bali 80581, Indonesia",https://maps.google.com/?cid=4215601934855454882,OPERATIONAL,,tourist_attraction,tourist_attraction,4.5,922,
ChIJCzuIhOcX0i0RouBYN5BXdfU,Kailash Suites,-8.5515881,115.28771199999998,"Jl. Ir. Sutami, Sumampan, C7XQ+938, Kemenuh, Kec. Sukawati, Kabupaten Gianyar, Bali 80582, Indonesia",https://maps.google.com/?cid=17687139388482969762,OPERATIONAL,,lodging,lodging,4.6,122,
ChIJbS8kfhsW0i0RvCDYW5NEJu0,Baliwid Villa Ubud,-8.5518254,115.29003060000001,"Kemenuh, Sukawati, Gianyar Regency, Bali 80581, Indonesia",https://maps.google.com/?cid=17088421235795697852,OPERATIONAL,+62 878-6254-2945,,"private_guest_room, hotel, lodging",4.7,155,
ChIJF2XgDCoX0i0Rut9l6dB2e-o,Dhiari Guest House,-8.5548108,115.2898712,"Br. Sumampan, Kemenuh, Kec. Sukawati, Kabupaten Gianyar, Bali 80582, Indonesia",https://maps.google.com/?cid=16896229066651590586,OPERATIONAL,+62 831-1722-6567,hotel,"hotel, lodging",4.9,73,
ChIJpQm8xcIX0i0RRTgCWLa0zhg,Auma Villa,-8.5494041,115.28911749999999,"F72Q+6JQ, Jl. Ir. Sutami, Kemenuh, Kec. Sukawati, Kabupaten Gianyar, Bali 80582, Indonesia",https://maps.google.com/?cid=1787564797366253637,OPERATIONAL,+62 361 9088008,hotel,"hotel, lodging",4.8,39,
ChIJ8XSau-kX0i0ROTc0Y1MUxtA,Uma dhari villa,-8.5489826,115.28984829999999,"Jl. Ir. Sutami, Kemenuh, Kec. Sukawati, Kabupaten Gianyar, Bali 80581, Indonesia",https://maps.google.com/?cid=15043733953656928057,OPERATIONAL,+62 812-3977-400,hotel,"hotel, lodging",4.9,62,
ChIJI_pGAxwW0i0Rp3vUfMSw3aU,Uma Budhas Guest house,-8.5491826,115.28896239999999,"Jl. Ir Sutami, Subak Pengiyangan, Kemenuh, Sukawati, Gianyar Regency, Bali 80582, Indonesia",https://maps.google.com/?cid=11951903344065543079,OPERATIONAL,+62 812-3922-094,hotel,"hotel, lodging",4.8,55,
ChIJgdYkA0IX0i0R5095lOvVZV4,Pizza Todesco,-8.5517343,115.28953460000001,"C7XQ+4VV, Kemenuh, Sukawati, Gianyar Regency, Bali 80582, Indonesia",https://maps.google.com/?cid=6802078019998011367,OPERATIONAL,+62 878-6543-5827,italian_restaurant,"italian_restaurant, restaurant, food",4.7,51,
ChIJD0byurgX0i0R4Clst1oIVXU,Sumampan Waterfall Parking Area,-8.5518989,115.28994149999998,"Br. Sumampan, Kemenuh, Kec. Sukawati, Kabupaten Gianyar, Bali 80582, Indonesia",https://maps.google.com/?cid=8454673061175372256,OPERATIONAL,+62 361 943554,tourist_attraction,"tourist_attraction, cafe, food",4.2,33,
ChIJjzqhwJUX0i0RXkxGsbt-Lok,Namaste Kemenuh Terrace,-8.5499337,115.28913440000001,"C7XQ+RJF, Jl. Ir. Sutami, Kemenuh, Kec. Sukawati, Kabupaten Gianyar, Bali 80582, Indonesia",https://maps.google.com/?cid=9884977576722975838,OPERATIONAL,,,lodging,5,2,
ChIJNxF-nugX0i0RVcL8uW9pSW8,D'Nanda,-8.553788299999999,115.28989940000001,"Jl. Ir. Sutami, Banjar sumampan, Kemenuh, Kec. Sukawati, Kabupaten Gianyar, Bali, Indonesia",https://maps.google.com/?cid=8019056540092514901,OPERATIONAL,+62 853-3375-4005,hotel,"hotel, lodging, restaurant, food",4.6,18,
ChIJ2-AEgxwW0i0RXPk4JLKJ8Do,baliwid warung,-8.551791699999999,115.29024000000001,"banjar sumampan, Jl. Ir. Sutami, Kemenuh, Kec. Sukawati, Kabupaten Gianyar, Bali 80581, Indonesia",https://maps.google.com/?cid=4247045846815275356,OPERATIONAL,+62 878-6254-2945,restaurant,"restaurant, vegetarian_restaurant, cafe, food",4.8,97,
ChIJ9_nvy8YX0i0R65rUU3VumHA,Jiwa Damai Guesthouse,-8.549142699999999,115.2892174,"F72Q+8MW, Jl. Ir. Sutami, Kemenuh, Kec. Sukawati, Kabupaten Gianyar, Bali 80582, Indonesia",https://maps.google.com/?cid=8113356178904619755,OPERATIONAL,,lodging,lodging,5,4,
ChIJT5xtZxsW0i0RTVIyRvHgvMI,Pondok Made,-8.5526942,115.2896959,"C7WQ+WVG, Kemenuh, Sukawati, Gianyar Regency, Bali 80581, Indonesia",https://maps.google.com/?cid=14032337865849066061,OPERATIONAL,+62 361 953997,lodging,lodging,3.3,3,
ChIJSxTLfRwW0i0RB_M68ExsGVI,Maha Lakshmi Private Villa & Retreat Ubud,-8.5512619,115.2893301,"C7XQ+FPW, Kemenuh, Sukawati, Gianyar Regency, Bali 80582, Indonesia",https://maps.google.com/?cid=5915878663231566599,OPERATIONAL,+62 822-1168-5757,hotel,"hotel, lodging",4.5,24,
ChIJt7wkhBwW0i0RQZtS5m6YLwI,VILLA WIKI,-8.551769199999999,115.28919599999998,"Kemenuh, Sukawati, Gianyar Regency, Bali 80582, Indonesia",https://maps.google.com/?cid=157512114059254593,OPERATIONAL,+62 361 9082982,hotel,"hotel, lodging",4.6,37,
ChIJJ62fkh8X0i0Rn3GabVUMWL0,Griya Jiwa Damai,-8.549404899999999,115.28738039999999,"Unnamed Road, F72P+6XJ, Kemenuh, Kec. Sukawati, Kabupaten Gianyar, Bali 80582, Indonesia",https://maps.google.com/?cid=13643668632169509279,OPERATIONAL,,lodging,lodging,4.7,3,
ChIJyVBoB0kX0i0RgtjHXr7ax2Q,Warung D'Costa,-8.553312499999999,115.28957750000001,"Unnamed Road, C7WQ+MRG, Kemenuh, Kec. Sukawati, Kabupaten Gianyar, Bali 80582, Indonesia",https://maps.google.com/?cid=7262013435327010946,OPERATIONAL,+62 818-0559-0996,cafe,"cafe, food",4.5,8,
ChIJVxN2IqUX0i0RUsUEWwBjgQc,Segana Villa,-8.548941,115.28972270000001,"F72Q+9MF, Kemenuh, Sukawati, Gianyar Regency, Bali 80582, Indonesia",https://maps.google.com/?cid=540822283439359314,OPERATIONAL,,private_guest_room,"private_guest_room, lodging",5,2,
ChIJw8plxwIW0i0RNh5odE1_M4k,Warung Abellia Food Mojitos & Fishing,-8.5509378,115.2892902,"C7XQ+JPF, Kemenuh, Sukawati, Gianyar Regency, Bali 80582, Indonesia",https://maps.google.com/?cid=9886385577650560566,OPERATIONAL,+62 819-1717-6155,restaurant,"restaurant, bar, food",4.5,42,PRICE_LEVEL_INEXPENSIVE
