id,name,latitude,longitude,address,url,status,phone,primary-type,types,rating,rating-count,price-level
ChIJ0xxN03BB0i0RRgj14F7cEEc,Bakmi Bang Bara,-8.6550093,115.1926239,"Jl. Mahendradatta Utara No.55, Padangsambian, Kec. Denpasar Bar., Kota Denpasar, Bali 80119, Indonesia",https://maps.google.com/?cid=5120835076379445318,OPERATIONAL,+62 813-3331-9723,restaurant,"indonesian_restaurant, restaurant, food",4.5,194,
ChIJF8kTWWlB0i0ROZnRud3D8qM,"Warung Gunung Agung - Tipat Sate Babi, Nasi Soto Babi, Nasi Siobak, Nasi Lawar",-8.6518246,115.19799440000001,"85XX+75H, Jl. Gn. Agung, Tegal Kertha, Kec. Denpasar Bar., Kota Denpasar, Bali 80111, Indonesia",https://maps.google.com/?cid=11813720129618942265,OPERATIONAL,+62 817-4777-448,restaurant,"restaurant, food",5,1,
ChIJX-Qc63g_0i0RAStQjo8gAZM,Babi Baik,-8.6495017,115.1947534,"Pemecutan Kaja, Denpasar Utara, Denpasar City, Bali 80118, Indonesia",https://maps.google.com/?cid=10592783599492147969,OPERATIONAL,+62 878-4952-0222,restaurant,"restaurant, food",4.7,158,
ChIJ5eicRpRB0i0RAZA_KkAVGVk,Ayam bakar ku gunung agung,-8.6519698,115.19883329999999,"Jl. Gn. Agung No.112, Pemecutan, Kec. Denpasar Bar., Kota Denpasar, Bali 80111, Indonesia",https://maps.google.com/?cid=6420186109124251649,OPERATIONAL,,restaurant,"restaurant, food",4.2,92,
ChIJIXpTKzhB0i0R8VNbqXOyJu8,UMA INN (KOST ELITE),-8.653779,115.19563089999998,"85WW+F7J, Jl. Puputan Baru Gg. IV, Tegal Kertha, Kec. Denpasar Bar., Kota Denpasar, Bali 80111, Indonesia",https://maps.google.com/?cid=17232657234012099569,OPERATIONAL,+62 823-4283-1722,hotel,"hotel, lodging",3.9,70,
ChIJgdUBc1Y_0i0RUJiIHCwKIFI,Rumah Makan Padang SARASO Asli Masakan Padang,-8.649683699999999,115.1953891,"Jl. Buluh Indah No.14, Pemecutan Kaja, Kec. Denpasar Utara, Kota Denpasar, Bali 80118, Indonesia",https://maps.google.com/?cid=5917741094938384464,OPERATIONAL,+62 361 411093,indonesian_restaurant,"indonesian_restaurant, restaurant, food",4.3,479,PRICE_LEVEL_MODERATE
ChIJAWBokdQ_0i0RHEp9kiRTJtU,Dapur wi,-8.6495965,115.19825979999997,"Gg. Indus No.3, Pemecutan Kaja, Kec. Denpasar Utara, Kota Denpasar, Bali 80111, Indonesia",https://maps.google.com/?cid=15359054995735267868,OPERATIONAL,+62 821-4435-9504,indonesian_restaurant,"indonesian_restaurant, restaurant, food",4.8,51,
ChIJH1HiwiRB0i0RIzN9RlcQEI8,Seblak Prasmanan Bandung,-8.653047599999999,115.1986508,"Gg. Bumiayu No.2, Pemecutan, Kec. Denpasar Bar., Kota Denpasar, Bali 80111, Indonesia",https://maps.google.com/?cid=10308757514081874723,OPERATIONAL,,indonesian_restaurant,"indonesian_restaurant, restaurant, food",5,5,
ChIJmUL5hyhB0i0RXib3vLzayLA,Ayam Gepuk Pak Gembus Gunung Agung,-8.6521112,115.1993209,"Jl. Gn. Agung No.141, Pemecutan, Kec. Denpasar Bar., Kota Denpasar, Bali 80231, Indonesia",https://maps.google.com/?cid=12738672050176468574,OPERATIONAL,+62 821-4657-2714,indonesian_restaurant,"indonesian_restaurant, restaurant, food",3.5,47,
ChIJlyWN4ytB0i0RpuE2bj3eb10,"Tunjung Kost 1,5jt/bln",-8.653418799999999,115.1961848,"Jl. Mahendradatta Gg. Puputan Baru III, Tegal Kertha, Kec. Denpasar Bar., Kota Denpasar, Bali 80119, Indonesia",https://maps.google.com/?cid=6732844323365642662,OPERATIONAL,,hostel,"hostel, lodging",4.7,9,
ChIJ7y_KOydB0i0RSSln95c52Wk,Nyoman G Pursaka Property (Transport & Guide)),-8.6535546,115.1978847,"Gg. Bumiayu No.Z 18, Pemecutan, Kec. Denpasar Bar., Kota Denpasar, Bali 80016, Indonesia",https://maps.google.com/?cid=7627190768782223689,OPERATIONAL,+62 812-3854-9774,private_guest_room,"private_guest_room, lodging",4.8,8,
ChIJCffr-1o_0i0R9bIy4HSov3I,Mr.Takoyaki Cafe,-8.651572999999999,115.20034210000001,"Gg. Yamuna No.10, Pemecutan Kaja, Kec. Denpasar Utara, Kota Denpasar, Bali 80118, Indonesia",https://maps.google.com/?cid=8268512660806611701,OPERATIONAL,+62 897-0216-388,restaurant,"restaurant, food",4.6,64,
ChIJq6POAGM_0i0REwvhuUercKI,Sate Taichan NyotNyot,-8.6508839,115.1955,"Jl. Mahendradatta Selatan No.6, Pemecutan Kaja, Kec. Denpasar Utara, Kota Denpasar, Bali 80111, Indonesia",https://maps.google.com/?cid=11705043756085480211,OPERATIONAL,+62 859-5920-2487,indonesian_restaurant,"indonesian_restaurant, restaurant, food",4.6,34,
ChIJZavm4utB0i0Ryqqu1-lyXyc,Wang Korean Street Food,-8.6521738,115.1995244,"Jl. Gn. Agung No.137, Pemecutan, Kec. Denpasar Utara, Kota Denpasar, Bali 80111, Indonesia",https://maps.google.com/?cid=2837112638938196682,OPERATIONAL,+62 896-5506-0845,korean_restaurant,"korean_restaurant, restaurant, food",4.9,50,
ChIJ0VqrOao_0i0RtHh4IFXp6xU,Kopi Kana,-8.6508972,115.19551510000001,"Jl. Buluh Indah No.6, Pemecutan Kaja, Kec. Denpasar Utara, Kota Denpasar, Bali 80111, Indonesia",https://maps.google.com/?cid=1579612646149748916,OPERATIONAL,,coffee_shop,"coffee_shop, cafe, store, food",5,31,
ChIJjSlcjFU_0i0RcAXJWDzDFQ4,Sate Plecing Siobak Singaraja Warung Dharmasanti,-8.651218,115.193078,"Jl. Gn. Agung No.170, Pemecutan Kaja, Kec. Denpasar Utara, Kota Denpasar, Bali 80119, Indonesia",https://maps.google.com/?cid=1014931954996938096,OPERATIONAL,+62 878-6074-1596,indonesian_restaurant,"indonesian_restaurant, restaurant, food",4.3,141,
ChIJ1ZW5jlU_0i0Rh7trqvRi14Y,Moro Seneng Padang Restaurant,-8.6512222,115.1929193,"Jl. Gn. Agung No.172, Pemecutan Kaja, Kec. Denpasar Bar., Kota Denpasar, Bali 80118, Indonesia",https://maps.google.com/?cid=9716343524045863815,OPERATIONAL,+62 852-3807-4310,indonesian_restaurant,"indonesian_restaurant, restaurant, food",4.4,97,
ChIJRTVWxaFB0i0R8gzXBakMDtI,"SALAD BUAH SML, denpasar BALI",-8.6519278,115.19648889999999,"Jl. Gn. Agung No.175, Tegal Kertha, Kec. Denpasar Bar., Kota Denpasar, Bali 80119, Indonesia",https://maps.google.com/?cid=15136049317725801714,OPERATIONAL,+62 815-2943-4565,restaurant,"restaurant, food",4.9,9,
ChIJ_QVuR1RB0i0RKKyfLiI1Pmc,Pondok Aswindra,-8.6548114,115.1954528,"Jl. Merpati Puputan Baru VI No.1, Tegal Kertha, Kec. Denpasar Bar., Kota Denpasar, Bali, Indonesia",https://maps.google.com/?cid=7439442055390014504,OPERATIONAL,+62 812-2212-7167,,lodging,5,1,
ChIJCfMkC6hA0i0Rz_-NPpw0Z_0,Paon Siap,-8.652321299999999,115.2005415,"Jl. Gn. Agung No.121, Pemecutan, Kec. Denpasar Bar., Kota Denpasar, Bali 80119, Indonesia",https://maps.google.com/?cid=18259621059866001359,OPERATIONAL,+62 812-3757-5676,restaurant,"restaurant, breakfast_restaurant, indonesian_restaurant, food",4.8,228,
