id,name,latitude,longitude,address,url,status,phone,primary-type,types,rating,rating-count,price-level
ChIJp23uU1k70i0RqvUdunUZkI0,"Warung Nasi Babi Guling ""MM""",-8.562930999999999,115.10691699999998,"Jl. Wanasara Baleran gang v No.8, Bongan, Kec. Tabanan, Kabupaten Tabanan, Bali 82112, Indonesia",https://maps.google.com/?cid=10200681149418567082,OPERATIONAL,,restaurant,"restaurant, food",4.9,16,
ChIJ-2X0VEM70i0RSq8KAKb3y3I,Sinta's corner,-8.5670466,115.11332589999999,"C4M7+58P, Bongan, Tabanan, Tabanan Regency, Bali 82121, Indonesia",https://maps.google.com/?cid=8271977432933379914,OPERATIONAL,,cafe,"cafe, food",4.5,2,
ChIJsRwRDc470i0RqwIgxVmZRso,Warung Neo,-8.562089799999999,115.1096398,"Perum BCA Land, Blok. II No.17, Bongan, Kec. Tabanan, Kabupaten Tabanan, Bali 82112, Indonesia",https://maps.google.com/?cid=14575505854869537451,CLOSED_TEMPORARILY,+62 897-7270-555,restaurant,"restaurant, food",,,
ChIJOUO1zWQ70i0RVsMPZyUkwEs,BOY'S KEBAB,-8.567893699999999,115.11309620000002,"Br. Bongan Jawa, Bongan, Kec. Tabanan, Kabupaten Tabanan, Bali 82111, Indonesia",https://maps.google.com/?cid=5458402491434517334,OPERATIONAL,+62 813-3873-0170,coffee_shop,"coffee_shop, cafe, store, food",5,3,
ChIJL_vXE5w70i0Rv0kYHA5gbes,Wisata Sawah Kaja Kangin,-8.566796499999999,115.11334730000002,"Br. Bongan Jawa Kangin, Bongan, Kec. Tabanan, Kabupaten Tabanan, Bali 82121, Indonesia",https://maps.google.com/?cid=16964320985091688895,OPERATIONAL,+62 878-5107-5915,tourist_attraction,tourist_attraction,,,
ChIJdRPpWvE70i0RiJMR8qcBtNw,Warung dong tut,-8.5667999,115.1116001,"C4M6+7JQ, Bongan, Tabanan, Tabanan Regency, Bali 82121, Indonesia",https://maps.google.com/?cid=15903338004984468360,OPERATIONAL,,restaurant,"restaurant, food",,,
ChIJBXk8Leg70i0RT8ZeW-Hz07U,DUSAK,-8.5619731,115.110454,"C4Q6+658, Bongan, Tabanan, Tabanan Regency, Bali 82112, Indonesia",https://maps.google.com/?cid=13102083890177033807,OPERATIONAL,,private_guest_room,"private_guest_room, lodging",4,2,
ChIJn5z7dxE60i0Ruum25j2blyY,Nasi Bungkus Risky,-8.5620608,115.10894780000001,"C4Q5+5HG, Bongan, Tabanan, Tabanan Regency, Bali 82112, Indonesia",https://maps.google.com/?cid=2780861985090628026,OPERATIONAL,+62 853-3399-9613,restaurant,"restaurant, food",5,1,
