id,name,latitude,longitude,address,url,status,phone,primary-type,types,rating,rating-count,price-level
ChIJ4c75PXSO0S0RjVnsSPXsZag,WARUNG GARDHA,-8.1926965,115.1843884,"R54M+WQC, Lemukih, Sawan, Buleleng Regency, Bali 81171, Indonesia",https://maps.google.com/?cid=12134365309254261133,OPERATIONAL,+62 819-3432-8000,restaurant,"restaurant, food",4.2,28,PRICE_LEVEL_MODERATE
ChIJTZj0VwCP0S0R0jvexA2Ulo4,Lemukih Trekking Tours,-8.1926016,115.1845355,"R54M+XRX, Lemukih, Sawan, Buleleng Regency, Bali 81171, Indonesia",https://maps.google.com/?cid=10274562386750749650,OPERATIONAL,+62 812-3869-9805,tourist_attraction,tourist_attraction,5,5,
ChIJex68hu-P0S0RskaPXaXM4Xs,Waterfall #water slide#water jumping #rice field,-8.192511999999999,115.18454419999999,"R54M+XRX, Lemukih, Sawan, Buleleng Regency, Bali 81171, Indonesia",https://maps.google.com/?cid=8926640947036374706,OPERATIONAL,,national_park,"national_park, park",1,1,
ChIJxYsMaXSO0S0RdfOXw0aPFZo,Museng Breezee Resto,-8.1917787,115.18421,"R55M+7MP, Lemukih, Sawan, Buleleng Regency, Bali 81171, Indonesia",https://maps.google.com/?cid=11102937990443823989,CLOSED_TEMPORARILY,,restaurant,"restaurant, food",5,4,
ChIJi7lZBQSP0S0RZeloeLTOvHQ,Sekumpul Waterfall & Home Made Nasi Goreng And Burger,-8.1919569,115.18471369999997,"Lemukih, Sawan, Buleleng Regency, Bali 81171, Indonesia",https://maps.google.com/?cid=8411825478530820453,OPERATIONAL,+62 819-9359-3083,restaurant,"restaurant, food",5,2,
ChIJqVf1HpGP0S0Rp3VsV4S3lWw,KETUT WINDA,-8.190938899999999,115.180145,"R55J+J3C Winda, Br. Buah Banjah, Jl. Tut Ardi, Lemukih, Kec. Sawan, Kabupaten Buleleng, Bali 81171, Indonesia",https://maps.google.com/?cid=7824361706656396711,OPERATIONAL,,private_guest_room,"private_guest_room, lodging",,,
ChIJt4YvJ2mP0S0RxfXsqw_zN24,EL'NINO HOME STAY,-8.1924159,115.1843236,"R55M+2PP, Jl, Lemukih, Kec. Sawan, Kabupaten Buleleng, Bali 81171, Indonesia",https://maps.google.com/?cid=7942083716525651397,OPERATIONAL,+62 819-3432-8000,private_guest_room,"private_guest_room, lodging",,,
ChIJLRiXF3SO0S0Rq2VS5GidiH8,Warung Buk Mogi,-8.192735899999999,115.1843363,"R54M+WP4, Lemukih, Sawan, Buleleng Regency, Bali 81171, Indonesia",https://maps.google.com/?cid=9189768113482261931,OPERATIONAL,+62 821-4465-5463,cafe,"cafe, food",5,2,
ChIJQThfpMeP0S0Rxb-jPdtSJcM,Warung wiwin,-8.1934673,115.18431229999999,"Balai banjar nyuh, Lemukih, Kec. Sawan, Kabupaten Buleleng, Bali, Indonesia",https://maps.google.com/?cid=14061736513119698885,OPERATIONAL,+62 859-5516-8138,,"indonesian_restaurant, store, restaurant, food",5,2,
ChIJaeIfJHaO0S0RHlfs0z33LWA,Wr Bu Kadek,-8.1932219,115.1841743,"R54M+PM7, Lemukih, Sawan, Buleleng Regency, Bali 81171, Indonesia",https://maps.google.com/?cid=6930467246513608478,OPERATIONAL,+62 819-9935-7599,restaurant,"restaurant, food",4,2,
ChIJawu0H2eP0S0R04E-seZTD_o,KUBU R,-8.1908269,115.1798064,"R55H+MW, Lemukih, Sawan, Buleleng Regency, Bali, Indonesia",https://maps.google.com/?cid=18018712884413891027,OPERATIONAL,,bed_and_breakfast,"bed_and_breakfast, lodging",,,
ChIJJ1cUQQCP0S0RiIHrouF3Vhg,Jepun Homestay Lemukih,-8.1906384,115.18444119999998,"Banjar dinas nyuh, Lemukih, Kec. Sawan, Kabupaten Buleleng, Bali, Indonesia",https://maps.google.com/?cid=1753720915892076936,OPERATIONAL,+62 878-8579-7334,private_guest_room,"private_guest_room, lodging",5,2,
ChIJpY1gDQCP0S0RT4aIW-SzjQQ,WARUNG,-8.191946999999999,115.184546,"R55M+6V8, Lemukih, Sawan, Buleleng Regency, Bali 81171, Indonesia",https://maps.google.com/?cid=328116141237503567,OPERATIONAL,+62 877-5917-9199,tourist_attraction,tourist_attraction,,,
ChIJJfwnP4uP0S0RbzYgZc8gCxQ,Backpackers 80k/person,-8.1919247,115.184629,"Banjar Dinas Nyuh, Lemukih, Kec. Sawan, Kabupaten Buleleng, Bali 81171, Indonesia",https://maps.google.com/?cid=1444284180629304943,OPERATIONAL,+62 877-5917-9199,tourist_attraction,tourist_attraction,,,
ChIJb06EGfSP0S0R_lmBDxsLvVc,Buanyar indah,-8.1925067,115.18454320000001,"R54M+XRV, Banjar nyuh, Lemukih, Kec. Sawan, Kabupaten Buleleng, Bali, Indonesia",https://maps.google.com/?cid=6322221662750202366,CLOSED_TEMPORARILY,+62 812-8240-0614,tourist_attraction,tourist_attraction,,,
ChIJ7aik-VWP0S0R-ZCUzFB2KS8,Wade Homestay,-8.193482699999999,115.18455630000001,"Lemukih, Sawan, Buleleng Regency, Bali 81171, Indonesia",https://maps.google.com/?cid=3398377483229499641,OPERATIONAL,+62 877-6157-3953,,lodging,,,
ChIJDVwR_dKP0S0RVAUok7r0rbw,Warung men gede sulandra,-8.1877125,115.18420309999999,"R56M+WM8, Lemukih, Sawan, Buleleng Regency, Bali 81171, Indonesia",https://maps.google.com/?cid=13595791932271363412,CLOSED_TEMPORARILY,,brunch_restaurant,"brunch_restaurant, restaurant, food",,,
