id,name,latitude,longitude,address,url,status,phone,primary-type,types,rating,rating-count,price-level
ChIJjyT93DMF0i0RezLy-xX8kqw,RUMAH Komang,-8.4235157,115.51175589999998,"HGG6+995, North Duda, Selat, Karangasem Regency, Bali 80862, Indonesia",https://maps.google.com/?cid=12435278692474827387,OPERATIONAL,,tourist_attraction,tourist_attraction,,,
ChIJ8atxnmYF0i0R_r5nk9R2HZg,Pondok wayan artha,-8.4279343,115.50964030000002,"HGF5+3RH, North Duda, Selat, Karangasem Regency, Bali 80862, Indonesia",https://maps.google.com/?cid=10961047723467849470,OPERATIONAL,,,lodging,,,
ChIJBbIkXEQF0i0RD-qMB_neMQM,Warung buk jero,-8.423838,115.50940059999999,"HGG5+FQ6, North Duda, Selat, Karangasem Regency, Bali 80862, Indonesia",https://maps.google.com/?cid=230210217127504399,OPERATIONAL,,coffee_shop,"coffee_shop, cafe, store, food",5,2,
ChIJ9dXSOfkF0i0RjB1QfDr87U0,Wayan Susila,-8.4251996,115.50577120000001,"Duda, Selat, Karangasem Regency, Bali 80862, Indonesia",https://maps.google.com/?cid=5615421638524804492,OPERATIONAL,,private_guest_room,"private_guest_room, lodging",,,
ChIJwYhLI3AF0i0R5NmuyNf_rU8,cong leklok,-8.4229915,115.51033580000001,"HGG6+R44, North Duda, Selat, Karangasem Regency, Bali 80862, Indonesia",https://maps.google.com/?cid=5741526402217204196,OPERATIONAL,+62 818-0533-8378,cottage,"cottage, lodging",5,1,
ChIJS9BjJC4F0i0RxDhuYP97z3k,Pekak Monday,-8.424712999999999,115.50704839999999,"Banjar perangsari tengah, HGG4+4R7, Duda Utara, Kec. Selat, Kabupaten Karangasem, Bali 80822, Indonesia",https://maps.google.com/?cid=8777370535533099204,OPERATIONAL,,private_guest_room,"private_guest_room, lodging",,,
ChIJ1c-4WM0F0i0RkSFhBMTa4fU,Wayan Suarmadi (Kolin),-8.4260513,115.50544199999999,"perangsari tengah, Duda Utara, Kec. Selat, Kabupaten Karangasem, Bali 80862, Indonesia",https://maps.google.com/?cid=17717682944474161553,OPERATIONAL,,private_guest_room,"private_guest_room, lodging",,,
ChIJUTwDm5gF0i0RNOz1xPvl1Ys,"Rumah Ketut Retana, Gangsar",-8.4253713,115.5130142,"HGF6+PW4 Yan Arta Ting Ting, Duda Utara, Kec. Selat, Kabupaten Karangasem, Bali 80862, Indonesia",https://maps.google.com/?cid=10076212610815355956,OPERATIONAL,,,lodging,,,
ChIJeep7aHQF0i0RMImcei-6njY,Rumah I Made Suardana ( Comet ),-8.4295455,115.50838540000001,"Br, dinas perangsari tengah, HGC5+59J, Duda Utara, Kec. Selat, Kabupaten Karangasem, Bali 80862, Indonesia",https://maps.google.com/?cid=3935787837451700528,OPERATIONAL,+62 859-3532-4864,bed_and_breakfast,"bed_and_breakfast, lodging",5,1,
ChIJb8UhZ50F0i0RSDWKnpU70ko,Gede Prayogi,-8.4224613,115.50563350000002,"North Duda, Selat, Karangasem Regency, Bali 80822, Indonesia",https://maps.google.com/?cid=5391437217711928648,OPERATIONAL,,private_guest_room,"private_guest_room, lodging",2,1,
ChIJ5eiMZzYF0i0RGJ3zvB6XHxI,Komang adi saputra,-8.4298146,115.5082613,"Br, dinas perangsari kelod, Duda Utara, Kec. Selat, Kabupaten Karangasem, Bali 80862, Indonesia",https://maps.google.com/?cid=1305928575235628312,OPERATIONAL,,private_guest_room,"private_guest_room, lodging",,,
