id,name,latitude,longitude,address,url,status,phone,primary-type,types,rating,rating-count,price-level
ChIJ2f31XSon0i0R3Mopixwqdas,Subak Piak,-8.4055579,115.10498150000001,"H4V3+QX, Wongaya Gede, Penebel, Tabanan Regency, Bali, Indonesia",https://maps.google.com/?cid=12354827454843046620,OPERATIONAL,,tourist_attraction,tourist_attraction,4.8,83,
ChIJpcUTgK8n0i0RPuOQU4i76CE,Wisata Uma Piak,-8.405551899999999,115.10497919999997,"H4V3+QXH, Wongaya Gede, Penebel, Tabanan Regency, Bali 82152, Indonesia",https://maps.google.com/?cid=2443408992040444734,OPERATIONAL,,tourist_attraction,tourist_attraction,4.3,3,
ChIJbyTwQMQn0i0Rppd7Lesceb8,The Throne Land,-8.4025749,115.1015652,"Jl subak piak, banjar bengkel, desa wangaya gede, Kabupaten Tabanan, Bali, Indonesia",https://maps.google.com/?cid=13797090729832191910,OPERATIONAL,+62 821-4668-6289,tourist_attraction,tourist_attraction,5,5,
ChIJ6Q7ERX8n0i0RCxUJSHxtmyk,Mario's Villa,-8.402489899999999,115.10193319999999,"H4X2+2Q3, Wongaya Gede, Penebel, Tabanan Regency, Bali 82152, Indonesia",https://maps.google.com/?cid=2998110357497124107,CLOSED_TEMPORARILY,,lodging,lodging,,,
ChIJ_88hdAAn0i0Rf3foaegrIC8,Rice Terrace View,-8.4045814,115.10440750000001,"H4W3+4G8, Wongaya Gede, Penebel, Tabanan Regency, Bali 82152, Indonesia",https://maps.google.com/?cid=3395762396246603647,OPERATIONAL,,tourist_attraction,tourist_attraction,5,1,
