id,name,latitude,longitude,address,url,status,phone,primary-type,types,rating,rating-count,price-level
ChIJe0_KdJgF0i0R9vvxpJHsyRQ,Nyawa Sibetan,-8.4466625,115.5310839,"HG3J+8CP, Sibetan, Bebandem, Karangasem Regency, Bali 80861, Indonesia",https://maps.google.com/?cid=1497988461359135734,OPERATIONAL,,night_club,night_club,5,1,
ChIJF3wxKuUF0i0RdKBO1639PhM,Warung Pengkolan,-8.4504663,115.53151469999997,"GGXJ+RJ6, Jl. Baledan, Sibetan, Kec. Bebandem, Kabupaten Karangasem, Bali 80861, Indonesia",https://maps.google.com/?cid=1386824658360115316,OPERATIONAL,+62 821-4443-9171,indonesian_restaurant,"indonesian_restaurant, restaurant, food",4.3,7,
ChIJj93OaJkF0i0ReKfoFmguab0,Warung Nak Lipan,-8.450914599999999,115.52847560000001,"Sibetan, Bebandem, Karangasem Regency, Bali, Indonesia",https://maps.google.com/?cid=13648491170318821240,OPERATIONAL,,restaurant,"restaurant, food",,,
ChIJ0_FN2T4F0i0RNSylZJ2TZ2Y,Gading permai,-8.4492066,115.5352802,"HG2P+846, Banjar pengawan, Sibetan, Kec. Bebandem, Kabupaten Karangasem, Bali 80861, Indonesia",https://maps.google.com/?cid=7379028818677541941,OPERATIONAL,,private_guest_room,"private_guest_room, lodging",5,2,
ChIJ6WS5WZgF0i0RGhu2tkQ7pNA,Bakso Ayam Ling - Ling,-8.448309499999999,115.5297959,"HG2H+MWF, Jl. Baledan, Sibetan, Kec. Bebandem, Kabupaten Karangasem, Bali 80861, Indonesia",https://maps.google.com/?cid=15034206622378760986,OPERATIONAL,,indonesian_restaurant,"indonesian_restaurant, restaurant, food",3.4,5,
ChIJO9H1gpQF0i0R8PzHzy1d0hs,puri cokorde teguhfajar,-8.4491176,115.5321702,"HG2J+9V3, Jl. Baledan, Sibetan, Kec. Bebandem, Kabupaten Karangasem, Bali 80861, Indonesia",https://maps.google.com/?cid=2004767235474193648,OPERATIONAL,+62 812-3835-2183,night_club,night_club,5,1,
ChIJuYPzB0AF0i0Rj-WoX0pmx3w,bali 419,-8.4478225,115.52985299999999,"HG2H+VWH, Jl. Baledan, Sibetan, Kec. Bebandem, Kabupaten Karangasem, Bali 80861, Indonesia",https://maps.google.com/?cid=8991267650687001999,CLOSED_TEMPORARILY,,restaurant,"restaurant, food",,,
ChIJjTm14PgF0i0RXca3eQ0VHDA,Pengerajin perak,-8.448972,115.53479949999999,"HG2M+9WJ, Sibetan, Bebandem, Karangasem Regency, Bali 80861, Indonesia",https://maps.google.com/?cid=3466668960789284445,OPERATIONAL,,private_guest_room,"private_guest_room, lodging",5,1,
ChIJp791ycwF0i0RKJEHx0zDV0M,teguh warehouse,-8.449171999999999,115.53227079999999,"HG2J+8WJ, Jl. Baledan, Sibetan, Kec. Bebandem, Kabupaten Karangasem, Bali 80861, Indonesia",https://maps.google.com/?cid=4852561858039091496,OPERATIONAL,+62 812-3835-2183,bar,bar,,,
ChIJv4LvQgAF0i0Rgbcsvzn0Ygw,Pura bukit cemara skg,-8.449297699999999,115.53192449999997,"HG2J+7QM, Br dukuh, Sibetan, Kec. Bebandem, Kabupaten Karangasem, Bali, Indonesia",https://maps.google.com/?cid=892544205030471553,OPERATIONAL,,tourist_attraction,tourist_attraction,,,
ChIJwdaXKVMF0i0RngI_dXmhdFU,Punyan bendul,-8.4495427,115.52945820000001,"HG2H+5QP, Sibetan, Bebandem, Karangasem Regency, Bali, Indonesia",https://maps.google.com/?cid=6157724133552489118,OPERATIONAL,,historical_landmark,historical_landmark,,,
ChIJta-k3JcF0i0RMTWMyEBp-nw,Warung Bu Wati,-8.446776999999999,115.5343862,"HG3M+7QJ, Jl. Baledan, Sibetan, Kec. Bebandem, Kabupaten Karangasem, Bali 80861, Indonesia",https://maps.google.com/?cid=9005626131844183345,OPERATIONAL,,restaurant,"restaurant, food",,,
ChIJdYoDW9QF0i0RhIOmPwY81vI,Warung Menamit,-8.4502659,115.53513619999998,"GGXM+VX9, Sibetan, Bebandem, Karangasem Regency, Bali 80861, Indonesia",https://maps.google.com/?cid=17498239399729988484,CLOSED_TEMPORARILY,,night_club,night_club,,,
