id,name,latitude,longitude,address,url,status,phone,primary-type,types,rating,rating-count,price-level
ChIJ0RMCaaH10S0RN8Omb2ZAO4g,Beniksu Strawberry Kintamani,-8.2855428,115.3476902,"Jl. Raya Pujung, Batur Tengah, Kec. Kintamani, Kabupaten Bangli, Bali 80652, Indonesia",https://maps.google.com/?cid=9816510621488169783,OPERATIONAL,+62 877-2257-3049,tourist_attraction,"tourist_attraction, grocery_store, food, store",4.4,23,
ChIJ-2TVkaj10S0RSYYznuHCENM,Galang Kangin hiking,-8.284939399999999,115.3491001,"P9F2+2P6, Jl. Raya Pujung, Batur Tengah, Kec. Kintamani, Kabupaten Bangli, Bali 80652, Indonesia",https://maps.google.com/?cid=15208870215907771977,OPERATIONAL,+62 812-3698-4969,hiking_area,"hiking_area, park",4.8,33,
ChIJYfpFJ7H10S0Rqhr36NhDoq4,Kintamani Adventure,-8.2854391,115.34788329999999,"P87X+R5C, Jl. Raya Pujung, Batur Tengah, Kec. Kintamani, Kabupaten Bangli, Bali 80652, Indonesia",https://maps.google.com/?cid=12583694907727092394,OPERATIONAL,,private_guest_room,"private_guest_room, lodging",4.6,8,
ChIJX_JPJ7H10S0RFP77_qOQBeU,Waroeng Me Su,-8.2854526,115.3478787,"Jl. Raya Pujung, Batur Tengah, Kec. Kintamani, Kabupaten Bangli, Bali 80652, Indonesia",https://maps.google.com/?cid=16502755443601047060,CLOSED_TEMPORARILY,+62 819-9994-3361,coffee_shop,"coffee_shop, cafe, food, store",4.3,32,PRICE_LEVEL_INEXPENSIVE
ChIJ15mKxjj10S0RizTP-JUVgZM,Pondok Gede Adi Putra,-8.285988,115.347459,"P87X+R5C, Jl. Raya Pujung, Batur Tengah, Kec. Kintamani, Kabupaten Bangli, Bali 80652, Indonesia",https://maps.google.com/?cid=10628800329439720587,OPERATIONAL,,,lodging,,,
ChIJNwG_H2710S0RQBfNba6xVc0,Warung buk nganis,-8.2847522,115.34878719999999,"P88X+3GV, Jl. Raya Pujung, Batur Tengah, Kec. Kintamani, Kabupaten Bangli, Bali 80652, Indonesia",https://maps.google.com/?cid=14795927513520215872,OPERATIONAL,,coffee_shop,"coffee_shop, cafe, food, store",4,1,
ChIJJxmd8bD10S0ROgXD4VFyuR0,Pak Yoga,-8.2838164,115.3415793,"Unnamed Road, P88R+FJG, Bayung Gede, Kec. Kintamani, Kabupaten Bangli, Bali 80652, Indonesia",https://maps.google.com/?cid=2141868793796953402,OPERATIONAL,,,lodging,,,
ChIJOXw9wxL10S0ROYLAgezr35E,Pondok pak de,-8.2834068,115.3420045,"Unnamed Road, P88R+JRJ, Bayung Gede, Kec. Kintamani, Kabupaten Bangli, Bali 80652, Indonesia",https://maps.google.com/?cid=10511379456327713337,OPERATIONAL,,private_guest_room,"private_guest_room, lodging",,,
ChIJw3kzhLD10S0R9FyQ-MPJM4s,Pondok Shudna,-8.2876453,115.34642019999998,"Jl. Raya bugbugan, 80652, Bayung Gede, Kec. Kintamani, Kabupaten Bangli, Bali 80652, Indonesia",https://maps.google.com/?cid=10030582638610242804,OPERATIONAL,+62 857-9267-9084,,lodging,5,5,
