id,name,latitude,longitude,address,url,status,phone,primary-type,types,rating,rating-count,price-level
ChIJde5TT2JB0i0RpwlnNeDiyK0,Pesonaku Kost Hijau,-8.7075827,115.2125463,"Jl. Pesonaku No.28, Pedungan, Denpasar Selatan, Kota Denpasar, Bali 80222, Indonesia",https://maps.google.com/?cid=12522508216500160935,OPERATIONAL,,,lodging,4.5,23,
ChIJO0dDrxJB0i0ReWMdMcl5tzQ,Anusapati 46,-8.708604,115.2106017,"76R6+H65, Jl. Pesonaku Blk. III, Pedungan, Denpasar Selatan, Kota Denpasar, Bali 80222, Indonesia",https://maps.google.com/?cid=3798638715729699705,OPERATIONAL,+62 878-8166-9580,,lodging,4.5,17,
ChIJxcQJ9NlB0i0RqgmoVufEAdk,Siomay Kos - Mekar,-8.7091434,115.2070511,"Jl. Mekar II No.35 B Blok D IV, Pemogan, Denpasar Selatan, Kota Denpasar, Bali 80225, Indonesia",https://maps.google.com/?cid=15636995879077415338,OPERATIONAL,+62 813-8626-5007,restaurant,"restaurant, food",4.2,16,
ChIJ76-gi41B0i0RCs7aeBH6WYU,Anindya Kost,-8.7048915,115.21194619999999,"Gg. Telkom II Jl. Umasari No.4, Pedungan, Denpasar Selatan, Kota Denpasar, Bali 80222, Indonesia",https://maps.google.com/?cid=9608986232920657418,OPERATIONAL,+62 821-4503-4942,lodging,lodging,4.7,20,
ChIJr6L9YUZB0i0RRskG7DUDJAs,Bandar Arak Bali,-8.7103749,115.2075995,"76Q5+V24, Jl. Mekar II Blok Jalan Mekar II, Pemogan, Denpasar Selatan, Kota Denpasar, Bali 80112, Indonesia",https://maps.google.com/?cid=802770163706808646,OPERATIONAL,+62 812-3840-1632,bar,bar,4.9,14,
ChIJU-LlfAtB0i0RTyDHi_y63Pc,Kos pemogan menuh,-8.7112681,115.2081711,"Jl. Mekar II Blk. E III No.98, Pemogan, Denpasar Selatan, Kota Denpasar, Bali 80222, Indonesia",https://maps.google.com/?cid=17860355816084152399,OPERATIONAL,+62 818-0558-7102,lodging,lodging,4.3,8,
ChIJP5m-mj1B0i0RGXCnMUPQ2oo,Mertagiri Home Stay,-8.703977,115.211812,"Jl. pulau moyo gg telkom sawah No.29., Pedungan, Denpasar Selatan, Kota Denpasar, Bali 80233, Indonesia",https://maps.google.com/?cid=10005538509171421209,OPERATIONAL,,private_guest_room,"private_guest_room, lodging",4.8,14,
ChIJB05ArVtB0i0Rv6Xe5fTC2bs,Villa Tirta Bali Dua,-8.710714,115.21162389999999,"Ambengan Residence I Jl. Diponegoro Gg. VI No.17, Pedungan, Denpasar Selatan, Kota Denpasar, Bali 80222, Indonesia",https://maps.google.com/?cid=13536064512123119039,OPERATIONAL,+62 821-2204-4876,hotel,"hotel, lodging",4.7,7,
ChIJ-fsmWM9B0i0RphXsNKBUYbY,Rumah Kost Dananjaya 3,-8.7073608,115.20727559999999,"Jl. Mekar II blok BIX, Pemogan, Denpasar Selatan, Kota Denpasar, Bali 80222, Indonesia",https://maps.google.com/?cid=13141878234703205798,OPERATIONAL,+62 852-3701-1098,,lodging,5,1,
ChIJz1PdPtBB0i0RHoXbdBvsI7c,Living Love Kost,-8.7087338,115.20678439999998,"Jl. Mekar II No.mor 28 Blk. D3, Pemogan, Denpasar Selatan, Kota Denpasar, Bali 80221, Indonesia",https://maps.google.com/?cid=13196650935794500894,OPERATIONAL,,hostel,"hostel, lodging",5,4,
ChIJ-zplUiBB0i0RmuiY5Uwi0Xs,PONDOK BALI SURYA,-8.708045799999999,115.20838239999999,"Jl. Mekar II Blok D1, Pemogan, Denpasar Selatan, Bali 80222, Indonesia",https://maps.google.com/?cid=8921950050462525594,OPERATIONAL,+62 813-3722-5559,,lodging,4,2,
ChIJpciJWmlB0i0RuNeyPDatWrM,Kost CCTV,-8.710004,115.20760960000001,"blok E, Jl. Mekar II No.53 ll, Pemogan, Denpasar Selatan, Kota Denpasar, Bali 80221, Indonesia",https://maps.google.com/?cid=12923832529151252408,OPERATIONAL,,,lodging,4.5,6,
ChIJMXh_bj9B0i0RSNuiQvNGXl0,Tour Bali Driver,-8.710649199999999,115.2084357,"Jl. Mekar II No.17, Pemogan, Denpasar Selatan, Kota Denpasar, Bali 80222, Indonesia",https://maps.google.com/?cid=6727892903947066184,OPERATIONAL,+62 896-1269-2639,travel_agency,"hotel, lodging, travel_agency, car_rental",4.8,122,
ChIJr5EfcThB0i0R7Mgrg49mOh4,Kost made umasari no 10,-8.705260599999999,115.21182329999998,"Gg. Telkom II Jl. Umasari No.10, Pedungan, Denpasar Selatan, Kota Denpasar, Bali 80222, Indonesia",https://maps.google.com/?cid=2178166136354097388,OPERATIONAL,+62 819-9976-5567,lodging,lodging,5,4,
ChIJw_PLWbtB0i0Rsg11lJVu8gs,Warung Ayu Diva,-8.7105496,115.20877089999999,"76Q5+QGJ, Pemogan, Denpasar Selatan, Denpasar City, Bali 80222, Indonesia",https://maps.google.com/?cid=860872067501067698,OPERATIONAL,+62 813-3809-6915,cafe,"cafe, food",4.8,6,
ChIJnRT0MgBB0i0RZKJhnyYkBr0,Kos Bu Heru III,-8.7042898,115.20668610000001,"76W4+7PP, Jl. Mekar Jaya Blk. B III, Pemogan, Denpasar Selatan, Kota Denpasar, Bali 80222, Indonesia",https://maps.google.com/?cid=13620613871329976932,OPERATIONAL,+62 895-4025-15706,private_guest_room,"private_guest_room, lodging",5,3,
ChIJHW49BE1B0i0Rq6aj1jZ1Ro4,Us House Maria,-8.707108999999999,115.2073055,"76V4+5W3 Rumah Ujung, Jl. Mekar Blok B IX, Pemogan, Denpasar Selatan, Kota Denpasar, Bali 80221, Indonesia",https://maps.google.com/?cid=10252010480145245867,OPERATIONAL,,private_guest_room,"private_guest_room, lodging",5,2,
ChIJ7dbObsFB0i0RAg3SnjyZq44,Putu adi,-8.7076238,115.20730750000001,"Jl. Mekar II D I No.23, Pemogan, Denpasar Selatan, Kota Denpasar, Bali 80222, Indonesia",https://maps.google.com/?cid=10280479060044942594,OPERATIONAL,,park,park,,,
ChIJc5td0KpB0i0R8_kn95injH8,Kos kosan pak adam,-8.7091537,115.20616799999999,"76R4+8FM, Jl. Mekar II, Pemogan, Denpasar Selatan, Kota Denpasar, Bali 80222, Indonesia",https://maps.google.com/?cid=9190905214979799539,OPERATIONAL,+62 853-3744-4045,lodging,lodging,5,2,
ChIJIQrlZtdB0i0RnTHU7hq90oI,Omah Winky,-8.707323299999999,115.2069155,"Jl. Mekar II Gg. VIII No.2 Blok B, Pemogan, Denpasar Selatan, Kota Denpasar, Bali 80222, Indonesia",https://maps.google.com/?cid=9426804893413552541,OPERATIONAL,+62 877-7898-1810,private_guest_room,"private_guest_room, lodging",,,
