id,name,latitude,longitude,address,url,status,phone,primary-type,types,rating,rating-count,price-level
ChIJi0uRavg50i0R8AyHj-3udMs,Coco Verde,-8.602462899999999,115.0982529,"Unnamed Road, Belalang, Kec. Kediri, Kabupaten Tabanan, Bali 82121, Indonesia",https://maps.google.com/?cid=14660605391080459504,OPERATIONAL,+62 877-5904-6839,hotel,"hotel, lodging",4.6,65,
ChIJq1Boatg50i0RZ57I7YnNErQ,Agung Village,-8.6061993,115.09512569999998,"Gang capung, Jl. Dukuh Jl. Tanah Lot, Beraban, Kec. Kediri, Kabupaten Tabanan, Bali 82121, Indonesia",https://maps.google.com/?cid=12975659468691381863,OPERATIONAL,,hotel,"hotel, lodging",4.5,40,
ChIJq6qqquE50i0RoQW_iB8yUhE,Villa Capung,-8.6057156,115.09466300000001,"93VV+PV7, Belalang, Kediri, Tabanan Regency, Bali 82121, Indonesia",https://maps.google.com/?cid=1248115157754643873,OPERATIONAL,,hotel,"hotel, lodging",4.5,12,
ChIJaVlaGwk30i0RM2WX82xgIgQ,Loku,-8.6049952,115.0939533,"93VV+PV7, Belalang, Kediri, Tabanan Regency, Bali 82121, Indonesia",https://maps.google.com/?cid=297906546419393843,OPERATIONAL,,hotel,"hotel, lodging",5,1,
ChIJU505FCg30i0RWPKFvObYebo,Casa Moi,-8.602637,115.09286399999999,"Jl. Tri Kahyangan No.20, Belalang, Kec. Kediri, Kabupaten Tabanan, Bali 82121, Indonesia",https://maps.google.com/?cid=13437009448753558104,OPERATIONAL,+62 821-4651-8322,hotel,"hotel, lodging",5,2,
ChIJTf4xGRE50i0Rm0l7X4PSaoU,Harvest Palace Tanah Lot,-8.6067664,115.0958648,"93VW+78X, Jl. Dukuh, Beraban, Kec. Kediri, Kabupaten Tabanan, Bali 82121, Indonesia",https://maps.google.com/?cid=9613727816260209051,OPERATIONAL,,park,park,,,
ChIJUyFizOc50i0RXrRdkdfOhdw,Dukuh village activities,-8.6067664,115.0958648,"93VW+78X, Jl. Dukuh, Beraban, Kec. Kediri, Kabupaten Tabanan, Bali 82121, Indonesia",https://maps.google.com/?cid=15890334285498791006,OPERATIONAL,+62 821-4429-3328,tourist_attraction,tourist_attraction,,,
ChIJ_8D4ZwA50i0R2zlF3VWngvk,Waroeng Sambrok,-8.6042016,115.0979404,"93WX+858, Jl. Pasekan, Beraban, Kec. Kediri, Kabupaten Tabanan, Bali 82121, Indonesia",https://maps.google.com/?cid=17979116649642801627,OPERATIONAL,+62 877-7405-7976,indonesian_restaurant,"indonesian_restaurant, restaurant, food",,,
