id,name,latitude,longitude,address,url,status,phone,primary-type,types,rating,rating-count,price-level
ChIJb-GYZtpE0i0RpHxt_Tag970,Buana Bali Luxury Villas,-8.8056495,115.14993500000001,"Jl. Raya Puri Gading II, Jimbaran, Kec. Kuta Sel., Kabupaten Badung, Bali 80361, Indonesia",https://maps.google.com/?cid=13688585750456401060,OPERATIONAL,+62 361 8954182,hotel,"hotel, lodging",4.4,479,
ChIJTRtM1tZE0i0RtiMa9EJIOoE,Soobali Ocean Villa,-8.809338499999999,115.1469734,"Pantai Balangan, 54RW+7Q9, Kuta Selatan, Ungasan, Kec. Kuta, Kabupaten Badung, Bali 80361, Indonesia",https://maps.google.com/?cid=9311834631942316982,OPERATIONAL,+62 818-0220-3388,,lodging,4.8,57,
ChIJ7XERZdFE0i0RWt-c-ag-wh8,Villa Sanjaya,-8.810667,115.14797659999999,"68, Jl. Tundun Penyu Dipal, Ungasan, South Kuta, Badung Regency, Bali 80361, Indonesia",https://maps.google.com/?cid=2288460456120868698,OPERATIONAL,+62 813-3996-4598,hotel,"hotel, lodging",4.4,38,
ChIJzzRxTNdE0i0RtFhPbQChL_I,Villa Leana,-8.808190399999999,115.14693609999998,"Jl. Pantai Balangan I, Ungasan, Kec. Kuta Sel., Kabupaten Badung, Bali 80361, Indonesia",https://maps.google.com/?cid=17451344104289949876,OPERATIONAL,+62 813-3732-3232,resort_hotel,"resort_hotel, hotel, lodging",4.8,35,
ChIJgcPMYXhF0i0RWorSa9elSNU,FeYa Living,-8.8050245,115.1503121,"17, Ptrum Puri Gading No.20 Blok F-1, Jimbaran, Kec. Kuta Sel., Kabupaten Badung, Bali 80361, Indonesia",https://maps.google.com/?cid=15368716073047329370,OPERATIONAL,+62 812-7772-0490,private_guest_room,"private_guest_room, lodging",4.2,5,
ChIJid9IrsxF0i0RvQxU9sVL2IA,Bali View Villa 1,-8.810615199999999,115.14825929999999,"54QX+Q82, Ungasan, South Kuta, Badung Regency, Bali 80361, Indonesia",https://maps.google.com/?cid=9284253945437621437,OPERATIONAL,,hotel,"hotel, lodging",5,2,
ChIJwarllMdF0i0RRzqTfXEbGhE,Barbaric Bowls,-8.806153799999999,115.1513492,"Jalan Puri Gading No.G2 / 8, Jimbaran, Kec. Kuta Sel., Kabupaten Badung, Bali 80363, Indonesia",https://maps.google.com/?cid=1232327622291307079,OPERATIONAL,+62 819-0787-3777,restaurant,"restaurant, food",4.6,32,
ChIJVdIzKddE0i0RcdgI7jKeiok,Villa Amanie,-8.808648,115.14701310000001,"Bali Heights, Ungasan, Jl. Pantai Balangan, Ungasan, Kec. Kuta Sel., Kabupaten Badung, Bali 80361, Indonesia",https://maps.google.com/?cid=9910907871561308273,OPERATIONAL,+62 813-3732-3232,resort_hotel,"resort_hotel, hotel, lodging",4.4,36,
ChIJQTIvhtlE0i0R12VH3Z1QtD0,Frangipani Villa Ungasan Bali,-8.809540000000002,115.14744390000001,"54RW+5XP, Jl. Tundun Penyu Dipal, Ungasan, Kec. Kuta Sel., Kabupaten Badung, Bali 80361, Indonesia",https://maps.google.com/?cid=4446267371074053591,OPERATIONAL,+62 812-3816-8333,,"hotel, lodging",4.6,22,
ChIJTQqDBoVF0i0RGth9klXR3E8,Buana Residence,-8.805349699999999,115.14983780000001,"54VX+VW8, Gg. Tresna Asih, Jimbaran, Kec. Kuta Sel., Kabupaten Badung, Bali 80361, Indonesia",https://maps.google.com/?cid=5754704589332797466,OPERATIONAL,,private_guest_room,"private_guest_room, lodging",4.8,4,
ChIJYWB7ZdFE0i0RwImsdMUdvNQ,Villa Timbangan,-8.8113048,115.1494242,"Jl. Tundun Penyu Dipal No.No, Ungasan, Kec. Kuta Sel., Kabupaten Badung, Bali 80361, Indonesia",https://maps.google.com/?cid=15329159965565553088,OPERATIONAL,,,"real_estate_agency, lodging, travel_agency",4.9,19,
ChIJBZ8b0K5F0i0RKQV0cuW9Uuo,ASABY Villa Bali,-8.807485699999999,115.149991,"Jl. Blong Bidadari No.1, Ungasan, Kec. Kuta Sel., Kabupaten Badung, Bali 80361, Indonesia",https://maps.google.com/?cid=16884766746130777385,OPERATIONAL,+62 812-8488-7050,hotel,"hotel, lodging",4.8,13,
ChIJG33F0KRF0i0RHHxTHEG_Jvk,One68 Villa,-8.810976199999999,115.1481537,"54QX+J72, Jl. Tundun Penyu, Ungasan, Kec. Kuta Sel., Kabupaten Badung, Bali 80361, Indonesia",https://maps.google.com/?cid=17953247250928073756,OPERATIONAL,+62 812-9092-8813,hotel,"hotel, lodging",4.7,17,
ChIJeXINWlhF0i0RxCviMViyH78,Rockbottom bali,-8.809128500000002,115.15043340000001,"55R2+85V, Ungasan, South Kuta, Badung Regency, Bali 80361, Indonesia",https://maps.google.com/?cid=13771922277386038212,OPERATIONAL,,tourist_attraction,tourist_attraction,4.5,35,
ChIJQfnBINFE0i0R4EwwOEnkPPQ,Villa Bukit Indah,-8.8086399,115.1479713,"Jl. Tundun Penyu Dipal, Ungasan, Kec. Kuta Sel., Kabupaten Badung, Bali 80361, Indonesia",https://maps.google.com/?cid=17599192446983490784,OPERATIONAL,+62 817-4720-980,private_guest_room,"private_guest_room, lodging",4.8,11,
ChIJHQUnN9dE0i0R3A-jHXNkMmI,Villa Lebah,-8.808319599999999,115.14684809999999,"Jl. Pantai Balangan No.2011, Jimbaran, Kec. Kuta Sel., Kabupaten Badung, Bali 80361, Indonesia",https://maps.google.com/?cid=7075828410133712860,OPERATIONAL,+62 361 4724868,,lodging,4.7,11,
ChIJz47JAmtF0i0RLZ7VR3oRDLc,Krupuk,-8.8059093,115.15285010000001,"55V3+J4Q, Jl. Bukit Bintang, Ungasan, Kec. Kuta Sel., Kabupaten Badung, Bali 80361, Indonesia",https://maps.google.com/?cid=13189936625550204461,OPERATIONAL,+62 821-4187-5598,fast_food_restaurant,"fast_food_restaurant, restaurant, food",,,
ChIJ2dXq8wlb0i0R5KfpFu8MRig,Cc mie & nasi campur jakarta,-8.8051018,115.1503841,"Jl. Puri Gading No.19 blok F18, Jimbaran, Kec. Kuta Sel., Kabupaten Badung, Bali 80361, Indonesia",https://maps.google.com/?cid=2902021230907992036,OPERATIONAL,+62 812-4657-7256,restaurant,"restaurant, food",4.6,43,
ChIJ8fGY7gNF0i0RyaEjcJWNxRE,Balconies Villa Bali,-8.807508,115.1513056,"Blong Bidadari I No.99, Ungasan, Kec. Kuta Sel., Kabupaten Badung, Bali 80361, Indonesia",https://maps.google.com/?cid=1280585342027801033,OPERATIONAL,,lodging,lodging,4.9,8,
ChIJqQV_hdpE0i0RfhNjRixwwsc,Bookit Backpacker Hostel,-8.8058328,115.15117590000001,"Jl. Puri Gading No.29 Blok G1, Jimbaran, Kec. Kuta Sel., Kabupaten Badung, Bali 80361, Indonesia",https://maps.google.com/?cid=14394190694491296638,OPERATIONAL,+62 813-3780-2399,hostel,"hostel, lodging",4.3,32,
