id,name,latitude,longitude,address,url,status,phone,primary-type,types,rating,rating-count,price-level
ChIJYQEJ3dU70i0RDrcKK_2NFvU,Kopi Sawah,-8.5410833,115.15149999999998,"Jl. Ahmad Yani VIII Jl. Raya Senapahan No.99, Banjar Anyar, Kec. Kediri, Kabupaten Tabanan, Bali 82121, Indonesia",https://maps.google.com/?cid=17660459107268343566,OPERATIONAL,,coffee_shop,"coffee_shop, cafe, food, store",4.7,15,
ChIJbes0qQo70i0RzzSHN-zmiRA,Kedai Pizza 21,-8.5442599,115.15131319999999,"Jl A Yani VIII, Senapahan Kelod, Banjar Anyar, Kec. Kediri, Kabupaten Tabanan, Bali 82121, Indonesia",https://maps.google.com/?cid=1191737478634484943,OPERATIONAL,+62 859-6592-1946,pizza_restaurant,"pizza_restaurant, restaurant, food",,,
ChIJKZJT0ic70i0Ru-8BlNB3Lm4,Villa Bali style,-8.5405632,115.1539147,"Unnamed Road, F553+QHF, Banjar Anyar, Kec. Kediri, Kabupaten Tabanan, Bali 82121, Indonesia",https://maps.google.com/?cid=7939414930820820923,OPERATIONAL,,hotel,"hotel, lodging",,,
ChIJEz4vdq470i0R0ahA1UIVA-I,Roku Kitchen,-8.541844,115.14744489999998,"Jl Tendean Perumahan Lebah Asri No 42 Kediri Tabanan Bali, Banjar Anyar, Kec. Kediri, Kabupaten Tabanan, Bali 82122, Indonesia",https://maps.google.com/?cid=16285884054291654865,OPERATIONAL,+62 821-4516-0330,cafe,"cafe, food",4.5,19,PRICE_LEVEL_INEXPENSIVE
ChIJcekn10470i0RgX-XMMmLUiQ,PONDOK BAYU SAMPING TUKAD,-8.5427841,115.1476139,"Gg yeh lebah No.81, Banjar Anyar, Kec. Kediri, Kabupaten Tabanan, Bali 82121, Indonesia",https://maps.google.com/?cid=2617308029675601793,OPERATIONAL,,park,park,5,6,
ChIJF8m-puw70i0RFY7d_qGL9I8,Warung Hepi,-8.539945699999999,115.148567,"Jln. Wayan Terungga ( Sebelah SMK Gandhi Usada, Tanah Bang, Banjar Anyar, Kec. Kediri, Kabupaten Tabanan, Bali 82123, Indonesia",https://maps.google.com/?cid=10373069369623023125,OPERATIONAL,+62 821-4592-8919,indonesian_restaurant,"indonesian_restaurant, restaurant, food",,,
ChIJgQat84Q70i0RBeyDIbcfLG4,Kost Bu eka,-8.5411664,115.15327169999998,"F553+G8J, Banjar Anyar, Kediri, Tabanan Regency, Bali 82121, Indonesia",https://maps.google.com/?cid=7938755114549111813,OPERATIONAL,,lodging,lodging,,,
ChIJafu3rqk70i0RPBPIyf55AKw,WARUNG SARI NADI,-8.5395057,115.14986169999999,"Jl. Tendean No.Senapahan, Banjar Anyar, Kec. Kediri, Kabupaten Tabanan, Bali 82121, Indonesia",https://maps.google.com/?cid=12394040309737591612,OPERATIONAL,+62 852-3090-3642,indonesian_restaurant,"indonesian_restaurant, restaurant, food",5,1,
ChIJNWmBVCg70i0RcRx083wA_Yk,Markas PUI,-8.5456766,115.15195229999999,"F532+PQG, Jl. Ahmad Yani VIII, Abian Tuwung, Kec. Kediri, Kabupaten Tabanan, Bali 82121, Indonesia",https://maps.google.com/?cid=9943104088964340849,OPERATIONAL,,night_club,night_club,,,
ChIJa8TeRLY70i0ReM8PKhK0f3g,Amertha Boga Vegetarian,-8.5411465,115.1475509,"F45X+G2V, Banjar Anyar, Kediri, Tabanan Regency, Bali 82121, Indonesia",https://maps.google.com/?cid=8682856596701695864,CLOSED_TEMPORARILY,+62 888-8059-703,vegetarian_restaurant,"vegetarian_restaurant, restaurant, food",4,1,
ChIJF6chmjY70i0ROemHvRV7HUg,Jero Taman Senapahan - Kediri - Tabanan,-8.5413971,115.15407680000001,"F553+CJW, Banjar Anyar, Kediri, Tabanan Regency, Bali 82121, Indonesia",https://maps.google.com/?cid=5196444878359750969,OPERATIONAL,,private_guest_room,"private_guest_room, lodging",5,1,
ChIJ--y8l0Y70i0RmJYBnBe115s,Carving Galery Astika Adi,-8.540225999999999,115.150729,"Jl. I Wayan Terunga No.14, Banjar Anyar, Kec. Kediri, Kabupaten Tabanan, Bali 82121, Indonesia",https://maps.google.com/?cid=11229643308877846168,OPERATIONAL,,art_gallery,art_gallery,5,5,
ChIJE7zoXwA70i0RrFQlkLAMtDg,DANAN JAYA RESIDENCE TANAH BANG,-8.5413664,115.1480639,"F45X+F64, Jl. I Wayan Terunga, Banjar Anyar, Kec. Kediri, Kabupaten Tabanan, Bali 82121, Indonesia",https://maps.google.com/?cid=4085904714404025516,OPERATIONAL,,private_guest_room,"private_guest_room, lodging",,,
ChIJH514IPs70i0R7A9bMOxGDB4,Kedai Dini,-8.5456437,115.15196379999999,"F532+PQW, Jl. Ahmad Yani VIII, Abian Tuwung, Kec. Kediri, Kabupaten Tabanan, Bali 82121, Indonesia",https://maps.google.com/?cid=2165183501095866348,OPERATIONAL,+62 815-5868-4472,restaurant,"restaurant, food",5,4,
ChIJcThs3a470i0RttneZV-1LQs,Fast Food Restaurant,-8.5394969,115.14977270000001,"F46X+6W2, Jl. I Wayan Terunga, Banjar Anyar, Kec. Kediri, Kabupaten Tabanan, Bali 82121, Indonesia",https://maps.google.com/?cid=805499329704810934,CLOSED_TEMPORARILY,,fast_food_restaurant,"fast_food_restaurant, restaurant, food",,,
