id,name,latitude,longitude,address,url,status,phone,primary-type,types,rating,rating-count,price-level
ChIJc6alRx430i0RAz1fQiYaUnY,Nirjhara,-8.603137,115.088272,"Jl. Nirjhara, Banjar Kedungu, Belalang, Kediri, Tabanan Regency, Bali 82121, Indonesia",https://maps.google.com/?cid=8525905796190387459,OPERATIONAL,+62 361 2095333,hotel,"hotel, resort_hotel, spa, lodging",4.9,437,
ChIJ9cVXhtU30i0RV8J1jX6Y0Ko,Little Ripper Bali,-8.605823599999999,115.0884796,"Jl. Pantai Kedungu No.1899, Belalang, Kec. Kediri, Kabupaten Tabanan, Bali 82121, Indonesia",https://maps.google.com/?cid=12308505450910171735,OPERATIONAL,+62 821-4728-1899,cafe,"cafe, food",4.8,334,
ChIJBSN4a9g30i0RMbXtYRJrXRU,"Swell Hotel, Pool Bar & Restaurant",-8.6079983,115.08622989999999,"Jl. Pantai Kedungu No.99, Belalang, Kec. Kediri, Kabupaten Tabanan, Bali 82115, Indonesia",https://maps.google.com/?cid=1539504374327129393,OPERATIONAL,+62 823-3993-6576,hotel,"hotel, hostel, lodging, restaurant, food",4.7,149,
ChIJByOdKHs30i0RqGx85C5mKuc,D'sawah Villas,-8.609133,115.08538599999999,"Jalan Tanah Lot, 93RP+85R, Beraban, Selemadeg Timur, Belalang, Kec. Tabanan, Kabupaten Tabanan, Bali 82115, Indonesia",https://maps.google.com/?cid=16657238523371089064,OPERATIONAL,+62 361 4790674,hotel,"hotel, lodging",3.9,130,
ChIJOQjvnmE50i0RJIKxjkIn9js,"Downtown - Progressive Latin American Cuisine - Breakfast, Lunch + Dinner - Kedungu, Bali",-8.6046391,115.0900733,"Jl. Pantai Kedungu, Kedungu, Belalang, Kec. Kediri, Kabupaten Tabanan, Bali 82121, Indonesia",https://maps.google.com/?cid=4320684059323892260,OPERATIONAL,+62 812-3960-5595,restaurant,"restaurant, food",4.8,98,
ChIJJQ34sXY30i0RLGPuzvpo-wI,Seaside Tribe - Boutique Surf Stay & Retreat Kedungu,-8.6025147,115.0897182,"Jl. Nirjhara Belalang, Kediri, Belalang, Banjar Kedungu, Kabupaten Tabanan, Bali 82121, Indonesia",https://maps.google.com/?cid=214880833653072684,OPERATIONAL,+62 813-5314-5256,hotel,"hotel, lodging",5,71,
ChIJU5ut-Rk30i0RioZpIBLdDRw,Tipsy Pigs Bali,-8.608939,115.0855421,"Jl. Pantai Kedungu No.7, Belalang, Kec. Kediri, Kabupaten Tabanan, Bali 82115, Indonesia",https://maps.google.com/?cid=2021514877682157194,OPERATIONAL,+62 812-4688-6669,restaurant,"restaurant, food",4.8,45,
ChIJX18_iss30i0RO0_TdeZbyws,Angel Bay Bali - Beach House,-8.6086177,115.08411840000001,"Pantai Kedungu, Jl. Pantai Kedungu Kedungu No.1, Belalang, Kec. Kediri, Kabupaten Tabanan, Bali 82121, Indonesia",https://maps.google.com/?cid=849874000066858811,OPERATIONAL,+62 857-9289-3171,,"hotel, lodging",4.9,20,
ChIJK-QEyTc30i0RFGNfn36yQNc,Imah BC Surfcamp,-8.605478,115.08849149999999,"Jl. Pantai Kedungu Gg Anggrek, BR Kedungu, Belalang, Kec. Kediri, Kabupaten Tabanan, Bali 82121, Indonesia",https://maps.google.com/?cid=15510593373573440276,OPERATIONAL,+62 812-8383-4750,resort_hotel,"resort_hotel, hotel, lodging",4.7,24,
ChIJzT6jKDM30i0RTXSjb-fJ8p0,The Swell Restaurant,-8.608020699999999,115.0862961,"Jl. Pantai Kedungu, Belalang, Kec. Kediri, Kabupaten Tabanan, Bali 82115, Indonesia",https://maps.google.com/?cid=11381381204166276173,OPERATIONAL,+62 823-3993-6576,restaurant,"restaurant, food",5,33,
ChIJx_XKYjo30i0R1hW_8vDSLFE,Front Cafe Kedungu,-8.6037765,115.0906345,"Jl. Pantai Kedungu, Belalang, Kec. Kediri, Kabupaten Tabanan, Bali 82121, Indonesia",https://maps.google.com/?cid=5849281948354024918,OPERATIONAL,+62 878-6320-4761,restaurant,"restaurant, food",4.9,38,
ChIJxwLIkG830i0ROHmqBD_v2nQ,TMO COFFEE BALI | KEDUNGU BEACH |,-8.6060756,115.08849930000001,"Jl. Pantai Kedungu No.1899, Belalang, Kec. Kediri, Kabupaten Tabanan, Bali 82121, Indonesia",https://maps.google.com/?cid=8420305507262822712,OPERATIONAL,,cafe,"cafe, food",4.8,117,
ChIJl32oxkE30i0RT-9zBIYbBg8,Jero Delod Guesthouse,-8.603861799999999,115.09074980000001,"Jl. Pantai Kedungu, Belalang, Kec. Kediri, Kabupaten Tabanan, Bali 82121, Indonesia",https://maps.google.com/?cid=1082583022843457359,OPERATIONAL,+62 819-9970-4250,guest_house,"guest_house, hotel, lodging",5,27,
ChIJGw6uPns30i0RsuJ6y1Zee6k,SILVERSAND VILLA,-8.6094385,115.0864278,"Jl. Pantai Kedungu, Belalang, Kec. Kediri, Kabupaten Tabanan, Bali 82121, Indonesia",https://maps.google.com/?cid=12212458541419258546,OPERATIONAL,+43 664 2415886,,"bed_and_breakfast, lodging",4.5,33,
ChIJsWO_DUc30i0RGktrWtlBzu4,Life Between,-8.606021199999999,115.08742070000001,"Jl. Pantai Kedungu, Belalang, Kec. Kediri, Kabupaten Tabanan, Bali 82115, Indonesia",https://maps.google.com/?cid=17207763628009933594,OPERATIONAL,+62 819-5396-8669,cafe,"cafe, food",5,46,
ChIJt1M3TVQ50i0RXfsW-BvCRdc,Sanga#9 Boutique tiny Villa,-8.6054686,115.08876039999998,"Jl. Pantai Kedungu No.109b, Kabupaten, Kec. Kediri, Kabupaten Tabanan, Bali 82121, Indonesia",https://maps.google.com/?cid=15512017916929702749,OPERATIONAL,,guest_house,"guest_house, lodging",4.9,27,
ChIJG-OUqGM30i0RiXZPbwuC5Ug,Kubu Kedungu,-8.6053166,115.0904767,"93VR+V5H, Jl. Pantai Kedungu Banjar Kedungu, Belalang, Kec. Kediri, Kabupaten Tabanan, Bali 82121, Indonesia",https://maps.google.com/?cid=5252747526021281417,OPERATIONAL,+62 819-9906-4849,hotel,"hotel, bed_and_breakfast, lodging",4.5,68,
ChIJJ1xzumM30i0R7S4C0swBvAE,Oemah Kedungu,-8.6048811,115.0901854,"Pantai Kedungu, Belalang, Kec. Kediri, Kabupaten Tabanan, Bali 82121, Indonesia",https://maps.google.com/?cid=124976868867845869,OPERATIONAL,+62 823-5922-0070,hotel,"hotel, lodging",4.3,20,
ChIJW-mMGP430i0RXXyyMndIqQE,AMBU at Nirjhara,-8.6031707,115.087943,"Nirjhara, Jl. Nirjhara Banjar Kedungu, Belalang, Kec. Kediri, Kabupaten Tabanan, Bali 82121, Indonesia",https://maps.google.com/?cid=119706541890894941,OPERATIONAL,+62 361 2095333,restaurant,"restaurant, food",4.8,5,
ChIJsV2RyWM30i0RWPGi25rki7A,TJ Warung,-8.6042501,115.0906449,"Jl. Pantai Kedungu No.3495, Belalang, Kec. Kediri, Kabupaten Tabanan, Bali 82121, Indonesia",https://maps.google.com/?cid=12721512926199083352,OPERATIONAL,,indonesian_restaurant,"indonesian_restaurant, restaurant, food",4.7,20,
