id,name,latitude,longitude,address,url,status,phone,primary-type,types,rating,rating-count,price-level
ChIJFeWaGtxt0i0RSn0OkQbEguk,Secret Beach,-8.7089283,115.44485259999998,"Jalan secret beach, nusa ceningan, 7CVR+5XF, Jl. Sarang Burung, Lembongan, Kec. Nusa Penida, Kabupaten Klungkung, Bali 80771, Indonesia",https://maps.google.com/?cid=16826226690292088138,OPERATIONAL,,resort_hotel,"resort_hotel, bar, indonesian_restaurant, hotel, lodging, restaurant, food",4.2,752,
ChIJu7eYottt0i0R_UtvwPA0Xx4,The Dungki Bendega Resto,-8.7078405,115.442278,"Jl. Secret Beach, 7CRR+VW6, Nusa Ceningan, Lembongan, Kec. Nusa Penida, Kabupaten Klungkung, Bali 80771, Indonesia",https://maps.google.com/?cid=2188526152550665213,OPERATIONAL,,seafood_restaurant,"seafood_restaurant, restaurant, food",4.8,427,PRICE_LEVEL_INEXPENSIVE
ChIJPfz1LABt0i0RKQv_FEe5u6k,Parking Secret Beach,-8.7081555,115.44456260000001,"7CRV+PRP, Lembongan, Nusa Penida, Klungkung Regency, Bali, Indonesia",https://maps.google.com/?cid=12230572928000789289,OPERATIONAL,,tourist_attraction,tourist_attraction,5,1,
ChIJm4S0CNxt0i0RevQRLJ-l1UE,Villa Trevally,-8.709136800000001,115.44377030000001,"Jalan Secret Beach Nusa Ceningan, 7CRV+8GR, Lembongan, Kec. Nusa Penida, Kabupaten Klungkung, Bali 80771, Indonesia",https://maps.google.com/?cid=4743879885562442874,CLOSED_TEMPORARILY,+62 812-3962-1008,hotel,"hotel, lodging",3.9,44,
ChIJ_y30XN1t0i0R5-3D75AUTOM,Pura Dalem Lebaoh Camundi Rajapeni,-8.705359999999999,115.4492444,"7CVX+VM5, Lembongan, Nusa Penida, Klungkung Regency, Bali 80771, Indonesia",https://maps.google.com/?cid=16378488557570092519,OPERATIONAL,+62 811-3983-221,hindu_temple,"hindu_temple, tourist_attraction, place_of_worship",4.3,20,
ChIJy-ZFCNxt0i0Rw8_JXOMbyWU,La Baia,-8.7089874,115.44386279999998,"Secret Beach, Nusa Ceningan, Lembongan, 7CRV+CG5, Lembongan, Klungkung, Kabupaten Klungkung, Bali 80771, Indonesia",https://maps.google.com/?cid=7334424131477819331,CLOSED_TEMPORARILY,+62 812-3962-1008,restaurant,"restaurant, night_club, bar, food",3.8,38,
ChIJ0WCzEjVt0i0RkOAVzNSSCXE,Ceningan snorkeling trip,-8.706610099999999,115.44274609999998,"Nusa Ceningan, Lembongan, Kec. Nusa Penida, Kabupaten Klungkung, Bali 80771, Indonesia",https://maps.google.com/?cid=8145202843730960528,OPERATIONAL,+62 812-3716-1170,tourist_attraction,tourist_attraction,5,14,
ChIJQZoPsaJt0i0Rk9K1e88-nN4,Tropicurl group and soft Destination,-8.707466799999999,115.442369,"Secret beach Nusa ceningan, Lembongan, Kec. Nusa Penida, Kabupaten Klungkung, Bali 80771, Indonesia",https://maps.google.com/?cid=16040765033641530003,OPERATIONAL,+62 812-3838-2901,travel_agency,"travel_agency, tourist_attraction, store",5,6,
