id,name,latitude,longitude,address,url,status,phone,primary-type,types,rating,rating-count,price-level
ChIJi_2_yPaJ0S0RivAvmsWFLPQ,Kopi Luwak Baturiti,-8.3154992,115.1831214,"M5MM+R65, Jalan Raya, Batunya, Kec. Baturiti, Kabupaten Tabanan, Bali 82191, Indonesia",https://maps.google.com/?cid=17594584927971569802,OPERATIONAL,+62 819-9975-2494,,"coffee_shop, cafe, store, food",4.5,573,
ChIJ3yMPXZuJ0S0RXFEhUaD04-Y,WADESA Warung Kopi & Resto,-8.3135057,115.1820242,"Batunya, Baturiti, Tabanan Regency, Bali 82191, Indonesia",https://maps.google.com/?cid=16637410417829826908,OPERATIONAL,+62 823-3922-1193,restaurant,"restaurant, food",4.4,423,
ChIJpQramfOJ0S0RYetsSjGFa2I,Samsam guling ULAM SARI & genyol,-8.312387,115.18173970000001,"Jl. Raya Baturiti, Batunya, Kec. Baturiti, Kabupaten Tabanan, Bali 82191, Indonesia",https://maps.google.com/?cid=7091908484973521761,OPERATIONAL,+62 877-6247-9848,restaurant,"restaurant, food",4.8,66,
ChIJewKFy_aJ0S0Rt-6BzVwgl0E,Warung Bu Soto,-8.3158251,115.18322300000001,"M5MM+M79, Jl. Baturiti Bedugul, Batunya, Kec. Baturiti, Kabupaten Tabanan, Bali 80191, Indonesia",https://maps.google.com/?cid=4726281916905549495,OPERATIONAL,+62 852-3760-8969,indonesian_restaurant,"indonesian_restaurant, restaurant, food",4.9,20,
ChIJ_8cxK5mJ0S0R89g2Oid8tr4,Warung makan de Paon,-8.314606999999999,115.1828544,"Batunya, Baturiti, Tabanan Regency, Bali 82191, Indonesia",https://maps.google.com/?cid=13742307820889889011,OPERATIONAL,,restaurant,"restaurant, food",5,9,
ChIJXSl3l8uJ0S0RetCz-o2HLG8,Taman Usada Kebun Raya Bali,-8.3195187,115.1838864,"Jl. Raya Baturiti, Candikuning, Kec. Baturiti, Kabupaten Tabanan, Bali 82191, Indonesia",https://maps.google.com/?cid=8010926881051496570,OPERATIONAL,+62 368 2033211,park,park,5,1,
ChIJA6l6kfOJ0S0RYz8zJDftrSg,Warung Sari Gemitir,-8.3129008,115.1817584,"M5PJ+RPJ, Jalan Raya, Batunya, Kec. Baturiti, Kabupaten Tabanan, Bali 82191, Indonesia",https://maps.google.com/?cid=2931259753574383459,OPERATIONAL,+62 812-3398-95940,restaurant,"restaurant, food",4.3,39,
ChIJ-xCc6_OJ0S0Re4wkErfSxOo,Widhi's Coffee Shop & Cafe,-8.3131141,115.18184360000001,"M5PJ+QP4, Batunya, Baturiti, Tabanan Regency, Bali 82191, Indonesia",https://maps.google.com/?cid=16916877784035658875,OPERATIONAL,,restaurant,"restaurant, food",4,3,
ChIJ64FS4_mJ0S0ROMsQg8RxpSo,Waroeng D'DAUN,-8.3195958,115.1840003,"Jl. Raya Baturiti No.2, Batunya, Kec. Baturiti, Kabupaten Tabanan, Bali 82191, Indonesia",https://maps.google.com/?cid=3072987409576676152,OPERATIONAL,+62 818-0552-1372,restaurant,"indonesian_restaurant, restaurant, food",4,87,PRICE_LEVEL_INEXPENSIVE
ChIJYX7Ynk-J0S0RENwo63c1btc,Warung Sudi Mampir,-8.3148181,115.1827732,"M5PM+34C, Jl. Raya Baturiti, Batunya, Kec. Baturiti, Kabupaten Tabanan, Bali 82191, Indonesia",https://maps.google.com/?cid=15523403754755382288,OPERATIONAL,+62 882-1904-3409,restaurant,"restaurant, food",5,2,
ChIJ1eNzyTGJ0S0RwQAjm10A0bM,Wr.be jair dek bong,-8.3114173,115.18100899999997,"Jl. Raya Baturiti No.99, Batunya, Kec. Baturiti, Kabupaten Tabanan, Bali 82191, Indonesia",https://maps.google.com/?cid=12957138004956348609,OPERATIONAL,+62 813-3957-7070,restaurant,"restaurant, food",5,3,
ChIJFXhqj0mJ0S0RMefNDCgq6HM,Bali 601,-8.315508699999999,115.1831193,"M5MM+Q6X, Jalan Raya, Batunya, Kec. Baturiti, Kabupaten Tabanan, Bali 82191, Indonesia",https://maps.google.com/?cid=8351971860460463921,OPERATIONAL,,restaurant,"restaurant, food",,,
ChIJD5DQGdmJ0S0RwA3aeTQigLA,Bukit Harmony,-8.314482,115.18183479999999,"Jl. Raya Baturiti No.10, Batunya, Kec. Baturiti, Kabupaten Tabanan, Bali 82191, Indonesia",https://maps.google.com/?cid=12718202956472257984,OPERATIONAL,,hostel,"hostel, lodging",5,3,
ChIJobVKqnaJ0S0R9FeFBx1l0eE,Toko kue,-8.3187119,115.18393590000001,"Jl. Raya Baturiti No.10, Batunya, Kec. Baturiti, Kabupaten Tabanan, Bali 82191, Indonesia",https://maps.google.com/?cid=16271898104020948980,OPERATIONAL,+62 812-2688-1248,cafe,"cafe, food",5,1,
ChIJRcnhHp2J0S0RYRxLQ94vZVE,Bu Herry Masakan Khas Cirebon,-8.3165043,115.18326080000001,"M5MM+98J, Jalan Raya, Batunya, Kec. Baturiti, Kabupaten Tabanan, Bali 82191, Indonesia",https://maps.google.com/?cid=5865146721378180193,OPERATIONAL,+62 877-6143-3884,indonesian_restaurant,"indonesian_restaurant, restaurant, food",5,1,
ChIJ_2Hs0A0j0i0RWN2NzaYIAVw,Warung Merdeka,-8.3190119,115.18391609999999,"Jln. Raya Denpasar-Bedugul, Baturiti, Kec. Baturiti, Kabupaten Tabanan, Bali 82191, Indonesia",https://maps.google.com/?cid=6629589638972300632,OPERATIONAL,+62 881-0371-91532,restaurant,"restaurant, food",5,1,
ChIJ47gpDMeJ0S0R7UZ2fFvWfCU,Warung Budi,-8.3142301,115.18244589999999,"M5PJ+8X4, Jalan Raya, Batunya, Kec. Baturiti, Kabupaten Tabanan, Bali 82191, Indonesia",https://maps.google.com/?cid=2701269564933949165,OPERATIONAL,+62 831-1923-8818,restaurant,"restaurant, food",5,1,
ChIJezEKmPOJ0S0R1Xb8TnOCQdk,Wr.Muria,-8.3124373,115.18152859999998,"Jl. Raya Baturiti No.91, Batunya, Kec. Baturiti, Kabupaten Tabanan, Bali 82191, Indonesia",https://maps.google.com/?cid=15654937211474573013,CLOSED_TEMPORARILY,,restaurant,"restaurant, food",4,1,
ChIJ-9R5vQ-J0S0R0VjDMAHyzAU,Bali 602,-8.3158312,115.18316850000001,"M5MM+M77, Jl. Raya Baturiti, Batunya, Kec. Baturiti, Kabupaten Tabanan, Bali 82191, Indonesia",https://maps.google.com/?cid=417974952365611217,CLOSED_TEMPORARILY,,restaurant,"restaurant, food",,,
ChIJaXZRtv2J0S0Rtp9Dsm4sUIU,Warung Nasi Mek Beri.,-8.313385799999999,115.18110229999999,"M5PJ+JCX, belakang Polsek, Kec. Baturiti, Kabupaten Tabanan, Bali 82191, Indonesia",https://maps.google.com/?cid=9606226859130068918,OPERATIONAL,+62 877-5581-7069,indonesian_restaurant,"indonesian_restaurant, restaurant, food",4,1,
