id,name,latitude,longitude,address,url,status,phone,primary-type,types,rating,rating-count,price-level
ChIJUR_D9RcV0i0RpkNvCYzQGHw,The Bodhi Leaf Wellness Resort,-8.6053344,115.3027307,"Jl. Pantai Purnama, Sukawati, Kec. Sukawati, Kabupaten Gianyar, Bali 80581, Indonesia",https://maps.google.com/?cid=8942126360016405414,OPERATIONAL,,,"spa, hotel, lodging",5,4,
ChIJ_8Qnre4V0i0RoB1CsBm9aw4,Warung Makan Dek Jun,-8.6094007,115.3039398,"Jl. Pantai Purnama, Sukawati, Kec. Sukawati, Kabupaten Gianyar, Bali 80582, Indonesia",https://maps.google.com/?cid=1039132057067986336,OPERATIONAL,+62 852-3725-9244,cafe,"cafe, food",5,4,
ChIJKS6CFCcV0i0R8nzlPzJRMFg,Kos bli saputra,-8.6084509,115.3043062,"98R3+JP7, Sukawati, Gianyar Regency, Bali 80581, Indonesia",https://maps.google.com/?cid=6354668350481988850,OPERATIONAL,,private_guest_room,"private_guest_room, lodging",4.3,3,
ChIJh5E40lMV0i0RU_5I4kCrDf8,Bonsai Kopi,-8.607376,115.30218169999999,"Jl. Pantai Purnama No.35, Sukawati, Kec. Sukawati, Kabupaten Gianyar, Bali 80581, Indonesia",https://maps.google.com/?cid=18378533949531553363,OPERATIONAL,+62 813-3887-6993,cafe,"cafe, food",4.3,12,
ChIJt6XqZ6IV0i0RlfAINfCWIrI,Triplet House,-8.6044456,115.30710069999999,"98W4+6RH, Jl. Adegan, Saba, Kec. Blahbatuh, Kabupaten Gianyar, Bali 80581, Indonesia",https://maps.google.com/?cid=12835987846385430677,OPERATIONAL,,,lodging,,,
ChIJz-0jr6gV0i0RH0WBecj1R_U,Warung Pojok Saba,-8.604016999999999,115.308973,"98W5+9HX, Gn. Matahari, Saba, Blahbatuh, Gianyar Regency, Bali 80581, Indonesia",https://maps.google.com/?cid=17674365504019580191,OPERATIONAL,,restaurant,"restaurant, food",5,1,
ChIJrcvIf9gV0i0R4iCMRleJcNM,Lulut Home Stay,-8.6053272,115.3008256,"98V2+V88, Sukawati, Gianyar Regency, Bali 80581, Indonesia",https://maps.google.com/?cid=15235828547333136610,OPERATIONAL,,,lodging,5,1,
