id,name,latitude,longitude,address,url,status,phone,primary-type,types,rating,rating-count,price-level
ChIJf44xal070i0Ru7KFf5biEPc,Nasi Be Genyol Men Vera,-8.5101396,115.1785109,"Jl. Raya Denpasar No.30, Werdi Bhuwana, Kec. Mengwi, Kabupaten Badung, Bali 80351, Indonesia",https://maps.google.com/?cid=17802978463008010939,OPERATIONAL,+62 813-3892-8735,restaurant,"restaurant, food",4.7,202,
ChIJbcXCZJA70i0RQnz9n-P9Vrk,Nasi Lawar Be Genyol Men Camplung,-8.5128013,115.1784566,"F5PH+V9G, Werdi Bhuwana, Mengwi, Badung Regency, Bali 80351, Indonesia",https://maps.google.com/?cid=13355140899097377858,OPERATIONAL,+62 877-6151-2998,restaurant,"restaurant, food",4,3,
ChIJSwa4FV070i0RzFvO4jQzUhQ,Warung Bu Susan,-8.509777699999999,115.1786083,"F5RH+3CQ, Jl. Raya Denpasar, Werdi Bhuwana, Kec. Mengwi, Kabupaten Badung, Bali 80351, Indonesia",https://maps.google.com/?cid=1464289131085323212,OPERATIONAL,+62 819-3624-7573,coffee_shop,"coffee_shop, cafe, food, store",,,
ChIJTed8YLk70i0RvACMGg7MGWk,Setre,-8.5133116,115.1772952,"Jl. Denpasar-Singaraja No.2, Werdi Bhuwana, Kec. Mengwi, Kabupaten Badung, Bali 80351, Indonesia",https://maps.google.com/?cid=7573308609347190972,OPERATIONAL,,hotel,"hotel, lodging",5,1,
ChIJw8S641w70i0RErw5n_HEtkQ,Warung Ibu Ayu,-8.5083438,115.17902909999998,"Werdi Bhuwana, Mengwi, Badung Regency, Bali, Indonesia",https://maps.google.com/?cid=4951361382377962514,OPERATIONAL,,restaurant,"restaurant, food",,,
ChIJo-uwcwM70i0RAtGJE1K108Q,Warung muslim sederhana,-8.5135369,115.180023,"F5PJ+H2J, Werdi Bhuwana, Mengwi, Badung Regency, Bali 80351, Indonesia",https://maps.google.com/?cid=14182879015639568642,OPERATIONAL,+62 856-4666-6272,indonesian_restaurant,"indonesian_restaurant, restaurant, food",,,
ChIJHW4uQl070i0R9aO3fOPxE7U,Warung Lawar D'KUBU 2,-8.510164,115.1784296,"F5QH+W9M, Jl. Denpasar-Singaraja, Werdi Bhuwana, Kec. Mengwi, Kabupaten Badung, Bali 80351, Indonesia",https://maps.google.com/?cid=13048038504774738933,OPERATIONAL,+62 818-351-174,restaurant,"restaurant, food",4,1,
ChIJ1eiHKVs70i0RA4oZNARwbKE,33_street,-8.509879399999999,115.1783998,"Jl. Denpasar-Singaraja No.33, Werdi Bhuwana, Kec. Mengwi, Kabupaten Badung, Bali 80351, Indonesia",https://maps.google.com/?cid=11631795100947417603,OPERATIONAL,+62 877-6267-8676,cafe,"cafe, food",,,
ChIJtwjmz7Y70i0RRZsRR-dJfqo,Bali 022,-8.510050500000002,115.1784624,"Jl. Raya Denpasar No.30, Werdi Bhuwana, Kec. Mengwi, Kabupaten Badung, Bali 80351, Indonesia",https://maps.google.com/?cid=12285338091191900997,OPERATIONAL,+62 819-3624-2008,restaurant,"restaurant, food",,,
