id,name,latitude,longitude,address,url,status,phone,primary-type,types,rating,rating-count,price-level
ChIJwZ3mrMYR0i0RmxQySY8NBVs,Kubu Yanik,-8.4911855,115.45470329999998,"GF53+6JF, Tri Eka Buana, Sidemen, Karangasem Regency, Bali 80864, Indonesia",https://maps.google.com/?cid=6558663341394498715,OPERATIONAL,+62 819-3640-0077,private_guest_room,"private_guest_room, lodging",5,12,
ChIJaTBQUjoR0i0RZTGp76rr_wY,Rumah Ketut Arsa,-8.488073199999999,115.45475749999999,"Tri Eka Buana, Sidemen, Karangasem Regency, Bali, Indonesia",https://maps.google.com/?cid=504380802686595429,OPERATIONAL,,private_guest_room,"private_guest_room, lodging",5,3,
ChIJEyQ-LN4R0i0Rxq-gxXjI2lY,Pondok Wira,-8.4873566,115.4545854,"GF63+QWF, Tri Eka Buana, Sidemen, Karangasem Regency, Bali 80864, Indonesia",https://maps.google.com/?cid=6258535053221998534,OPERATIONAL,,,lodging,5,1,
ChIJHaOEkwkR0i0RnRcKakLQZqs,Rumah Pak Nengah Sutarma,-8.487691,115.4547994,"GF63+WWF, Br. Dinas Pungutan, Tri Eka Buana, Kec. Sidemen, Kabupaten Karangasem, Bali, Indonesia",https://maps.google.com/?cid=12350788011775629213,OPERATIONAL,,private_guest_room,"private_guest_room, lodging",,,
ChIJ-7UWyXMR0i0RSwC4kPL5uok,Warung Buk Wi,-8.4912531,115.45305049999999,"Unnamed Road, GF53+F6V, Tri Eka Buana, Kec. Sidemen, Kabupaten Karangasem, Bali 80864, Indonesia",https://maps.google.com/?cid=9924519549069688907,OPERATIONAL,,restaurant,"restaurant, food",,,
ChIJRapwrroR0i0R5asrR8IS0Rw,Pondok Nyoman Dandi,-8.4914293,115.45214820000001,"Jl. Dalem Suci Banjar Dinas Pungutan, Tri Eka Buana, Kec. Sidemen, Kabupaten Karangasem, Bali 80864, Indonesia",https://maps.google.com/?cid=2076461528821509093,OPERATIONAL,+62 851-5608-1031,,lodging,,,
