id,name,latitude,longitude,address,url,status,phone,primary-type,types,rating,rating-count,price-level
ChIJjYp7h5Ek0i0REQ2Dmdt01lQ,Warung Men Sukin,-8.463216,115.1711917,"G5PC+PF8, Marga Dajan Puri, Marga, Tabanan Regency, Bali 82181, Indonesia",https://maps.google.com/?cid=6113202030724189457,OPERATIONAL,+62 851-0044-6732,restaurant,"restaurant, food",4.3,106,
ChIJoSQlxuwk0i0RLrOvO5QY3eo,Gedung Sejarah Perjuangan Margarana,-8.465195699999999,115.1644177,"Dusun Kelaci,, G5M7+WQF, Marga Dauh Puri, Kec. Marga, Kabupaten Tabanan, Bali 82181, Indonesia",https://maps.google.com/?cid=16923709999663788846,OPERATIONAL,,museum,museum,4.4,5,
ChIJtUmnw5Mk0i0RePgBuQ6G0Os,Community meeting hall,-8.4651184,115.17050350000001,"G5MC+X62, Jl. Raya Marga-Apuan, Apuan, Kec. Marga, Kabupaten Tabanan, Bali 82181, Indonesia",https://maps.google.com/?cid=16992228791860459640,OPERATIONAL,+62 853-3320-8854,park,park,4.4,41,
ChIJU2mSUZUl0i0REBvR5guyq9Q,Nasi sambel bejek kak dicky,-8.4671069,115.1664605,"G5M8+5H4, Marga, Tabanan Regency, Bali 82181, Indonesia",https://maps.google.com/?cid=15324537921245092624,OPERATIONAL,,restaurant,"restaurant, food",,,
ChIJe3cXb5Qk0i0R-5XqC-XtBnc,Banjar Tengah Semeton,-8.4672935,115.1691407,"G5M9+3MJ, Jl. Raya Marga-Apuan, Marga, Kec. Marga, Kabupaten Tabanan, Bali 82181, Indonesia",https://maps.google.com/?cid=8576804108376905211,OPERATIONAL,,night_club,night_club,5,1,
ChIJKWUXBbMl0i0RvlySNKcATpk,Candra.bettafish,-8.464755700000001,115.16850339999999,"G5P9+3CR, Marga Dajan Puri, Marga, Tabanan Regency, Bali 82181, Indonesia",https://maps.google.com/?cid=11046767654127951038,OPERATIONAL,,private_guest_room,"private_guest_room, lodging",,,
ChIJKwl6RTMl0i0RlSKAacHPoJI,Warung Cinta,-8.4640237,115.17084179999999,"G5PC+98W, Jl. Raya Marga-Apuan, Marga Dajan Puri, Kec. Marga, Kabupaten Tabanan, Bali 82181, Indonesia",https://maps.google.com/?cid=10565673155416826517,OPERATIONAL,+62 819-9959-1982,cafe,"cafe, food",5,4,
ChIJiW29cZQk0i0RU3gA6ta75r0,Warung Sate Ikan Laut,-8.4675124,115.1686984,"Jl. Raya Marga-Apuan No.19, Marga Dajan Puri, Kec. Marga, Kabupaten Tabanan, Bali 82181, Indonesia",https://maps.google.com/?cid=13683831049535125587,OPERATIONAL,,indonesian_restaurant,"indonesian_restaurant, restaurant, food",4.3,15,
ChIJcceCEggl0i0RGXUSLf7YHd8,Warung D'Abink,-8.467232,115.1661927,"Banjar Klaci, Jl. Wisnu Marga, Marga Dauh Puri, Kec. Marga, Kabupaten Tabanan, Bali 82181, Indonesia",https://maps.google.com/?cid=16077244830972015897,OPERATIONAL,+62 851-0082-0775,restaurant,"restaurant, food",5,2,
ChIJAcveKpIk0i0RyloruUykJDo,Warung Gerobak Intan,-8.4636318,115.1709611,"Jl. Raya Marga-Apuan, Apuan, Kec. Baturiti, Kabupaten Tabanan, Bali 82191, Indonesia",https://maps.google.com/?cid=4189654202792499914,OPERATIONAL,+62 857-3976-6720,restaurant,"restaurant, food",4,8,
ChIJkQulSwAl0i0RRLqVJslfbsQ,Rumah dode domang,-8.464168599999999,115.17089410000001,"G5PC+98W, Jl. Raya Marga-Apuan, Marga Dajan Puri, Kec. Marga, Kabupaten Tabanan, Bali 82181, Indonesia",https://maps.google.com/?cid=14154355996412459588,OPERATIONAL,,historical_landmark,historical_landmark,,,
ChIJgbWWlYYl0i0RFeJ5lBboirA,Griya Saren Kangin,-8.4642883,115.1687976,"G5P9+7GM, Marga Dajan Puri, Marga, Tabanan Regency, Bali 82181, Indonesia",https://maps.google.com/?cid=12721235281139327509,OPERATIONAL,,private_guest_room,"private_guest_room, lodging",,,
ChIJQXJD0kwl0i0RR06ZaSDdnag,Warung mek di,-8.4645142,115.1707883,"G5PC+58V, Marga Dajan Puri, Marga, Tabanan Regency, Bali 82181, Indonesia",https://maps.google.com/?cid=12150110500995812935,OPERATIONAL,+62 815-2997-3227,restaurant,"restaurant, food",5,1,
ChIJudxvZrEl0i0RJqK6cHKzRj0,MEN PLENO MARGA,-8.462013599999999,115.1717755,"G5QC+5PR, Jl. Raya Marga-Apuan, Marga Dajan Puri, Kec. Marga, Kabupaten Tabanan, Bali 82181, Indonesia",https://maps.google.com/?cid=4415413788782273062,CLOSED_TEMPORARILY,,restaurant,"restaurant, food",,,
ChIJmZll2pMk0i0RRLp8ywSbDi4,Warung Bakso,-8.464397,115.17061559999999,"G5PC+66X, Jl. Raya Marga-Apuan, Marga Dajan Puri, Kec. Marga, Kabupaten Tabanan, Bali 82181, Indonesia",https://maps.google.com/?cid=3318760420314757700,OPERATIONAL,+62 823-4178-2841,indonesian_restaurant,"indonesian_restaurant, restaurant, food",,,
ChIJE4L7qCsl0i0RzKmfcWsCxvM,Dek Darma,-8.466165199999999,115.1697664,"Jl. Raya Marga-Apuan No.18, Marga Dajan Puri, Kec. Marga, Kabupaten Tabanan, Bali 82181, Indonesia",https://maps.google.com/?cid=17565730057096243660,OPERATIONAL,,,lodging,,,
ChIJvbc-VrAl0i0R3a6kwNFz9LY,Rumah Kadek Bruw,-8.464449499999999,115.17253730000002,"G5PF+62F, Jl. Kenanga, Marga Dajan Puri, Kec. Marga, Kabupaten Tabanan, Bali 82181, Indonesia",https://maps.google.com/?cid=13183289353937661661,OPERATIONAL,,private_guest_room,"private_guest_room, lodging",,,
ChIJx-ccDwAl0i0ReAhZeShKuCQ,Puri Jelantik Marga,-8.4679375,115.1685625,"Banjar Tengah Semeton, Marga Dajan Puri, Kec. Marga, Kabupaten Tabanan, Bali 82181, Indonesia",https://maps.google.com/?cid=2645946318775191672,OPERATIONAL,,historical_landmark,historical_landmark,,,
ChIJI3uNmIQl0i0RU7QlD5880JA,Warung Bakso Malang Marga,-8.4690183,115.1678079,"Jl. Raya Marga-Apuan Br. Tembau No.5, Marga, Kec. Marga, Kabupaten Tabanan, Bali 82121, Indonesia",https://maps.google.com/?cid=10434906990469035091,OPERATIONAL,,indonesian_restaurant,"indonesian_restaurant, restaurant, food",5,1,
ChIJF0l_QXUl0i0RlFNDtUG9ppY,Warung suka-suka “ala bule”,-8.4689965,115.1677864,"Jl. Raya Marga-Apuan Br. Tembau No.5, Marga, Kec. Marga, Kabupaten Tabanan, Bali 82121, Indonesia",https://maps.google.com/?cid=10855572041734771604,OPERATIONAL,+62 857-9283-4041,coffee_shop,"coffee_shop, cafe, food, store",,,
