id,name,latitude,longitude,address,url,status,phone,primary-type,types,rating,rating-count,price-level
ChIJFwZmpyk50i0R8vvsHrSEvgA,Pung Green Sempidi,-8.6096632,115.18043899999999,"Banjar Uma Gunung, Sempidi, Jl. Raya Sempidi No.31, Kwanji, Sempidi, Kec. Mengwi, Kabupaten Badung, Bali 80351, Indonesia",https://maps.google.com/?cid=53626154722851826,OPERATIONAL,+62 819-3645-1893,restaurant,"indonesian_restaurant, restaurant, food",4.7,1369,PRICE_LEVEL_MODERATE
ChIJ1fG3Iig50i0R2KM4VCJDOVQ,Laklak Bali RAMA KWANJI,-8.6147419,115.17972900000001,"Jl. Panji, Dalung, Kec. Kuta Utara, Kabupaten Badung, Bali 80361, Indonesia",https://maps.google.com/?cid=6068955787579401176,OPERATIONAL,+62 851-0043-5717,restaurant,"restaurant, food",4.5,124,
ChIJTRvR_Sk50i0RlI4fmxS0lBo,"Kost Taman Ukir, Sempidi",-8.6115148,115.18217050000001,"95QJ+9VV, Sempidi, Mengwi, Badung Regency, Bali 80116, Indonesia",https://maps.google.com/?cid=1915353742134185620,OPERATIONAL,+62 815-7006-838,hostel,"hostel, lodging",4.3,29,
ChIJc2wtIig50i0RLVXLjMZ1sSo,Ayam Betutu Rama,-8.6116011,115.17884409999999,"Jl. Panji Jl. Banjar Kwanji No.17, Dalung, Kec. Kuta Utara, Kabupaten Badung, Bali 80361, Indonesia",https://maps.google.com/?cid=3076369516096869677,OPERATIONAL,+62 851-0043-5717,indonesian_restaurant,"indonesian_restaurant, restaurant, food",4.4,66,
ChIJA7Q2NpQ50i0RW8qzWpTV_TQ,Lalapan Doa Dua Ibu,-8.6138522,115.180577,"Jl. Panji Gg. Pesona Taman Kwanji No.8x, Dalung:, Kec. Kuta Utara, Kabupaten Badung, Bali 80361, Indonesia",https://maps.google.com/?cid=3818442892233656923,OPERATIONAL,+62 812-2297-7702,indonesian_restaurant,"indonesian_restaurant, restaurant, food",5,47,
ChIJLarLkH850i0R8QJmHVB4OpY,Warung Palm,-8.609544999999999,115.18091280000002,"Jalan Raya Sempidi Badung, Banjar Umagunung Jl. Kwanji Sempidi No.26, Sempidi, Kec. Mengwi, Kabupaten Badung, Bali 80351, Indonesia",https://maps.google.com/?cid=10825096939824349937,OPERATIONAL,+62 817-0353-5248,restaurant,"restaurant, food",4.5,117,
ChIJTYwK-Ss50i0RtKW2uvw265o,Warung Cedil Ayam Bakar Lalapan dan Geprek,-8.6102102,115.18312799999998,"Jl. Dalung - Sading No.30, Sempidi, Kec. Mengwi, Kabupaten Badung, Bali 80116, Indonesia",https://maps.google.com/?cid=11163076560460096948,OPERATIONAL,+62 858-5762-6546,restaurant,"restaurant, food",5,41,
ChIJ579efOQ50i0R4mLv0Ni_M8E,Sanggar Seni Kebo Iwa,-8.6106681,115.1825332,"Jl. Dalung - Sading, Sempidi, Kec. Mengwi, Kabupaten Badung, Bali 80116, Indonesia",https://maps.google.com/?cid=13921681811071525602,OPERATIONAL,+62 812-4602-907,art_gallery,art_gallery,4.8,25,
ChIJ-_08S8I50i0RUXt9abMD6Xw,Kost wisma tepi sawah,-8.613984799999999,115.18684089999999,"95PP+CP4, Sempidi, Mengwi, Badung Regency, Bali 80116, Indonesia",https://maps.google.com/?cid=9000729399380507473,OPERATIONAL,,lodging,lodging,5,5,
ChIJWbXxQBQ50i0R-3AQ7Yf-8Ng,Chicken Time Dalung,-8.613465999999999,115.1791957,"Jl. Panji Jl. Kwanji Sempidi No.30, Dalung, Kec. Kuta Utara, Kabupaten Badung, Bali 80361, Indonesia",https://maps.google.com/?cid=15632274166354309371,OPERATIONAL,+62 815-2379-2443,fast_food_restaurant,"fast_food_restaurant, restaurant, food",5,42,
ChIJC0HmeNQ40i0RqIJ77Atvhhk,Kost Sudianta,-8.6165977,115.1854385,"95MP+958, Jl. Kebo Iwa Utara perum gunung sari.tukad buana, Padangsambian Kaja, Kec. Denpasar Bar., Kota Denpasar, Bali 80116, Indonesia",https://maps.google.com/?cid=1839279594830267048,OPERATIONAL,+62 821-4628-1832,restaurant,"restaurant, food",4.5,13,
ChIJYfpaeNY40i0RZ-KVbiV5raQ,Wr. Mbok Ran,-8.6138059,115.18279820000001,"Jl.Dalung Br. Kwanji Kelod, 95PM+F4F, Sempidi, Kec. Mengwi, Kabupaten Badung, Bali 80116, Indonesia",https://maps.google.com/?cid=11866273794867192423,OPERATIONAL,,restaurant,"cafe, restaurant, food",4.5,23,
ChIJk2DA3NE50i0RAmdHUIUaYI0,Telor Gulung N.Y.O,-8.6144306,115.17948119999998,"95PH+6QH, Dalung, Kuta Utara, Badung Regency, Bali 80117, Indonesia",https://maps.google.com/?cid=10187171516991891202,OPERATIONAL,+62 812-9900-8763,restaurant,"restaurant, food",5,1,
ChIJmYqwE9M50i0RdzAQ72YYjkU,wisma pojok,-8.6141101,115.18418779999999,"Gg. I No.5A, Sempidi, Kec. Mengwi, Kabupaten Badung, Bali 80116, Indonesia",https://maps.google.com/?cid=5011970265686487159,OPERATIONAL,,hostel,"hostel, lodging",5,1,
ChIJOSA8R8I50i0RtxJJ7PMxxWo,Blue Roof House,-8.616299399999999,115.1792829,"95MH+FPM, Jl. Tibung Sari, Dalung, Kec. Kuta Utara, Kabupaten Badung, Bali 80361, Indonesia",https://maps.google.com/?cid=7693610462143386295,OPERATIONAL,+62 831-1551-6732,,lodging,4.8,11,
ChIJ6yP5Btc40i0RLbVQNr1Ta-g,Gorengan Devina,-8.6147983,115.17948050000001,"80117, Jl. Panji No.40-42, Dalung, Kec. Kuta Utara, Kabupaten Badung, Bali 80117, Indonesia",https://maps.google.com/?cid=16747571711432504621,OPERATIONAL,+62 853-3825-0181,cafe,"cafe, food",5,2,
ChIJy9ARcQA50i0RPkG1p_m2atE,"Jl.panji.Br.kwanji ,dalung,kabupaten Badung, bali",-8.6125793,115.17908919999999,"Jl. Panji Jl. Banjar Kwanji No.27, Dalung, Kec. Kuta Utara, Kabupaten Badung, Bali 80361, Indonesia",https://maps.google.com/?cid=15090074684835053886,OPERATIONAL,,indonesian_restaurant,"indonesian_restaurant, restaurant, food",5,1,
ChIJsYnahuM50i0RqzMcU-8dEY4,Babi Guling Rama,-8.612479900000002,115.1788761,"Jl. Panji Jl. Banjar Kwanji No.26a, Dalung, Kec. Kuta Utara, Kabupaten Badung, Bali 80361, Indonesia",https://maps.google.com/?cid=10236996341718594475,OPERATIONAL,,indonesian_restaurant,"indonesian_restaurant, restaurant, food",1,1,
ChIJ441gbN050i0Rw34gwsI4Sps,Famous Bali,-8.614051,115.18184199999999,"Kwanji Asri, Blok F 22, Dalung, Kec. Kuta Utara, Kabupaten Badung, Bali 80361, Indonesia",https://maps.google.com/?cid=11189818633287139011,OPERATIONAL,+62 812-2701-7727,store,"car_rental, store",5,5,
ChIJXwH21Ec50i0RWTXs3LpBKoA,Dagang Tuak Gurusu,-8.6148546,115.18238129999997,"95PJ+3X2, Jl. Hanoman I, Sempidi, Kec. Mengwi, Kabupaten Badung, Bali 80116, Indonesia",https://maps.google.com/?cid=9235266256702813529,CLOSED_TEMPORARILY,,bar,bar,,,
