id,name,latitude,longitude,address,url,status,phone,primary-type,types,rating,rating-count,price-level
ChIJIWnPVEoP0i0Rz7dB2iHDAHE,Warung Tangluk,-8.4968191,115.50565040000001,"Jl. Raya Ulakan-Karangasem, Manggis, Kec. Manggis, Kabupaten Karangasem, Bali 80871, Indonesia",https://maps.google.com/?cid=8142722676448933839,OPERATIONAL,,meal_takeaway,"meal_takeaway, restaurant, food",,,
ChIJ2yLXw4cP0i0RjBG5cfWuVWY,Pondok Nyoman Tambir,-8.4940179,115.50560660000001,"Unnamed Road, Ulakan, GG44+96X, Manggis, Kec. Manggis, Kabupaten Karangasem, Bali 80871, Indonesia",https://maps.google.com/?cid=7373992334087229836,OPERATIONAL,,restaurant,"restaurant, food",4,2,
ChIJqWOoNjIP0i0RCjxK0H-AwfE,Warung Sanika,-8.497053100000002,115.5065445,"GG34+5JF, Jl. Pura Puseh, Ulakan, Kec. Manggis, Kabupaten Karangasem, Bali 80871, Indonesia",https://maps.google.com/?cid=17420346120089517066,OPERATIONAL,+62 813-5325-9337,brunch_restaurant,"brunch_restaurant, restaurant, food",,,
ChIJJ6JuJOMP0i0Rh5h9k4jkQYc,Warung tipat santok.buk sisu,-8.4970188,115.5058499,"GG34+589, Manggis, Karangasem Regency, Bali 80871, Indonesia",https://maps.google.com/?cid=9746322343847630983,OPERATIONAL,,brunch_restaurant,"brunch_restaurant, restaurant, food",5,1,
ChIJ4Y8vkCoP0i0RuX0BAPPFT24,REZA HOME,-8.498780499999999,115.5055215,"Unnamed Road, Ulakan, GG24+F6J, Manggis, Kec. Manggis, Kabupaten Karangasem, Bali 80871, Indonesia",https://maps.google.com/?cid=7948789514800037305,OPERATIONAL,+62 819-1571-8189,lodging,lodging,,,
ChIJIXEe1XsP0i0R3lceBt1skjM,Babi guling man wejo,-8.4978608,115.5083077,"Jalan nyuh gading, desa ulakan, kecamatan manggis, Manggis, Kec. Karangasem, Kabupaten Karangasem, Bali, Indonesia",https://maps.google.com/?cid=3716152339080304606,OPERATIONAL,+62 877-6329-2118,restaurant,"restaurant, food",,,
ChIJF3OYJZIP0i0R9eDWFNilQxY,KULINER WARUNG BAKSO MEME RENIS,-8.4996031,115.5068382,"Jln Pura Puseh Ulakan,Desa Ulakan,Kec.Manggis, Manggis, Kec. Karangasem, Kabupaten Karangasem, Bali 80871, Indonesia",https://maps.google.com/?cid=1604308239755174133,OPERATIONAL,,restaurant,"restaurant, food",,,
