id,name,latitude,longitude,address,url,status,phone,primary-type,types,rating,rating-count,price-level
ChIJYU_w51Eh0i0RKgkJb-cNS_8,Warung Padang,-8.399519699999999,115.19628790000002,"Luwus, Baturiti, Tabanan Regency, Bali 82191, Indonesia",https://maps.google.com/?cid=18395812390576392490,OPERATIONAL,,indonesian_restaurant,"indonesian_restaurant, restaurant, food",4.7,16,
ChIJb5prz1Yh0i0R3nXkcbQKZEk,Anggrek Wisma Penginapan,-8.404503799999999,115.196741,"H5WW+5MX, JL Belah, Luwus, Kec. Baturiti, Kabupaten Tabanan, Bali 82191, Indonesia",https://maps.google.com/?cid=5288363632560993758,OPERATIONAL,+62 361 21275,hostel,"hostel, lodging",4.5,4,
ChIJxyyp09sh0i0Rp9ZD_oIBEJg,Rumah Guts_Jhonk,-8.4011075,115.19673669999999,"H5XW+HM5, Luwus, Baturiti, Tabanan Regency, Bali 82191, Indonesia",https://maps.google.com/?cid=10957259555515651751,OPERATIONAL,,hotel,"hotel, lodging",5,2,
ChIJ92Vz_Csh0i0RINByOom0M3I,Uma Dalem Br Belah,-8.3998739,115.1970195,"J52W+3R2 Br belah, Luwus, Kec. Baturiti, Kabupaten Tabanan, Bali 82191, Indonesia",https://maps.google.com/?cid=8229119445620150304,OPERATIONAL,,cafe,"cafe, food",,,
ChIJW0kkRiRB0i0RvX7OFpY1SGE,Chickens Run Bli Wayan,-8.3996211,115.19606789999999,"Jln. Denpasar - Bedugul, Luwus, Kec. Baturiti, Kabupaten Tabanan, Bali 82191, Indonesia",https://maps.google.com/?cid=7009911738746175165,OPERATIONAL,,fast_food_restaurant,"fast_food_restaurant, restaurant, food",4.3,6,
ChIJOb2xFE4h0i0RiND6nw3wmes,"""Bakso Pak Kumis""",-8.3977167,115.1960223,"J52W+WC6, Jl. Mekarsari - Baturiti Bedugul, Luwus, Kec. Baturiti, Kabupaten Tabanan, Bali 82191, Indonesia",https://maps.google.com/?cid=16976864211659051144,OPERATIONAL,,restaurant,"restaurant, food",5,4,
ChIJzY5vEKwh0i0RRcMJhIDYtWk,Lawar men agus,-8.398619199999999,115.19617930000001,"jalan Denpasar Singaraja, Luwus, Kec. Baturiti, Kabupaten Tabanan, Bali 82191, Indonesia",https://maps.google.com/?cid=7617232391249707845,OPERATIONAL,+62 819-1706-5472,restaurant,"restaurant, food",5,4,
ChIJ1QR8mFYh0i0Rji0anOJPLUo,"Warung Asti(Dian, Dhiyo).",-8.4019991,115.1966465,"H5XW+7JW, Luwus, Baturiti, Tabanan Regency, Bali 82191, Indonesia",https://maps.google.com/?cid=5345016167458811278,OPERATIONAL,,meal_takeaway,"meal_takeaway, restaurant, food",,,
ChIJkcIDz1Yh0i0RBeFSYzrwAqY,Wr.Makan Mang Kios,-8.4044206,115.1968438,"H5WW+6PQ, Jl. Perean Tengah, Luwus, Kec. Baturiti, Kabupaten Tabanan, Bali 82191, Indonesia",https://maps.google.com/?cid=11962387693814604037,OPERATIONAL,,restaurant,"restaurant, food",,,
ChIJpeK1olEh0i0Rl1B5VcTYYN8,Warung Nsi Be Genyol Men Kompyang,-8.4008234,115.19644309999998,"H5XW+MHG, Jl. Perean Tengah, Luwus, Kec. Baturiti, Kabupaten Tabanan, Bali 82191, Indonesia",https://maps.google.com/?cid=16096103405981356183,OPERATIONAL,,restaurant,"restaurant, food",5,1,
ChIJH98fllEh0i0R3q12z6rhm2w,BUK BAIK,-8.4005764,115.19638649999999,"H5XW+QH6, Jl. Perean Tengah, Luwus, Kec. Baturiti, Kabupaten Tabanan, Bali 82191, Indonesia",https://maps.google.com/?cid=7826096901227720158,OPERATIONAL,,cafe,"cafe, food",3.9,14,
ChIJ5ecfuSE70i0RN_X5TuHTRzQ,Warung Ketut,-8.3992202,115.196235,"J52W+8F9, Jl. Denpasar-Singaraja, Belah, Luwus, Kec. Baturiti, Kabupaten Tabanan, Bali 80351, Indonesia",https://maps.google.com/?cid=3767212577964815671,CLOSED_TEMPORARILY,+62 823-3299-2515,restaurant,"restaurant, food",,,
ChIJ79fLRpwh0i0R-n_Mumbq368,Warung Nyoman,-8.3997465,115.19628820000001,"J52W+4G3, Jl. Perean Tengah, Luwus, Kec. Baturiti, Kabupaten Tabanan, Bali 82191, Indonesia",https://maps.google.com/?cid=12673105603385393146,OPERATIONAL,+62 813-3880-3741,restaurant,"restaurant, food",,,
ChIJS8ePFnIh0i0R8miFfTCTdW0,Home jody,-8.401116,115.1965562,"H5XW+HJ3, Jl. Perean Tengah, Luwus, Kec. Baturiti, Kabupaten Tabanan, Bali 82191, Indonesia",https://maps.google.com/?cid=7887372158882900210,OPERATIONAL,+62 857-9238-4663,,lodging,1,1,
ChIJ_9EJET8h0i0RfEWf5Kvd988,UME LUWUS by Bli Wayan,-8.4043949,115.193793,"DESA PEKRAMAN PALIAN, H5WV+6GV, Luwus, Baturiti, Tabanan Regency, Bali 82191, Indonesia",https://maps.google.com/?cid=14985690015443404156,OPERATIONAL,,park,park,,,
ChIJtdaTvVEh0i0RwOnRmnkxWoo,Warung Bu Uluh,-8.4005871,115.19640629999999,"H5XW+QH7, Jl. Perean Tengah, Luwus, Kec. Baturiti, Kabupaten Tabanan, Bali 82191, Indonesia",https://maps.google.com/?cid=9969335123496266176,OPERATIONAL,,restaurant,"restaurant, food",,,
ChIJd10CGU4h0i0Rp3dlTCFKq8w,WARUNG MAK MERTA YASA,-8.3985021,115.1961353,"J52W+HFR, Jl. Mekarsari - Baturiti Bedugul, Luwus, Kec. Baturiti, Kabupaten Tabanan, Bali 82191, Indonesia",https://maps.google.com/?cid=14747962911630915495,OPERATIONAL,,restaurant,"restaurant, food",5,1,
ChIJr-rsAQ8h0i0RBtXx__Vycuw,Good Ice,-8.3977928,115.19607370000001,"J52W+VCP, Jl. Mekarsari - Baturiti Bedugul, Luwus, Kec. Baturiti, Kabupaten Tabanan, Bali 82191, Indonesia",https://maps.google.com/?cid=17037806741182600454,OPERATIONAL,,restaurant,"restaurant, food",,,
ChIJ31Q_5VYh0i0RS8GkdY-Y-Hs,WARUNG MAKAN BUK DEVI,-8.4057473,115.19716100000001,"H5VW+PV3, Jl. Perean Tengah, Luwus, Kec. Baturiti, Kabupaten Tabanan, Bali 82191, Indonesia",https://maps.google.com/?cid=8933057602810855755,OPERATIONAL,+62 821-9133-7367,restaurant,"restaurant, food",,,
