id,name,latitude,longitude,address,url,status,phone,primary-type,types,rating,rating-count,price-level
ChIJccDSAlKN0S0R4IiRZyCKvfs,Pondok Kembangsari,-8.1831052,115.26809130000001,"R789+J39, Jl. Gn. Batur, Satra, Kec. Kintamani, Kabupaten Bangli, Bali 80652, Indonesia",https://maps.google.com/?cid=18139806745899403488,OPERATIONAL,,hotel,"hotel, lodging",4.9,17,
ChIJ5fJoMiuN0S0Rns2CbewQpQQ,Warung Kong Amet,-8.1822977,115.26610450000001,"R798+3CQ, Jl. Gn. Batur, Satra, Kec. Kintamani, Kabupaten Bangli, Bali 80652, Indonesia",https://maps.google.com/?cid=334692354944585118,OPERATIONAL,+62 878-6381-9090,restaurant,"restaurant, food",4.6,5,
ChIJy8UpVfmN0S0R56Xjt_UxcnU,Warung Makan Vina Cell,-8.181835699999999,115.26602770000001,"R798+7C6, Jl. Gn. Batur, Satra, Kec. Kintamani, Kabupaten Bangli, Bali 80652, Indonesia",https://maps.google.com/?cid=8462881581204481511,OPERATIONAL,+62 813-3720-7235,restaurant,"restaurant, food",3.3,3,
ChIJtSTfo26N0S0RcfoAZNtclrE,Warung Sari Nadi,-8.1808321,115.26499,"R797+MX9, Jl. Gn. Batur, Satra, Kec. Kintamani, Kabupaten Bangli, Bali 80652, Indonesia",https://maps.google.com/?cid=12796517488565222001,OPERATIONAL,,restaurant,"restaurant, food",5,2,
ChIJkaUhoHWN0S0RrHDo5pkisEM,Warung Mak Su,-8.182115099999999,115.26621349999998,"R798+5F4, Satra, Kintamani, Bangli Regency, Bali 80652, Indonesia",https://maps.google.com/?cid=4877436440841580716,OPERATIONAL,+62 819-3919-6746,restaurant,"restaurant, food",5,3,
ChIJOazP30iN0S0RD5O2C9H3JRE,Mabes DirtyBrain,-8.184528799999999,115.2690013,"R789+5JJ, Jl. Gn. Batur, Satra, Kec. Kintamani, Kabupaten Bangli, Bali 80652, Indonesia",https://maps.google.com/?cid=1235666149999809295,CLOSED_TEMPORARILY,,bar,bar,,,
