id,name,latitude,longitude,address,url,status,phone,primary-type,types,rating,rating-count,price-level
ChIJ5QFfx4Fz0i0RJnkNBd7I5L8,Kira Homestay,-8.7051204,115.4896823,"7FVQ+XV3, Jl. Raya Klumpu - Toya Pakeh, Sakti, Kec. Nusa Penida, Kabupaten Klungkung, Bali 80771, Indonesia",https://maps.google.com/?cid=13827397611827329318,OPERATIONAL,,hotel,"hotel, lodging",4.7,97,
ChIJyZ--pWVz0i0RjovuAsy6JB8,NANA Penida,-8.7077622,115.48824569999998,"Jln.raya toya pakeh- klumpu, Sakti, Kec. Nusa Penida, Kabupaten Klungkung, Bali 80771, Indonesia",https://maps.google.com/?cid=2244123899722632078,OPERATIONAL,+62 853-3774-4434,restaurant,"restaurant, food",4.8,212,
ChIJsYOANb1z0i0RyS_Z8dQtZ2o,Warung DJ,-8.7084334,115.49515179999999,"Sakti, Nusa Penida, Klungkung Regency, Bali 80771, Indonesia",https://maps.google.com/?cid=7667147283235418057,OPERATIONAL,+62 812-3939-4963,restaurant,"restaurant, food",4.9,500,
ChIJIbt6xxty0i0Rl55Kj5zDM2A,Krisna Guest House,-8.7049465,115.4895095,"Jl. Raya Klumpu - Toya Pakeh, Sakti, Kec. Nusa Penida, Kabupaten Klungkung, Bali 80771, Indonesia",https://maps.google.com/?cid=6932099328639671959,OPERATIONAL,+62 813-3809-0117,,"private_guest_room, hotel, lodging",4.4,226,
ChIJm6gF_nhz0i0RuXJBDwh-KwE,RR COTTAGE,-8.7083351,115.4944101,"Sakti, Nusa Penida, Klungkung Regency, Bali 80771, Indonesia",https://maps.google.com/?cid=84299591117271737,OPERATIONAL,+62 852-3721-5969,lodging,lodging,5,67,
ChIJvQvBzHRz0i0R_8JCgD4kBw4,Toro Cottage,-8.7076887,115.491515,"7FRR+WGX, Jln. Raya senangka, Sakti, Kec. Nusa Penida, Kabupaten Klungkung, Bali 80771, Indonesia",https://maps.google.com/?cid=1010816492226396927,OPERATIONAL,+62 821-4468-2003,hotel,"hotel, lodging, travel_agency",4.9,86,
ChIJM0n7lnRz0i0RqSmDgXTbZy8,Street Food,-8.7079357,115.4922849,"Jalan Raya Banjar Senangka, Sakti, Kec. Nusa Penida, Kabupaten Klungkung, Bali 80771, Indonesia",https://maps.google.com/?cid=3415940135819356585,OPERATIONAL,+62 821-4602-0663,restaurant,"restaurant, food",4.9,287,
ChIJ5VnSYBxy0i0RjAxBlUPXwXM,The Sandat Bungalows,-8.707684,115.48852,"7FRQ+WCC, Sakti, Nusa Penida, Klungkung Regency, Bali 80771, Indonesia",https://maps.google.com/?cid=8341184670133718156,OPERATIONAL,+62 852-3957-7558,hotel,"hotel, lodging",4.8,57,
ChIJG-x2Mhpy0i0Rml3lZTCreHw,The Dagan Bungalow,-8.7035578,115.49036509999998,"Sakti, Nusa Penida, Klungkung Regency, Bali 80771, Indonesia",https://maps.google.com/?cid=8969106882264653210,OPERATIONAL,+62 812-8322-4075,hotel,"hotel, lodging",4.7,66,
ChIJ-x_sC91z0i0R4DVyO6_5Ze8,The Kurnia Guest House & Spa,-8.7077823,115.49302299999998,"Jln. Raya Senangka, Sakti, Kec. Nusa Penida, Kabupaten Klungkung, Bali 80771, Indonesia",https://maps.google.com/?cid=17250468478724486624,OPERATIONAL,,hotel,"hotel, lodging",5,56,
ChIJQWuwpMlz0i0RZaCzCnFVYrs,Kampuak Cottages,-8.7075193,115.4912853,"Jl. Raya Klumpu - Toya Pakeh, Sakti, Kec. Nusa Penida, Kabupaten Klungkung, Bali 80771, Indonesia",https://maps.google.com/?cid=13502448576809377893,OPERATIONAL,+62 851-0006-6422,lodging,lodging,4.9,72,
ChIJk7mBq5Rz0i0RGOj-d923TgU,Japa Bungalow,-8.7041427,115.4913787,"7FWR+8HR, Sakti, Nusa Penida, Klungkung Regency, Bali 80771, Indonesia",https://maps.google.com/?cid=382445180201920536,OPERATIONAL,+62 851-0290-9878,hotel,"hotel, lodging",4.7,58,
ChIJt_0lSYZz0i0RfM-BdC8kMhU,Warung Triple-B,-8.704216299999999,115.4902238,"7FWR+839, Sakti, Nusa Penida, Klungkung Regency, Bali 80771, Indonesia",https://maps.google.com/?cid=1527323009868746620,OPERATIONAL,+62 821-4460-1454,restaurant,"restaurant, food",4.7,93,
ChIJe0tv5Hhz0i0Rl3D9lD7Ykko,Miko Bali Bungalow,-8.7037853,115.49036290000001,"Jl. Raya Klumpu - Toya Pakeh, Sakti, Kec. Nusa Penida, Kabupaten Klungkung, Bali 80771, Indonesia",https://maps.google.com/?cid=5373595068705632407,OPERATIONAL,+62 821-4409-9922,hotel,"hotel, lodging",4.7,36,
ChIJrYc4uRty0i0RQbhXNwRp-Ok,See You Soon Kitchen,-8.7048607,115.4893699,"Sakti, Nusa Penida, Klungkung Regency, Bali 80771, Indonesia",https://maps.google.com/?cid=16859340671890733121,OPERATIONAL,+62 853-3874-1987,restaurant,"restaurant, food",4.6,55,
ChIJWTQYtPRz0i0R4tyzxxth6Fs,Green Hill Cottage,-8.7073533,115.488459,"7FVQ+394 Nusa Penida, Jl. Raya Klumpu - Toya Pakeh, Sakti, Kec. Nusa Penida, Kabupaten Klungkung, Bali 80771, Indonesia",https://maps.google.com/?cid=6622650023990779106,OPERATIONAL,+62 856-4046-9081,cottage,"cottage, lodging",4.7,11,
ChIJYZSvBIBz0i0Rl97NHYyMkFk,Warung The Voyage Bali,-8.7077347,115.4922907,"Jalan Raya Senangka, Sakti, Kec. Nusa Penida, Kabupaten Klungkung, Bali 80771, Indonesia",https://maps.google.com/?cid=6453812799445261975,OPERATIONAL,+62 823-4042-9928,restaurant,"restaurant, food",4.4,97,
ChIJmcVkYBxy0i0RGBZH3KdY7J0,Warung Salt & pepper,-8.7077556,115.48825040000001,"7FRQ+V8R, Sakti, Nusa Penida, Klungkung Regency, Bali 80771, Indonesia",https://maps.google.com/?cid=11379567836436829720,CLOSED_TEMPORARILY,+62 812-6663-6742,sandwich_shop,"sandwich_shop, restaurant, food",4.1,113,
ChIJmaMhd7Bz0i0RVCkB1C1nyVc,Ary's Guest House,-8.7038164,115.4906378,"7FWR+F7C, Jl. Raya Sebunibus, Sakti, Kec. Nusa Penida, Kabupaten Klungkung, Bali 80771, Indonesia",https://maps.google.com/?cid=6325700598146607444,OPERATIONAL,+62 813-3718-5014,guest_house,"guest_house, lodging",4.8,32,
ChIJS0BIzUhz0i0RA2qUg10sMSI,Moringa cafe & restaurant,-8.7087086,115.49336579999999,"Banjar senangka, Sakti, Kec. Nusa Penida, Kabupaten Klungkung, Bali 80771, Indonesia",https://maps.google.com/?cid=2463799251299494403,OPERATIONAL,+62 812-4695-1177,restaurant,"restaurant, coffee_shop, cafe, store, food",5,23,
