id,name,latitude,longitude,address,url,status,phone,primary-type,types,rating,rating-count,price-level
ChIJX7cyiyF30i0Rw2I7U5xRHaI,Batang Golden Hills Vila and Resto,-8.7495108,115.59029719999998,"Desa, Pejukutan, Kec. Nusa Penida, Kabupaten Klungkung, Bali 80771, Indonesia",https://maps.google.com/?cid=11681582740322083523,OPERATIONAL,+62 831-1586-9714,restaurant,"lodging, restaurant, food",4.7,135,PRICE_LEVEL_INEXPENSIVE
ChIJQzZ_cSd30i0RMKG3kjQyIns,Wbb,-8.7483521,115.58738799999999,"Unnamed Road, Pejukutan, Kec. Nusa Penida, Kabupaten Klungkung, Bali 80771, Indonesia",https://maps.google.com/?cid=8872709417254494512,CLOSED_TEMPORARILY,,indonesian_restaurant,"indonesian_restaurant, restaurant, food",4.9,18,
ChIJV-uQANl30i0R48-a4ASx23c,Rumah Dian Swan,-8.748713,115.5857906,"Unnamed Road, 7H2P+G87, Pejukutan, Kec. Nusa Penida, Kabupaten Klungkung, Bali 80771, Indonesia",https://maps.google.com/?cid=8636691344919285731,OPERATIONAL,+62 831-1903-7582,hostel,"hostel, lodging",5,1,
ChIJs0IcVkp30i0Rs7_oexJtnxY,Rumah pak mang,-8.7497168,115.58516100000001,"7H2P+65J, Pejukutan, Nusa Penida, Klungkung Regency, Bali 80771, Indonesia",https://maps.google.com/?cid=1630141516287098803,OPERATIONAL,,,lodging,,,
ChIJeY_OUZd30i0RTqgpH4ks7D4,Dwi candra,-8.7494099,115.58539309999999,"7H2P+65J, Pejukutan, Nusa Penida, Klungkung Regency, Bali 80771, Indonesia",https://maps.google.com/?cid=4534047892300212302,OPERATIONAL,,,lodging,,,
