id,name,latitude,longitude,address,url,status,phone,primary-type,types,rating,rating-count,price-level
ChIJU8n_g05j0S0RH4ba1RLJQXU,SAWE RIVERSIDE CAMPING GROUND,-8.321417499999999,114.6440444,"Banjar Sawe, Batuagung, Kec. Jembrana, Kabupaten Jembrana, Bali 82218, Indonesia",https://maps.google.com/?cid=8449255458658223647,OPERATIONAL,+62 817-1717-5455,campground,"campground, lodging, park",4.9,27,
ChIJ51NMSTtj0S0RmAgglcQRmIU,@Liang_toast,-8.325395,114.63816899999998,"MJFQ+R7, Dauhwaru, Jembrana, Jembrana Regency, Bali 82218, Indonesia",https://maps.google.com/?cid=9626463739517601944,OPERATIONAL,,coffee_shop,"coffee_shop, cafe, food, store",4.5,10,
ChIJWdFq2yFj0S0RATKSJJhv8us,Alam Senja,-8.325109,114.6384249,"MJFQ+X93, Dauhwaru, Jembrana, Jembrana Regency, Bali 82218, Indonesia",https://maps.google.com/?cid=17001774242516316673,CLOSED_TEMPORARILY,,coffee_shop,"coffee_shop, cafe, food, store",,,
ChIJE1yUt8tj0S0Rbaznt6QEdNc,Seni Jegog Kerta Budaya,-8.321456,114.63940579999999,"MJHQ+CQ6, Jl. Slawe, Dauhwaru, Kec. Jembrana, Kabupaten Jembrana, Bali 82218, Indonesia",https://maps.google.com/?cid=15525038920959503469,OPERATIONAL,,art_gallery,art_gallery,4,5,
ChIJ42OGdUdj0S0Rew5jZebFsGs,Ajik casa bella,-8.326612299999999,114.63860810000001,"MJFQ+9C5, Dauhwaru, Panji Sakti, Jembrana Regency, Bali 82218, Indonesia",https://maps.google.com/?cid=7759919751293505147,OPERATIONAL,,park,park,,,
ChIJnaTUcgBj0S0R03_-FLIG3zI,Ganesh Patung,-8.325654499999999,114.6385327,"MJFQ+PCM, Dauhwaru, Jembrana, Jembrana Regency, Bali, Indonesia",https://maps.google.com/?cid=3665655983629041619,OPERATIONAL,,tourist_attraction,tourist_attraction,,,
ChIJ9aP_xDdj0S0R4u-2M2DSwXE,Panorama carik,-8.326054,114.638076,"MJFQ+X93, Dauhwaru, Jembrana, Jembrana Regency, Bali 82218, Indonesia",https://maps.google.com/?cid=8197064107417333730,CLOSED_TEMPORARILY,,coffee_shop,"coffee_shop, cafe, food, store",4.6,5,
