id,name,latitude,longitude,address,url,status,phone,primary-type,types,rating,rating-count,price-level
ChIJz6ijx50X0i0R0FFhzys_iWE,Warung Babi Guling Putra Celagi,-8.4944996,115.32908710000001,"Jl. Desa Apuan No.87, Apuan, Kec. Susut, Kabupaten Bangli, Bali 80661, Indonesia",https://maps.google.com/?cid=7028218150883774928,OPERATIONAL,+62 831-1903-5782,indonesian_restaurant,"indonesian_restaurant, restaurant, food",4.6,602,PRICE_LEVEL_INEXPENSIVE
ChIJncs_FqEX0i0RFIoVxfwvl6M,Warung Bakso Babi Bangun Lemah,-8.4944996,115.32908710000001,"Jl. Desa Apuan No.87, Apuan, Kec. Susut, Kabupaten Bangli, Bali 80661, Indonesia",https://maps.google.com/?cid=11787943312350349844,OPERATIONAL,,indonesian_restaurant,"indonesian_restaurant, restaurant, food",4.6,7,
ChIJh7EHtZ8X0i0RwvYMze07yj0,Warung Bu Nyoman,-8.494315499999999,115.3290566,"Jl. Desa Apuan, Apuan, Kec. Susut, Kabupaten Bangli, Bali 80661, Indonesia",https://maps.google.com/?cid=4452437074142623426,OPERATIONAL,,brunch_restaurant,"brunch_restaurant, restaurant, food",,,
ChIJoxXPxJ0X0i0RwrexVsy8uag,"Warung Makan ""Men Belly""",-8.4950109,115.32917059999998,"G83H+XMV, Jl. Desa Apuan, Apuan, Kec. Susut, Kabupaten Bangli, Bali 80661, Indonesia",https://maps.google.com/?cid=12157956254877202370,OPERATIONAL,,restaurant,"restaurant, food",,,
ChIJweqrfkQX0i0RCNhzdJaTk6M,WTB( warung ten bunut),-8.4986842,115.3319808,"Bangun Lemah Kangin, Apuan, Kec. Susut, Kabupaten Bangli, Bali 80661, Indonesia",https://maps.google.com/?cid=11786926924166846472,OPERATIONAL,+62 831-1615-0144,indonesian_restaurant,"indonesian_restaurant, restaurant, food",2.3,3,
ChIJE2De35kX0i0RClVRnZGlqOA,JFC apuan,-8.4928145,115.33413180000001,"G84M+VMC, Apuan, Susut, Bangli Regency, Bali 80661, Indonesia",https://maps.google.com/?cid=16188370905411441930,OPERATIONAL,,restaurant,"restaurant, food",,,
ChIJGWTZEekX0i0RLe7LcgD-8UM,Warung kkn,-8.4928145,115.33413180000001,"Apuan, Susut, Bangli Regency, Bali 80614, Indonesia",https://maps.google.com/?cid=4895973547807862317,OPERATIONAL,+62 823-3164-5562,indonesian_restaurant,"indonesian_restaurant, restaurant, food",,,
ChIJRdDwjCQX0i0R1ycI_likIwk,Grya Semara Manuaba.,-8.4928145,115.33413180000001,"G84M+VMC, Br. Apuan Kaja, Apuan, Kec. Susut, Kabupaten Bangli, Bali 80661, Indonesia",https://maps.google.com/?cid=658550672652249047,OPERATIONAL,+62 852-3918-8132,,lodging,,,
