id,name,latitude,longitude,address,url,status,phone,primary-type,types,rating,rating-count,price-level
ChIJv1G-Qs330S0R3JxSrsmxvQg,Pondok gede mulia,-8.3052627,115.3950531,"M9VW+V2V, Suter, Kintamani, Bangli Regency, Bali 80652, Indonesia",https://maps.google.com/?cid=629855002672930012,OPERATIONAL,,,lodging,5,2,
ChIJhQtNcsP30S0RINyTFT0_tjg,bali 382,-8.3083718,115.39517710000001,"M9RW+M33, Jl. Batur Tengah, Suter, Kec. Kintamani, Kabupaten Bangli, Bali 80652, Indonesia",https://maps.google.com/?cid=4086523243472870432,OPERATIONAL,,restaurant,"restaurant, food",5,1,
ChIJO_DHYQf30S0RLUkc694j9GA,Warung Mek Mas,-8.3070623,115.39518149999999,"M9VW+53F, Jl. Batur Tengah, Suter, Kec. Kintamani, Kabupaten Bangli, Bali, Indonesia",https://maps.google.com/?cid=6986248362292693293,OPERATIONAL,+62 857-3722-4466,breakfast_restaurant,"breakfast_restaurant, restaurant, food",4,4,
ChIJp681QCv30S0R9CkcktpT2Vk,Warung Makan Jair Nyat Nyat,-8.310064299999999,115.3946393,"Unnamed Road, M9QV+XVC, Batudinding, Kec. Kintamani, Kabupaten Bangli, Bali 80614, Indonesia",https://maps.google.com/?cid=6474298137541093876,OPERATIONAL,,restaurant,"restaurant, food",,,
ChIJ47rsglP30S0RMDM-Ik2BM4E,My Best Chicken SUTER,-8.3083137,115.39587309999999,"M9RW+M8H, Suter, Kintamani, Bangli Regency, Bali 80652, Indonesia",https://maps.google.com/?cid=9309927022991913776,OPERATIONAL,+62 856-3807-275,restaurant,"restaurant, food",3.3,7,
ChIJBcJQQ4730S0ROVsBkYpZdSA,Warung Nyoman Mujair,-8.309054,115.39482649999998,"M9RV+9WG, Batudinding, Kintamani, Bangli Regency, Bali 80652, Indonesia",https://maps.google.com/?cid=2338874033161984825,OPERATIONAL,,restaurant,"restaurant, food",5,4,
ChIJJRdpwRv20S0RcBnuCHqSTHs,WARUNG NIKI ARY,-8.308456699999999,115.3951739,"M9RW+J37, Jl. Batur Tengah, Suter, Kec. Kintamani, Kabupaten Bangli, Bali 80652, Indonesia",https://maps.google.com/?cid=8884637217728633200,OPERATIONAL,,restaurant,"restaurant, food",,,
