id,name,latitude,longitude,address,url,status,phone,primary-type,types,rating,rating-count,price-level
ChIJ06rJGBZt0i0Rkdtti7E24J0,"Ohana's - Beach Club, Restaurant & Boutique Beachfront Resort",-8.669275599999999,115.44805249999999,"Nusa Lembongan, Gg. Nusa Indah Jl. Jungutbatu, Jungutbatu, Kec. Nusa Penida, Kabupaten Klungkung, Bali 80228, Indonesia",https://maps.google.com/?cid=11376152794914216849,OPERATIONAL,+62 811-3960-0787,resort_hotel,"resort_hotel, hotel, lodging",4.2,1175,
ChIJl48d-I5t0i0RaHs4FMhSQrg,Ombak Cafe & Huts,-8.667034,115.44833069999999,"Jungutbatu, Nusa Lembongan, Klungkung Regency, Bali 80771, Indonesia",https://maps.google.com/?cid=13277265670727826280,OPERATIONAL,+62 813-9909-9784,restaurant,"restaurant, food",4.6,626,PRICE_LEVEL_MODERATE
ChIJVVVVVZlt0i0RXSr-FDflZ1w,Ginger & Jamu,-8.668990899999999,115.44798080000001,"Jungutbatu, Nusa Penida, Klungkung Regency, Bali 80771, Indonesia",https://maps.google.com/?cid=6658542598828730973,OPERATIONAL,+62 813-5334-8230,restaurant,"restaurant, food",4.5,899,PRICE_LEVEL_MODERATE
ChIJtyxZygpt0i0RnOnelbdsHh0,Bali Eco Deli,-8.6719799,115.44931030000001,"Gg. Nusa Indah, Batu, Jungutbatu, Nusa Lembongan, Kabupaten Klungkung, Bali 80000, Indonesia",https://maps.google.com/?cid=2098234012150458780,OPERATIONAL,+62 821-3732-7521,cafe,"cafe, restaurant, food",4.6,1355,PRICE_LEVEL_MODERATE
ChIJOxNgZgtt0i0RAOajrmmedKs,Indiana Kenanga Boutique Hotel & Restaurant,-8.6685368,115.4479656,"Jl. Pantai Jungut Batu No. 56, Desa Jungut Batu, Nusa Lembongan, Jungutbatu, Kec. Klungkung, Kabupaten Klungkung, Bali 80771, Indonesia",https://maps.google.com/?cid=12354673854522844672,OPERATIONAL,+62 859-3506-5565,restaurant,"restaurant, resort_hotel, hotel, lodging, food",4.1,408,
ChIJGaUSNQtt0i0RjAl9rlti_GI,Lemongrass,-8.6702862,115.44978689999999,"Nusa Lembongan, Jungutbatu, Kec. Nusa Penida, Kabupaten Klungkung, Bali 80771, Indonesia",https://maps.google.com/?cid=7132684055756999052,OPERATIONAL,+62 812-3808-999,restaurant,"restaurant, food",4.3,941,PRICE_LEVEL_MODERATE
ChIJhUKmYQtt0i0RacCS2I1JLU0,Lembongan Beach Club & Resort,-8.6697887,115.44795909999999,"Jalan Jungut Batu Beach, Nusa Lembongan, Jungutbatu, Kec. Nusa Penida, Kabupaten Klungkung, Bali 87500, Indonesia",https://maps.google.com/?cid=5561181988445143145,OPERATIONAL,+62 821-4642-5043,,"resort_hotel, hotel, lodging",4.1,775,
ChIJ4eanYFNt0i0R6MxYKTz-PgI,Kayu Lembongan,-8.6710195,115.44979090000001,"Jl. Jungutbatu, Nusa Lembongan, Kec. Nusa Penida, Kabupaten Klungkung, Bali 80771, Indonesia",https://maps.google.com/?cid=161846170977094888,OPERATIONAL,+62 878-5180-6128,cafe,"cafe, vegan_restaurant, vegetarian_restaurant, breakfast_restaurant, brunch_restaurant, bar, coffee_shop, restaurant, store, food",4.7,392,
ChIJxyJDyWht0i0RyiJzvpqhQ5E,Curry Traders Restaurant and Bar,-8.6672347,115.4506428,"Jl. Jungutbatu, Jungutbatu, Kec. Nusa Penida, Kabupaten Klungkung, Bali 80771, Indonesia",https://maps.google.com/?cid=10467387644931416778,OPERATIONAL,+62 821-4668-4894,restaurant,"restaurant, food",4.7,337,
ChIJgY8hEaVt0i0RPfMfc2D-N7w,Bonzer Cafe,-8.6649429,115.45167339999999,"8FP2+2M7, Jl. Jungutbatu, Jungutbatu, Kec. Nusa Penida, Kabupaten Klungkung, Bali 80771, Indonesia",https://maps.google.com/?cid=13562588493051327293,OPERATIONAL,+62 823-3992-3439,restaurant,"restaurant, food",4.7,310,
ChIJpe0JgcZt0i0RqzRT7VS7OVk,Good Cheer Hostel,-8.6656113,115.45161639999999,"8FM2+QJ5 Nusa Lembongan, Jungutbatu, Kec. Nusa Penida, Kabupaten Klungkung, Bali 80771, Indonesia",https://maps.google.com/?cid=6429375916481393835,OPERATIONAL,+62 823-4130-4320,hostel,"hostel, lodging",4.4,51,
ChIJgVIuFHBt0i0RMwxgL4UdwLo,Warung Pizzeria & Steakhouse,-8.6678062,115.4492104,"Jl. Puri Nusa, Jungutbatu, Kec. Nusa Penida, Kabupaten Klungkung, Bali 80771, Indonesia",https://maps.google.com/?cid=13456788144445721651,OPERATIONAL,+62 821-4508-0937,pizza_restaurant,"pizza_restaurant, steak_house, italian_restaurant, restaurant, food",4.5,353,PRICE_LEVEL_MODERATE
ChIJ7_SFLQ1t0i0Ry77kxa-69rs,Blue Corner Dive | Freediving | Conservation - Nusa Lembongan,-8.6665467,115.44901170000001,"Jl. Jungutbatu, Jungutbatu, Kec. Nusa Penida, Kabupaten Klungkung, Bali 80771, Indonesia",https://maps.google.com/?cid=13544218193465491147,OPERATIONAL,+62 812-3761-8151,sporting_goods_store,"hostel, travel_agency, bar, sporting_goods_store, school, lodging, restaurant, store, food",4.8,188,
ChIJD21a0nRt0i0RMulwFqomlwQ,Mickeys Sports Bar & Restaurant,-8.670835199999999,115.4498729,"Jungutbatu, Nusa Penida, Klungkung Regency, Bali 80771, Indonesia",https://maps.google.com/?cid=330775609597815090,OPERATIONAL,+62 813-3733-3434,restaurant,"restaurant, breakfast_restaurant, bar, food, event_venue",4.4,840,PRICE_LEVEL_MODERATE
ChIJVVVVVZlt0i0RgqLiX8HQ9wg,Ketut Warung,-8.6690418,115.44877269999998,"Jungutbatu, Nusa Penida, Klungkung Regency, Bali 80771, Indonesia",https://maps.google.com/?cid=646214600506909314,OPERATIONAL,+62 857-3832-8235,indonesian_restaurant,"indonesian_restaurant, restaurant, food",4.7,227,
ChIJYde1H1Jt0i0RjCs0izoBEKI,Agus Shipwreck Bar & Restaurant,-8.6684209,115.44797480000001,"8CJX+J5Q Nusa Lembongan, Jungutbatu, Kec. Nusa Penida, Kabupaten Klungkung, Bali 80771, Indonesia",https://maps.google.com/?cid=11677835184726879116,OPERATIONAL,,restaurant,"restaurant, food",4,127,
ChIJKaRY51lA0i0RZhj2mFCqXnI,Pemedal Beach Resort,-8.6662102,115.44916830000001,"Jl. Raya Jungutbatu Jungutbatu Village, Lembongan, Kec. Nusa Penida, Kabupaten Klungkung, Bali 80771, Indonesia",https://maps.google.com/?cid=8241211631274956902,OPERATIONAL,+62 822-4477-2888,resort_hotel,"resort_hotel, hotel, indonesian_restaurant, lodging, restaurant, food",4.4,377,
ChIJTXe7LfBt0i0R7xkQHd9hzXU,3 monkeys lembongan,-8.665646599999999,115.44967929999999,"Jl. Jungutbatu, Lembongan Island, Kec. Nusa Penida, Kabupaten Klungkung, Bali 80235, Indonesia",https://maps.google.com/?cid=8488548483556448751,OPERATIONAL,+62 823-4035-1611,clothing_store,"clothing_store, bar, lodging, store",4.2,57,
ChIJ9RJ22Axt0i0Rc5L7_caSdS8,Canteen Kitchen + Bar,-8.6662803,115.44896999999999,"Gg. Blue Corner, Nusa Lembongan, Jl. Jungutbatu, Jungutbatu, Kec. Nusa Penida, Kabupaten Klungkung, Bali 80113, Indonesia",https://maps.google.com/?cid=3419800875420062323,OPERATIONAL,+62 812-4664-0343,mexican_restaurant,"mexican_restaurant, bar, cafe, restaurant, food",4.2,218,PRICE_LEVEL_MODERATE
ChIJC5Mkds1t0i0RrAfrmDtbgnI,Little Prema Warung (local food),-8.668049,115.45037920000001,"8FJ2+Q5J Lembongan island, Jungutbatu, Kec. Nusa Penida, Kabupaten Klungkung, Bali 80771, Indonesia",https://maps.google.com/?cid=8251257778822907820,OPERATIONAL,+62 823-3943-9126,restaurant,"restaurant, food",4.2,367,
