id,name,latitude,longitude,address,url,status,phone,primary-type,types,rating,rating-count,price-level
ChIJsWpKVK7X0y0Ryo36admNS2Q,Ayam geprek bunda dahlia,-8.3971993,114.8019368,"JR32+4QF, Yeh Sumbul, Mendoyo, Jembrana Regency, Bali 82261, Indonesia",https://maps.google.com/?cid=7227025991971540426,OPERATIONAL,,indonesian_restaurant,"indonesian_restaurant, restaurant, food",3,1,
ChIJeyfd64HX0y0R6RFTKbbu9tI,Warung jasri,-8.3925476,114.79860729999999,"Unnamed Road, JQ4X+XCQ, Yeh Sumbul, Kec. Mendoyo, Kabupaten Jembrana, Bali 82261, Indonesia",https://maps.google.com/?cid=15201600058380456425,OPERATIONAL,,restaurant,"restaurant, food",2,1,
ChIJOwShhyrX0y0RmOSIuagH88w,Puri Taman Sekar Yeh Sumbul,-8.392074899999999,114.80135279999999,"Jalan Kresna No.1A, Yeh Sumbul, Kec. Mendoyo, Kabupaten Jembrana, Bali 82261, Indonesia",https://maps.google.com/?cid=14768156024326644888,OPERATIONAL,,lodging,lodging,3,1,
ChIJ48mn8KrX0y0RVSw8JxfPXog,"Mk Taman Beji,Yeh Sumbul",-8.3943623,114.80204110000001,"Yeh Sumbul, Mendoyo, Jembrana Regency, Bali 82261, Indonesia",https://maps.google.com/?cid=9826519135318453333,OPERATIONAL,+62 817-342-700,,lodging,5,1,
ChIJr08JaTzX0y0Rv3EE6FsIKSM,Rumah Made Warma,-8.392750399999999,114.79903329999999,"JQ4X+VJV, Yeh Sumbul, Mendoyo, Jembrana Regency, Bali 82261, Indonesia",https://maps.google.com/?cid=2533565456200266175,OPERATIONAL,,private_guest_room,"private_guest_room, lodging",,,
ChIJwcVvBwDX0y0RhGnKZqRSyXQ,Warung Amanah,-8.3970072,114.80147129999999,"JR32+5GM, Jl. Khayangan, Yeh Sumbul, Kec. Mendoyo, Kabupaten Jembrana, Bali 82261, Indonesia",https://maps.google.com/?cid=8415348244771137924,OPERATIONAL,,indonesian_restaurant,"indonesian_restaurant, restaurant, food",5,1,
ChIJy5XiPE3X0y0RTavsW_SPRsQ,Setra Desa Yehsumbul,-8.391648499999999,114.803351,"JR53+973, Jl. Khayangan, Yeh Sumbul, Kec. Mendoyo, Kabupaten Jembrana, Bali 82261, Indonesia",https://maps.google.com/?cid=14143149959480650573,OPERATIONAL,,park,park,,,
