id,name,latitude,longitude,address,url,status,phone,primary-type,types,rating,rating-count,price-level
ChIJoVD8GgD30S0RbLUUvgHbRBc,Hideawayglamping,-8.240357900000001,115.39233979999999,"Songan A, Kintamani, Bangli Regency, Bali 80652, Indonesia",https://maps.google.com/?cid=1676705761819145580,OPERATIONAL,+62 877-1530-5222,bed_and_breakfast,"bed_and_breakfast, lodging",4.7,114,
ChIJUXek12X30S0RRCtLyYlaW4Q,Mount batur sunrise trekking,-8.2390775,115.39454559999999,"Songan A, Kintamani, Bangli Regency, Bali 80652, Indonesia",https://maps.google.com/?cid=9537316183721323332,OPERATIONAL,+62 877-6252-6461,park,park,5,3,
ChIJiQxfbLMf0i0RAG7dIHcOHMA,Bali Highgarden,-8.2413822,115.39223249999998,"Jl. Bali Highgarden, Q95R+CVX, Jl. Bukit Selat Jl. Banjar Dalem, Songan A, Kintamani, Bangli Regency, Bali 80617, Indonesia",https://maps.google.com/?cid=13842955259445341696,OPERATIONAL,+62 817-9780-293,tourist_attraction,"tourist_attraction, campground, park, camping_cabin, lodging",5,5,
ChIJ8ZiWuNr30S0R2GhtThnIGtg,Gunungbatur.id1,-8.2362196,115.3943345,"ds songan, Jl. Bukit Mekar Jl. Banjar Dalem, Songan A, Kec. Kintamani, Kabupaten Bangli, Bali 80614, Indonesia",https://maps.google.com/?cid=15571978672602441944,OPERATIONAL,+62 812-2465-1143,tourist_attraction,tourist_attraction,5,2,
ChIJLV4CZgD30S0R70fobpacr6I,Free mount Batur,-8.2389215,115.39445389999997,"Q97V+2V5, Jl. Bukit Mekar Sari, Songan A, Kec. Kintamani, Kabupaten Bangli, Bali 80652, Indonesia",https://maps.google.com/?cid=11722760524988434415,OPERATIONAL,,hiking_area,"hiking_area, park",,,
