id,name,latitude,longitude,address,url,status,phone,primary-type,types,rating,rating-count,price-level
ChIJo9sOdAtn0S0R8zdTJjjU5gA,Bendungan Palasari,-8.2541651,114.55064840000001,"Taman Wana Street, Ekasari, Kec. Melaya, Kabupaten Jembrana, Bali 82252, Indonesia",https://maps.google.com/?cid=64972582269695987,OPERATIONAL,+62 813-3766-6611,tourist_attraction,tourist_attraction,4.4,372,
ChIJU6mMKiFn0S0RMkv6hIHaijE,Kampoeng Palarejo Selfie Spot Jembrana,-8.2513986,114.54595950000001,"Jln. Banjar Palarejo, Ekasari, Kec. Melaya, Kabupaten Jembrana, Bali 82252, Indonesia",https://maps.google.com/?cid=3569905904461171506,OPERATIONAL,+62 812-3691-2725,tourist_attraction,tourist_attraction,4.4,108,
ChIJTxxIVfJn0S0Ra9vdi7gA_P8,Jogging Place,-8.2534236,114.5494897,"PGWX+JQQ, Taman Wana Street, Ekasari, Kec. Melaya, Kabupaten Jembrana, Bali 82252, Indonesia",https://maps.google.com/?cid=18445618966423264107,OPERATIONAL,,park,park,,,
ChIJbW2Ch3Vn0S0RMwO3qeDVagI,Warung Selfie,-8.2512699,114.5458807,"Jln. Banjar, Palarejo, Ekasari, Kec. Melaya, Kabupaten Jembrana, Bali 82252, Indonesia",https://maps.google.com/?cid=174186696503919411,OPERATIONAL,+62 812-3691-2725,coffee_shop,"coffee_shop, cafe, food, store",5,3,
ChIJTV9HfSxn0S0RUATcTxPdqQo,Tourist attraction Palasari,-8.2524912,114.5502527,"PHX2+242, Ekasari, Melaya, Jembrana Regency, Bali, Indonesia",https://maps.google.com/?cid=768388286457316432,OPERATIONAL,,tourist_attraction,tourist_attraction,,,
ChIJXY7MjEln0S0R9PydrURc-oE,Warung Makan Bu Nyoman,-8.2545337,114.5423289,"Dekat Unnamed Road, PGWR+5WP, Ekasari, Kec. Melaya, Kabupaten Jembrana, Bali 82252, Indonesia",https://maps.google.com/?cid=9365899825110711540,OPERATIONAL,+62 857-9227-8841,restaurant,"restaurant, food",4.5,2,
