id,name,latitude,longitude,address,url,status,phone,primary-type,types,rating,rating-count,price-level
ChIJVWWTXJVn0S0RXJDfl-cb0RY,Dusun Senja,-8.2914809,114.5254966,"Candikusuma, Melaya, Jembrana Regency, Bali 82252, Indonesia",https://maps.google.com/?cid=1644126020466348124,OPERATIONAL,+62 877-5590-0420,tourist_attraction,tourist_attraction,4.8,18,
ChIJazksUKth0S0R__Uhel2hFSg,Candikusuma,-8.2945803,114.52723390000001,"PG4G+5V9, Candikusuma, Melaya, Jembrana Regency, Bali, Indonesia",https://maps.google.com/?cid=2888392158881117695,OPERATIONAL,,indonesian_restaurant,"indonesian_restaurant, restaurant, food",,,
ChIJLVjQ6vhd0S0R1wCwk8teenU,Kedai Mie ayam bakso mama muda 1,-8.2915654,114.5206793,"PG5C+97X, Candikusuma, Kec. MelTetelanaya, Jembrana Regency, Bali 82252, Indonesia",https://maps.google.com/?cid=8465182678045425879,OPERATIONAL,,restaurant,"restaurant, food",5,6,
ChIJFUZHFtpn0S0RaCleBbaq4-M,WARKOP CANGKUP,-8.29147,114.5255396,"Dusun Senja Banjar Moding Kaja, Candikusuma, Kec. Melaya, Kabupaten Jembrana, Bali 82252, Indonesia",https://maps.google.com/?cid=16421156365073787240,OPERATIONAL,+62 877-5590-0420,cafe,"cafe, food",5,3,
ChIJOdoZnplf0S0Rvg0gDIQXoBk,Lontong catok bunda hor,-8.293434099999999,114.5213308,"PG4C+JGJ, Candikusuma, Melaya, Jembrana Regency, Bali 82252, Indonesia",https://maps.google.com/?cid=1846501703128452542,OPERATIONAL,+62 877-6117-0513,brunch_restaurant,"brunch_restaurant, restaurant, food",5,1,
ChIJIaEpMGNd0S0RRw009JK04X8,Sugi -bajol house,-8.2916702,114.5202123,"PG5C+83P, Unnamed Road, Candikusuma, Kec. Melaya, Kabupaten Jembrana, Bali 82252, Indonesia",https://maps.google.com/?cid=9214844855832022343,OPERATIONAL,+62 823-3967-1119,lodging,lodging,5,1,
