id,name,latitude,longitude,address,url,status,phone,primary-type,types,rating,rating-count,price-level
ChIJteAc2fhj0S0RCezz58KdUnA,Kak Senter,-8.3522827,114.65658099999999,"Unnamed Road, JMX4+3JP, Dangin Tukadaya, Kec. Jembrana, Kabupaten Jembrana, Bali 82218, Indonesia",https://maps.google.com/?cid=8093704940778941449,OPERATIONAL,,,lodging,5,1,
ChIJRcq_eapj0S0Rf619Ms8t5Cs,Angkringan Diabang,-8.356899,114.65916199999998,"JMV5+6MV, Dangin Tukadaya, Jembrana, Jembrana Regency, Bali 82218, Indonesia",https://maps.google.com/?cid=3162703206249508223,OPERATIONAL,+62 878-5267-6980,cafe,"cafe, food",5,2,
ChIJQxdwZy9j0S0Rsjzy_WDGXTs,"Warung Sate Guik ""Bu komang""",-8.3567124,114.65945049999999,"JMV5+8Q8, Dangin Tukadaya, Jembrana, Jembrana Regency, Bali 82218, Indonesia",https://maps.google.com/?cid=4277793340951510194,OPERATIONAL,+62 819-1690-2334,restaurant,"restaurant, food",,,
ChIJBZGSYwBj0S0RbF24uvJQTyI,Olengexcotic,-8.357088,114.66015019999999,"JMV6+536, Br.yehmekecir, Dangin Tukadaya, Kec. Jembrana, Kabupaten Jembrana, Bali, Indonesia",https://maps.google.com/?cid=2472283723894644076,OPERATIONAL,+81 80-9686-3998,bar,bar,5,4,
ChIJBQm3VQBj0S0RHDuQ3P5Jdpw,Ajik Lele-GK Darma P,-8.3554088,114.65898879999999,"Jl. Udayana Br Yeh Mekecir No.369B, Dangin Tukadaya, Kec. Jembrana, Kabupaten Jembrana, Bali 82218, Indonesia",https://maps.google.com/?cid=11274280076139576092,OPERATIONAL,,park,park,,,
ChIJ6wNxdkBj0S0REoqbtU4IZ88,Kubu dajan Pangkung,-8.354221899999999,114.65553209999999,"JMW4+867, Jl Munduk, Kemoning, Kec. Negara, Kabupaten Jembrana, Bali 82218, Indonesia",https://maps.google.com/?cid=14944923022599621138,CLOSED_TEMPORARILY,,night_club,night_club,,,
