id,name,latitude,longitude,address,url,status,phone,primary-type,types,rating,rating-count,price-level
ChIJ8RqqeSUj0i0RkROhyrdEEsI,Bali Swing,-8.473199,115.235359,"G6GP+P4H, Jl. Kenyeri, Taman, Kec. Abiansemal, Kabupaten Badung, Bali 80352, Indonesia",https://maps.google.com/?cid=13984315349108069265,OPERATIONAL,,tourist_attraction,tourist_attraction,3.1,7,
ChIJDSBFSJ0j0i0RHxMPAusBX14,DESA WISATA BONGKASA PERTIWI,-8.469642,115.2387016,"Jl. Dewi Saraswati, Banjar Karang Dalem II, Kec. Abiansemal, Kabupaten Badung, Bali 80352, Indonesia",https://maps.google.com/?cid=6800156071216223007,OPERATIONAL,+62 857-3818-0191,tourist_attraction,tourist_attraction,4.6,19,
ChIJTcdfCtki0i0RyZe12LPmsLU,Lekaja Restaurant,-8.4739952,115.2405464,"Jl. Dewi Saraswati No.52, Bongkasa Pertiwi, Kec. Abiansemal, Kabupaten Badung, Bali 80352, Indonesia",https://maps.google.com/?cid=13092217776875345865,OPERATIONAL,+62 813-3738-1487,restaurant,"restaurant, food",4.4,14,
ChIJH3oHaKoj0i0R4-UgJb86mZs,Warung Nyanyad,-8.4686678,115.2384412,"Jl. Dewi Saraswati No.81, Bongkasa Pertiwi, Kec. Abiansemal, Kabupaten Badung, Bali 80352, Indonesia",https://maps.google.com/?cid=11212057339951637987,OPERATIONAL,+62 895-2466-8737,restaurant,"restaurant, food",5,24,
ChIJbbPVHcYj0i0RZnBDu7v4GQU,Jero Banyuning Karang Dalem,-8.4710581,115.2383131,"G6HQ+H8G, Jl. Dewi Sri, Bongkasa Pertiwi, Kec. Abiansemal, Kabupaten Badung, Bali 80352, Indonesia",https://maps.google.com/?cid=367598329791737958,CLOSED_TEMPORARILY,,tourist_attraction,tourist_attraction,5,1,
ChIJU0pt0SMj0i0RnmPiqo7QA0I,Ternak ayam pak tuntun,-8.4712883,115.23413029999999,"G6HM+FMJ, Taman, Abiansemal, Badung Regency, Bali 80352, Indonesia",https://maps.google.com/?cid=4756874942604272542,OPERATIONAL,+62 878-6067-6483,restaurant,"grocery_store, store, restaurant, food",4.5,2,
ChIJp3yN4fAj0i0R4ACFnSIk4fM,THE SUETA,-8.475045099999999,115.23510959999999,"G6FP+X2Q, Jl. Kenyeri, Taman, Kec. Abiansemal, Kabupaten Badung, Bali 80352, Indonesia",https://maps.google.com/?cid=17573366952066613472,OPERATIONAL,,farm,"farm, lodging",,,
ChIJF_YCrtki0i0RzYoXSazzLZU,WARUNG BUX ARTA,-8.4747105,115.23966539999999,"Jl. Dewi Saraswati No.53, Bongkasa Pertiwi, Kec. Abiansemal, Kabupaten Badung, Bali 80352, Indonesia",https://maps.google.com/?cid=10749515806889446093,OPERATIONAL,,restaurant,"restaurant, food",,,
ChIJveo_AwAj0i0R6KKR_b558ts,Bali Bahama Adventure,-8.4718278,115.2354076,"G6HP+757, Bongkasa Pertiwi, Abiansemal, Badung Regency, Bali, Indonesia",https://maps.google.com/?cid=15848863899875123944,OPERATIONAL,,tourist_attraction,tourist_attraction,,,
