id,name,latitude,longitude,address,url,status,phone,primary-type,types,rating,rating-count,price-level
ChIJPTcP9Rg70i0RMzFmx497mcc,BR. Bajera Pegebegan,-8.5361809,115.1621765,"F576+GVF, Beringkit, Marga, Tabanan Regency, Bali 82121, Indonesia",https://maps.google.com/?cid=14382662742440292659,OPERATIONAL,,lodging,lodging,5,2,
ChIJlwKoa-I70i0R7fFgQH3Bf4I,Denuma Cafe,-8.5376704,115.16425649999998,"Jl. Danau Batur No.73, Mengwi, Kec. Mengwi, Kabupaten Badung, Bali 80351, Indonesia",https://maps.google.com/?cid=9403447290668052973,OPERATIONAL,+62 878-6389-4555,indonesian_restaurant,"indonesian_restaurant, restaurant, food",4.5,25,
ChIJ7zI5HP870i0R5NpWDr0VTe4,Billiard Gor Mengwi,-8.5387344,115.1666741,"F568+GM3, Jl. Danau Buyan, Mengwi, Kec. Mengwi, Kabupaten Badung, Bali 80351, Indonesia",https://maps.google.com/?cid=17171404855967144676,OPERATIONAL,+62 895-0526-9294,night_club,night_club,,,
ChIJSbMdYCg70i0RuK46n2QT4Wg,Teguh's house,-8.538907499999999,115.1632817,"F567+C8M, Abian Tuwung, Kediri, Tabanan Regency, Bali, Indonesia",https://maps.google.com/?cid=7557342972593483448,OPERATIONAL,,private_guest_room,"private_guest_room, lodging",5,1,
ChIJnZPzwh470i0RRfTRgVB6oDA,Kos TEGAL WANGI,-8.538551,115.166258,"F568+HGC, Mengwi, Badung Regency, Bali 80351, Indonesia",https://maps.google.com/?cid=3503934996288238661,OPERATIONAL,,hotel,"hotel, lodging",,,
