id,name,latitude,longitude,address,url,status,phone,primary-type,types,rating,rating-count,price-level
ChIJvciNvekx0i0RqSzkot3zST4,Walet Cafe,-8.5134292,115.02205950000001,"F2PC+JRF, Jl. Serma Watra, Antap, Kec. Selemadeg, Kabupaten Tabanan, Bali 82162, Indonesia",https://maps.google.com/?cid=4488386636897594537,OPERATIONAL,+62 858-4733-9155,cafe,"cafe, food",5,1,
ChIJ17S1uf8x0i0RxUvZWuuaXBY,Kos'an buk emmi,-8.508005599999999,115.025449,"F2RG+Q5W, Bajera, Selemadeg, Tabanan Regency, Bali 82162, Indonesia",https://maps.google.com/?cid=1611333102323977157,OPERATIONAL,,hotel,"hotel, lodging",,,
ChIJC3SHMywx0i0ROnxCvqjeMn4,Kos kjm,-8.5086528,115.0217806,"F2RC+GPJ, Jl. Gelogor Indah, Bajera, Kec. Selemadeg, Kabupaten Tabanan, Bali 82162, Indonesia",https://maps.google.com/?cid=9093575413942352954,OPERATIONAL,+62 858-5826-1933,lodging,lodging,5,1,
ChIJkznDng4x0i0RJvLMLag3e_I,Warung Makan Bu Arik,-8.5080151,115.0251346,"F2RG+Q3R, Bajera, Selemadeg, Tabanan Regency, Bali 82162, Indonesia",https://maps.google.com/?cid=17472620374776410662,OPERATIONAL,,restaurant,"restaurant, food",5,1,
ChIJZW6hKj8x0i0RWznRjfiC2tE,Dode Restu,-8.509482799999999,115.0214743,"Bajera, Selemadeg, Tabanan Regency, Bali, Indonesia",https://maps.google.com/?cid=15121542702892661083,OPERATIONAL,+62 881-4751-758,,lodging,5,1,
ChIJ42QYgjgx0i0RvIm_1VI8_78,Angkringan WR.Dex Conkz,-8.5079117,115.0223167,"Bajera, Selemadeg, Tabanan Regency, Bali, Indonesia",https://maps.google.com/?cid=13834842906776537532,OPERATIONAL,+62 857-3738-8944,indonesian_restaurant,"indonesian_restaurant, restaurant, food",5,1,
ChIJNQunXk8x0i0REUTkvy2Pteg,Otong 75 Betutu Bali,-8.507534999999999,115.022858,"F2RF+X4Q, Jl. Srigati, Bajera, Kec. Selemadeg, Kabupaten Tabanan, Bali 82162, Indonesia",https://maps.google.com/?cid=16768466214239618065,CLOSED_TEMPORARILY,,fast_food_restaurant,"fast_food_restaurant, restaurant, food",,,
