id,name,latitude,longitude,address,url,status,phone,primary-type,types,rating,rating-count,price-level
ChIJf5OC3nYH0i0R6VOhKlogRh8,KFC,-8.4513489,115.60482100000002,"Jl. Jenderal Sudirman No.25, Karangasem, Kec. Karangasem, Kabupaten Karangasem, Bali 80811, Indonesia",https://maps.google.com/?cid=2253524235179873257,OPERATIONAL,+62 21 14022,fast_food_restaurant,"fast_food_restaurant, restaurant, food",4.3,605,PRICE_LEVEL_MODERATE
ChIJNazuJjAG0i0RcdxLU2zDJEY,Hotel Ganitri Oka Inn,-8.451199899999999,115.60538209999999,"Subagan, Karangasem, Karangasem Regency, Bali 80811, Indonesia",https://maps.google.com/?cid=5054379551837903985,OPERATIONAL,+62 363 22354,hotel,"hotel, lodging",3.6,23,
ChIJFZqN8jgG0i0RZllncC7uVKo,Wr. Babi Guling Sari Sedana,-8.4474748,115.60478830000001,"HJ33+2W7, Jl. Untung Surapati, Subagan, Kec. Karangasem, Kabupaten Karangasem, Bali 80811, Indonesia",https://maps.google.com/?cid=12273696767713171814,OPERATIONAL,+62 857-3743-7131,indonesian_restaurant,"indonesian_restaurant, restaurant, food",4.1,155,
ChIJkReYDiUG0i0REshVnK_qN0o,Mie Ayam Koprol,-8.4517703,115.6036043,"Jl. Sudirman No.100, Subagan, Kec. Karangasem, Kabupaten Karangasem, Bali 80811, Indonesia",https://maps.google.com/?cid=5348001122488797202,OPERATIONAL,+62 831-1436-2626,restaurant,"restaurant, food",4.3,122,PRICE_LEVEL_INEXPENSIVE
ChIJc-2OKrkH0i0RhQbUTHO8Nh0,Mie Ayam & Bakso Nanok,-8.4509718,115.6053164,"GJX4+J48, Jl. Sudirman, Subagan, Kec. Karangasem, Kabupaten Karangasem, Bali 80811, Indonesia",https://maps.google.com/?cid=2105077079238510213,OPERATIONAL,,brunch_restaurant,"brunch_restaurant, breakfast_restaurant, indonesian_restaurant, restaurant, food",4.1,211,PRICE_LEVEL_INEXPENSIVE
ChIJbdouqeAH0i0RIFKD3Y1Wq6A,masakan padang baringin jaya tigo,-8.450396,115.60566379999999,"masakan padang baringin jaya tigo, Jl. Jenderal Sudirman no.46 C, Subagan, Kec. Karangasem, Kabupaten Karangasem, Bali 80811, Indonesia",https://maps.google.com/?cid=11577442434392740384,OPERATIONAL,+62 812-8269-3904,indonesian_restaurant,"indonesian_restaurant, restaurant, food",4.2,17,
ChIJScbFqyUG0i0RWN4at2BvDu0,bubur ayam koprol,-8.4518075,115.60357499999999,"Jl. Sudirman No.100, Subagan, Kec. Karangasem, Kabupaten Karangasem, Bali 80811, Indonesia",https://maps.google.com/?cid=17081712897842404952,OPERATIONAL,+62 856-4029-8007,restaurant,"restaurant, food",5,3,
ChIJi_CMiAEH0i0RCKbE4mXG7KU,Kedai Kopi nAu Karangasem,-8.4513498,115.6042586,"Jl. Panglima Besar Sudirman No.94, Subagan, Kec. Karangasem, Kabupaten Karangasem, Bali 80811, Indonesia",https://maps.google.com/?cid=11956149251660359176,OPERATIONAL,,coffee_shop,"coffee_shop, cafe, food, store",4.4,23,
ChIJ0Ry9YmsH0i0RXRZYuZF02Kc,Warung Makan Ibu Jagi,-8.4485169,115.6060659,"HJ24+HCW, Jl. Untung Surapati, Paya, Kec. Karangasem, Kabupaten Karangasem, Bali 80811, Indonesia",https://maps.google.com/?cid=12094544968532104797,OPERATIONAL,+62 878-6591-1681,restaurant,"restaurant, food",4.5,74,PRICE_LEVEL_INEXPENSIVE
ChIJGyLDXrcH0i0RtYoRPeaJLxk,Permata Karaoke,-8.4524206,115.60297910000001,"Jl. Sudirman, Subagan, Karangasem, Karangasem Regency, Bali 80813, Subagan, Kec. Karangasem, Kabupaten Karangasem, Bali 80811, Indonesia",https://maps.google.com/?cid=1814820796813642421,OPERATIONAL,+62 823-4069-9191,fast_food_restaurant,"fast_food_restaurant, restaurant, food",5,11,
ChIJL0NPlLAH0i0R4oEShXHyotI,Warung Makan Rejeki Nganjuk (Muslim),-8.4494132,115.6081485,"Jl. Pesagi No.1B, Subagan, Kec. Karangasem, Kabupaten Karangasem, Bali 80811, Indonesia",https://maps.google.com/?cid=15177960263569801698,OPERATIONAL,,indonesian_restaurant,"indonesian_restaurant, restaurant, food",4.5,37,
ChIJs0vYkLMH0i0RViU8Zvmkf_w,"Rumah Makan Nanda, Nasi Babi Guling Dan Nasi Balung",-8.4489323,115.6082707,"HJ25+C8FSubaganKec, Kec. Karangasem, Kabupaten Karangasem, Bali 80811, Indonesia",https://maps.google.com/?cid=18194442410669122902,OPERATIONAL,+62 857-3701-0405,restaurant,"restaurant, food",3.7,3,
ChIJf4UTkogH0i0RLmkt6ALgJiI,Warung Jawa Banyuwangi Halal,-8.4490229,115.6050434,"HJ24+92V, Jl. Abang - Amlapura, Subagan, Kec. Abang, Kabupaten Karangasem, Bali 80811, Indonesia",https://maps.google.com/?cid=2460900549494401326,OPERATIONAL,+62 811-3998-957,indonesian_restaurant,"indonesian_restaurant, restaurant, food",4.6,7,
ChIJnzdPsTEG0i0Rta9mz8Rt4gw,Tugu Garuda Pancasila,-8.449608099999999,115.6070297,"HJ24+5R2, Subagan, Karangasem, Karangasem Regency, Bali 80811, Indonesia",https://maps.google.com/?cid=928425165252374453,OPERATIONAL,,historical_landmark,historical_landmark,4.3,46,
ChIJ3QqZHHoH0i0RDib73HGelQs,Sate kambing,-8.4494441,115.60673329999999,"Jl. Suropati No.25, Subagan, Kec. Karangasem, Kabupaten Karangasem, Bali 80811, Indonesia",https://maps.google.com/?cid=834747517823034894,OPERATIONAL,,indonesian_restaurant,"indonesian_restaurant, restaurant, food",4,1,
ChIJEao8oksH0i0Rw9s3edly0XA,Roti Bakar Dan Terang Bulan Johny,-8.4472449,115.60470790000001,"Dekat, Jl. Untung Surapati No.162, Padang Kerta, Kec. Karangasem, Kabupaten Karangasem, Bali 80811, Indonesia",https://maps.google.com/?cid=8129405080747629507,OPERATIONAL,+62 812-3849-9091,,"restaurant, food, store",4.8,4,
ChIJK7Sbbr0H0i0RPEeUXLQ-O08,Es Teh Indonesia - Karangasem,-8.452838999999999,115.602237,"Jl. Jenderal Sudirman No.106, Subagan, Kec. Karangasem, Kabupaten Karangasem, Bali 80811, Indonesia",https://maps.google.com/?cid=5709225896990492476,OPERATIONAL,+62 899-4935-888,cafe,"cafe, food",4.7,51,
ChIJxf9tuLIH0i0RV_TSFWpRPqI,KFC Karang Asem,-8.451331,115.604681,"Jl. Sudirman No.80, Subagan, Kec. Karangasem, Kabupaten Karangasem, Bali 80811, Indonesia",https://maps.google.com/?cid=11690871198774916183,OPERATIONAL,+62 811-1915-928,restaurant,"restaurant, food",,,PRICE_LEVEL_MODERATE
ChIJJeWdbQ0H0i0R2fUYOX68GlY,Warung Makan Babi Guling Bu Kerti ll,-8.447852899999999,115.60548689999997,"HJ24+V55, Jl. Untung Surapati, Padang Kerta, Kec. Karangasem, Kabupaten Karangasem, Bali 80811, Indonesia",https://maps.google.com/?cid=6204478686966117849,OPERATIONAL,+62 812-4659-7074,restaurant,"restaurant, food",4.4,11,
ChIJp65MnmMH0i0RZUTqREoztzU,SAMBAL DJANGAR,-8.4510722,115.6051677,"Jl. Sudirman, Subagan, Kec. Karangasem, Kabupaten Karangasem, Bali 80811, Indonesia",https://maps.google.com/?cid=3870618798825030757,OPERATIONAL,,restaurant,"restaurant, food",3.6,8,
