id,name,latitude,longitude,address,url,status,phone,primary-type,types,rating,rating-count,price-level
ChIJR4gjiFtA0i0RqWgy0vs5TY4,Plaza Renon,-8.673131,115.24414360000002,"Jl. Raya Puputan No.210, Renon, Kec. Denpasar Tim., Kota Denpasar, Bali 80239, Indonesia",https://maps.google.com/?cid=10253915680318580905,OPERATIONAL,+62 361 4457615,shopping_mall,"shopping_mall, thai_restaurant, movie_theater, beauty_salon, coffee_shop, cafe, restaurant, store, food, event_venue",4.4,11740,
ChIJjXkJ9tZB0i0R0WxWuDEa-Ks,Four Star by Trans Hotel,-8.6738003,115.24232780000001,"Jl. Raya Puputan No.200, Renon, Denpasar Selatan, Kota Denpasar, Bali 80226, Indonesia",https://maps.google.com/?cid=12391683175558311121,OPERATIONAL,+62 361 4743500,hotel,"hotel, lodging",4.5,864,
ChIJo5hb-UtB0i0R-h64pVyx4RE,Sekopi.Renon,-8.675484500000001,115.24199229999999,"Jl. Tukad Balian No.15, Renon, Denpasar Selatan, Kota Denpasar, Bali 80226, Indonesia",https://maps.google.com/?cid=1288505979880087290,OPERATIONAL,+62 812-3717-1808,coffee_shop,"coffee_shop, cafe, store, food",4.6,660,
ChIJN2NXv4lB0i0RASWbjUeDCOo,Renoma Garden,-8.672113399999999,115.24499510000001,"Jl. Hayam Wuruk No.306, Sumerta Kelod, Kec. Denpasar Tim., Kota Denpasar, Bali 80239, Indonesia",https://maps.google.com/?cid=16863873148030493953,OPERATIONAL,,restaurant,"restaurant, food, event_venue",4.5,421,PRICE_LEVEL_MODERATE
ChIJITHPtH5B0i0R3uVdd8Z_0xI,BRON Cafe,-8.672741,115.2447032,"Jl. Hayam Wuruk No.136, Sumerta Kelod, Kec. Denpasar Tim., Kota Denpasar, Bali 80239, Indonesia",https://maps.google.com/?cid=1356568403151545822,OPERATIONAL,+62 817-560-162,restaurant,"restaurant, food",4.6,922,PRICE_LEVEL_MODERATE
ChIJtTLJMK1B0i0RVHA1rOEFb-c,Enigma Garden Bali,-8.6738277,115.2472911,"Jl. Hang Tuah No.8, Sumerta Kelod, Denpasar Selatan, Kota Denpasar, Bali 80239, Indonesia",https://maps.google.com/?cid=16676554411991199828,OPERATIONAL,+62 821-2714-5757,restaurant,"restaurant, food",4.6,527,
ChIJ0wjpTwpB0i0R_Z-ZS4Xmfeo,Wiji Indonesia,-8.673537999999999,115.246358,"Jl. Hang Tuah, Renon, Denpasar Selatan, Kota Denpasar, Bali 80227, Indonesia",https://maps.google.com/?cid=16896914837137367037,OPERATIONAL,+62 896-8801-3233,indonesian_restaurant,"indonesian_restaurant, restaurant, food",4.3,288,PRICE_LEVEL_MODERATE
ChIJNZq2BZtA0i0RQmXoCYXVK9Q,Oranjje Denpasar Hotel,-8.6721109,115.24416139999998,"Jl. Hayam Wuruk No.302, Sumerta Kelod, Kec. Denpasar Tim., Kota Denpasar, Bali 80239, Indonesia",https://maps.google.com/?cid=15288548127412872514,OPERATIONAL,+62 361 238185,hotel,"hotel, lodging",3.7,630,
ChIJE9Zz3e1B0i0RhoP1iv8n2jY,The Renon Apartement,-8.675817,115.24576469999998,"Jl. Tukad Penet No.19D, Renon, Denpasar Selatan, Kota Denpasar, Bali 80239, Indonesia",https://maps.google.com/?cid=3952515601472521094,OPERATIONAL,,,lodging,4.2,29,
ChIJeZsbSJNA0i0R-gxJx9q0FXw,Babi Guling Renon,-8.6739479,115.24410689999999,"Jl. Raya Puputan No.212, Renon, Denpasar Selatan, Kota Denpasar, Bali 80239, Indonesia",https://maps.google.com/?cid=8941251486953311482,OPERATIONAL,+62 361 234208,indonesian_restaurant,"breakfast_restaurant, indonesian_restaurant, restaurant, food",4.4,975,PRICE_LEVEL_MODERATE
ChIJfeO7jFtA0i0RBHiOEXoHGFo,Sate Plecing Mak Lukluk,-8.673824,115.24379689999998,"Jl. Raya Puputan No.210A, Renon, Denpasar Selatan, Kota Denpasar, Bali 80226, Indonesia",https://maps.google.com/?cid=6491947083716524036,OPERATIONAL,+62 361 234130,indonesian_restaurant,"indonesian_restaurant, restaurant, food",4.5,1346,PRICE_LEVEL_INEXPENSIVE
ChIJ1086g6JB0i0RVTylv8msKfw,Nelu by STUJA,-8.6735372,115.24648710000001,"Jl. Hang Tuah No.45, Sanur Kaja, Denpasar Selatan, Kota Denpasar, Bali 28462, Indonesia",https://maps.google.com/?cid=18170244154106657877,OPERATIONAL,+62 877-6588-6800,cafe,"cafe, food",4.9,202,
ChIJbWnrj1tA0i0R4iz_n5IM43k,Starbucks Plaza Renon,-8.6732678,115.24439500000001,"Jl. Raya Puputan No.210, Panjer, Denpasar Selatan, Kota Denpasar, Bali 80239, Indonesia",https://maps.google.com/?cid=8782877522191658210,OPERATIONAL,+62 361 8421233,coffee_shop,"coffee_shop, cafe, store, food",4.5,1199,PRICE_LEVEL_MODERATE
ChIJB8hh_ddB0i0RBmsB-UMsZfg,The District Eleven,-8.673938399999999,115.24397529999999,"Jl. Raya Puputan No.210, Sumerta Kelod, Kec. Denpasar Tim., Kota Denpasar, Bali 80239, Indonesia",https://maps.google.com/?cid=17898760964505955078,OPERATIONAL,+62 813-3728-0035,restaurant,"restaurant, food",4.7,359,
ChIJXZKoxCRB0i0R4BYWsmNjv78,Sama Sama Yakiniku Japanese Restaurant Plaza Renon,-8.6732338,115.24378469999999,"Plaza Renon, Jl. Raya Puputan No.210, Renon, Denpasar Selatan, Kota Denpasar, Bali 80239, Indonesia",https://maps.google.com/?cid=13816871461636675296,OPERATIONAL,+62 812-3974-7019,japanese_restaurant,"japanese_restaurant, restaurant, food",4.8,1432,
ChIJcYmK-1tA0i0RC7DQJz1tKM4,Puri Suranadi,-8.6738654,115.2435738,"Jl. Raya Puputan No.208, Renon, Denpasar Selatan, Kota Denpasar, Bali 80239, Indonesia",https://maps.google.com/?cid=14855243480310001675,OPERATIONAL,+62 851-0041-5117,indonesian_restaurant,"indonesian_restaurant, restaurant, food",4.4,391,PRICE_LEVEL_MODERATE
ChIJh3tzNABB0i0RqRCGlTfO5Io,Pesso Garden,-8.674032900000002,115.2495175,"Jl. Hang Tuah No.80X, Sanur Kaja, Denpasar Selatan, Kota Denpasar, Bali 80239, Indonesia",https://maps.google.com/?cid=10008351010051199145,OPERATIONAL,,restaurant,"restaurant, food",4.5,38,
ChIJTZ7ymU9A0i0REQnYHfGHYHA,Surya Guest House Sanur,-8.6789249,115.24887829999999,"Jalan Tukad Nyali Blok SMA6 No 8A Sanur, Sanur Kaja, Denpasar Selatan, Kota Denpasar, Bali 80227, Indonesia",https://maps.google.com/?cid=8097621599669717265,OPERATIONAL,+62 831-1448-6571,hotel,"hotel, lodging",4.8,54,
ChIJAahqtNJB0i0RkSAOj0wAPWI,"ACK Fried Chicken Tukad Yeh Aya, Renon",-8.677285099999999,115.2441279,"Jl. Tukad Yeh Aya No.233, Renon, Denpasar Selatan, Kota Denpasar, Bali 80225, Indonesia",https://maps.google.com/?cid=7078814518113869969,OPERATIONAL,+62 877-7033-8401,fast_food_restaurant,"fast_food_restaurant, restaurant, food",3.8,44,
ChIJnQUhWOVB0i0R-0WwmnNNPos,Never Too Dizzy,-8.6724673,115.24463290000001,"Jl. Hayam Wuruk, Panjer, Kec. Denpasar Tim., Denpasar Timur, Bali 80235, Indonesia",https://maps.google.com/?cid=10033542178739865083,OPERATIONAL,+62 823-2288-2192,bar,"bar, restaurant, food",4.2,23,
