id,name,latitude,longitude,address,url,status,phone,primary-type,types,rating,rating-count,price-level
ChIJX8e3uNQ-0i0R49ynt4p5jao,Perumahan Nuansa Kori nksu I sading,-8.6073225,115.19005550000001,"95VR+32F, Jl. Nuansa Kori Sading II, Sading, Kec. Mengwi, Kabupaten Badung, Bali 80116, Indonesia",https://maps.google.com/?cid=12289612594857630947,OPERATIONAL,,lodging,lodging,4.3,72,
ChIJg_NvqCw50i0R2H0p1N6Q3cg,Pondok Genyol Bu Agus Family Sading Cabang Sempidi,-8.6063076,115.18822619999999,"Jl. Langon No.12, Sempidi, Kec. Mengwi, Kabupaten Badung, Bali 80116, Indonesia",https://maps.google.com/?cid=14473884064155270616,OPERATIONAL,,indonesian_restaurant,"indonesian_restaurant, restaurant, food",4.5,1988,PRICE_LEVEL_INEXPENSIVE
ChIJt0f7Xyw50i0Rg_N1MTVR8Es,Shri Ram Statue,-8.605298099999999,115.1859086,"Jl. Raya Sempidi No.5, Sempidi, Kec. Mengwi, Kabupaten Badung, Bali 80116, Indonesia",https://maps.google.com/?cid=5471962836160082819,OPERATIONAL,,park,"park, tourist_attraction",4.5,378,
ChIJjzaCrqM_0i0RUNzlkgRFN-I,GOGO Fried Chicken Sempidi,-8.6049904,115.18260099999999,"Sempidi, Mengwi, Badung Regency, Bali 80351, Indonesia",https://maps.google.com/?cid=16300573262237523024,OPERATIONAL,+62 812-3788-9027,restaurant,"restaurant, food",4.8,24,
ChIJdRPeumY50i0RPM_gaKlBMKc,Warung Liku Sempidi,-8.6050648,115.183014,"95VM+X6C, Jl. Raya Sempidi, Sempidi, Kec. Mengwi, Kabupaten Badung, Bali 80351, Indonesia",https://maps.google.com/?cid=12047201199080918844,OPERATIONAL,+62 851-0047-0306,restaurant,"restaurant, food",4.2,54,
ChIJW7D2my450i0RbVQ_Q1JwDn0,Berkah Vegan,-8.605137599999999,115.18248899999998,"Jl. Raya Sempidi Badung No.1, Dalung, Kec. Kuta Utara, Kabupaten Badung, Bali 80351, Indonesia",https://maps.google.com/?cid=9011263403032794221,OPERATIONAL,+62 813-5330-4868,vegetarian_restaurant,"vegetarian_restaurant, vegan_restaurant, restaurant, food",4.6,211,PRICE_LEVEL_INEXPENSIVE
ChIJtyAUBzc50i0Rv4Dcy19BpNA,Ack Sempidi,-8.6053541,115.1853216,"Jl. I. Gusti Ngurah Rai Betoh No.67b, Sempidi, Kec. Mengwi, Kabupaten Badung, Bali 80116, Indonesia",https://maps.google.com/?cid=15034213335767482559,OPERATIONAL,+62 859-3516-9933,restaurant,"restaurant, food",4.1,46,
ChIJIVPoVSw50i0RpGaHAlkF1iM,Warung Putu,-8.6043288,115.1860366,"Jl. Raya Lukluk No.6, Sempidi, Kec. Mengwi, Kabupaten Badung, Bali 80116, Indonesia",https://maps.google.com/?cid=2582257316196214436,OPERATIONAL,+62 813-3870-9746,indonesian_restaurant,"indonesian_restaurant, restaurant, food",4.6,88,
ChIJVXOFdS050i0RSDk_LNXOhmk,Warung Jokwi Cabang Sempidi,-8.6025808,115.1859504,"Jl. Raya Denpasar - Gilimanuk, Sempidi, Kec. Mengwi, Kabupaten Badung, Bali 80351, Indonesia",https://maps.google.com/?cid=7603992435827358024,OPERATIONAL,+62 822-3780-2564,indonesian_restaurant,"indonesian_restaurant, restaurant, food",4.4,56,
ChIJY2Njdi050i0Req3HB2EEctQ,Warung Geben,-8.6024085,115.185954,"Jl. Raya Sempidi No.21, Mengwitani, Kec. Kuta Utara, Kabupaten Badung, Bali 80351, Indonesia",https://maps.google.com/?cid=15308302898174602618,OPERATIONAL,+62 878-6090-1047,indonesian_restaurant,"indonesian_restaurant, restaurant, food",4.5,52,
ChIJ2XnHdS050i0RPKZD1n0J_V0,Gauranga Vegetarian,-8.6025985,115.18623369999999,"Jalan Raya Sempidi No.19 X, Mengwi, Kuta Utara, Sempidi, Kec. Mengwi, Kabupaten Badung, Bali 80351, Indonesia",https://maps.google.com/?cid=6772579850705413692,OPERATIONAL,+62 813-3857-1485,vegan_restaurant,"vegan_restaurant, vegetarian_restaurant, restaurant, food",4.4,30,
ChIJO-a2Yu450i0RB2sb6um1R2M,Seblak Hot Prasmanan,-8.6049113,115.1874242,"95WP+2XM, Sempidi, Mengwi, Badung Regency, Bali 80116, Indonesia",https://maps.google.com/?cid=7153886549360995079,OPERATIONAL,,restaurant,"restaurant, food",,,
ChIJgeAn0cI50i0RFzLd4ITzI68,"Warung Nyah Ade ""The Legend Of Nasi Bungkus Sempidi""",-8.6054041,115.1842154,"Jalan Hanoman No: 39, Br. Ubung, Sempidi, Kec. Mengwi, Kabupaten Badung, Bali 80351, Indonesia",https://maps.google.com/?cid=12620198332856087063,OPERATIONAL,,restaurant,"restaurant, brunch_restaurant, food",4.4,36,
ChIJhX23f0s50i0RkQ96AmVwOEE,Kota Mangupura,-8.6011853,115.1861287,"Jl. Raya Denpasar - Gilimanuk No.31-27, Sempidi, Kec. Mengwi, Kabupaten Badung, Bali 80351, Indonesia",https://maps.google.com/?cid=4699629790296674193,OPERATIONAL,,tourist_attraction,tourist_attraction,5,1,
ChIJDTGe0NQ-0i0RkuYeeXB1eRg,BUKAN AYAM BAKAR BIASA,-8.6083482,115.18946369999999,"Jl. Raya Sempidi No.60, Sempidi, Kec. Mengwi, Kabupaten Badung, Bali 80116, Indonesia",https://maps.google.com/?cid=1763569855021115026,OPERATIONAL,+62 819-9984-4599,restaurant,"restaurant, food",4.5,35,
ChIJ7arEBt050i0RwA8QG55OUrU,MARTABAK & TERANG BULAN ( MAS RIFAN ),-8.6083334,115.1888178,"Jl. Raya Sempidi No.20, Sempidi, Kec. Mengwi, Kabupaten Badung, Bali 80116, Indonesia",https://maps.google.com/?cid=13065591909921066944,OPERATIONAL,+62 878-6269-9660,restaurant,"restaurant, food",4.9,9,
ChIJUaYg5jk50i0Rnsa1A2VAN7w,Warung Jawa Muslim Fatimah,-8.6054852,115.18538980000001,"95VP+R52, Jl. Hanoman, Sempidi, Kec. Mengwi, Kabupaten Badung, Bali 80116, Indonesia",https://maps.google.com/?cid=13562379605447657118,OPERATIONAL,,indonesian_restaurant,"indonesian_restaurant, restaurant, food",4.4,25,
ChIJQ23QPiw50i0RqZESqF-GSbk,Warung Bu Jero Soto Sapi,-8.6050488,115.18296919999999,"Jl. Raya Sempidi, Dalung, Badung, Bali 80361, Sempidi, Kec. Mengwi, Kabupaten Badung, Bali 80361, Indonesia",https://maps.google.com/?cid=13351350315716350377,OPERATIONAL,+62 811-3869-555,indonesian_restaurant,"indonesian_restaurant, restaurant, food",4.4,60,
ChIJIc4YNuo50i0R5YnaPafiOrg,Ayam betutu ajik mangku sempidi,-8.6056612,115.18465080000001,"Jl. Hanoman I, Sempidi, Kec. Mengwi, Kabupaten Badung, Bali 80116, Indonesia",https://maps.google.com/?cid=13275172059553106405,OPERATIONAL,+62 895-3536-38375,indonesian_restaurant,"indonesian_restaurant, restaurant, food",5,3,
ChIJQZnN1hw50i0R9IYaxTfSJ0k,Babi Guling Jik Lanang,-8.6077593,115.18742479999999,"Jl. Raya Denpasar - Gilimanuk No.61, Sempidi, Kec. Mengwi, Kabupaten Badung, Bali 80116, Indonesia",https://maps.google.com/?cid=5271413025832339188,OPERATIONAL,+62 878-6299-3992,indonesian_restaurant,"indonesian_restaurant, restaurant, food",3.7,10,
