id,name,latitude,longitude,address,url,status,phone,primary-type,types,rating,rating-count,price-level
ChIJKXcrgQBB0i0RxlOE-19qdEY,Diuma Residence Yoga Meditation Retreat and Healing Center,-8.691654,115.23608159999999,"Jl. Tukad Badung XVI No.1001, Renon, Denpasar Selatan, Kota Denpasar, Bali 80226, Indonesia",https://maps.google.com/?cid=5076799640427582406,OPERATIONAL,+62 361 4722308,hotel,"hotel, lodging, restaurant, food",4,295,
ChIJDTjifQBB0i0Rcjw4rILJ9Ps,SUPER OYO 90232 March 67 Stay,-8.6909903,115.2357747,"Balian, Jl. Tukad Badung XVI No.23, Renon, Denpasar Selatan, Kota Denpasar, Bali 80224, Indonesia",https://maps.google.com/?cid=18155357560909610098,OPERATIONAL,+62 21 29707601,hotel,"hotel, lodging",4.1,85,
ChIJd0svyVlB0i0RuKyFgRMOU9M,Super Capital O 3018 Vin Stay,-8.6929758,115.2367505,"Renon, Denpasar Selatan, Denpasar City, Bali 80226, Indonesia",https://maps.google.com/?cid=15227530242009967800,OPERATIONAL,+62 21 29707601,,lodging,4.1,159,
ChIJf2ZH9xBB0i0RjGkODdCQPUc,Super Capital O 2166 Elitya Stay,-8.6927576,115.23675879999999,"Jl. Tukad Badung XVIII B No.77, Renon, Denpasar Selatan, Kota Denpasar, Bali 80226, Indonesia",https://maps.google.com/?cid=5133418373518879116,OPERATIONAL,+62 21 29707601,hotel,"hotel, lodging",4.4,263,
ChIJy-w_iXNB0i0RuRrB2br3V7o,Cove Ransha Stay,-8.692291899999999,115.23562919999999,"Jl. Tukad Badung XVIII No.mor 38, Renon, Denpasar Selatan, Kota Denpasar, Bali 80226, Indonesia",https://maps.google.com/?cid=13427473195917712057,OPERATIONAL,+62 21 50996923,private_guest_room,"private_guest_room, hotel, lodging",4.5,93,
ChIJYWnpOZJB0i0ROI6l9THfV80,MELODI RASA Resto,-8.6907335,115.23822949999999,"Jl. Tukad Badung No.260, Renon, Denpasar Selatan, Kota Denpasar, Bali 80226, Indonesia",https://maps.google.com/?cid=14796540506416713272,OPERATIONAL,+62 811-9138-806,restaurant,"restaurant, food",4.9,984,
ChIJeVbLb6pB0i0RUY1PyQMFhK8,Elite Star Guest House,-8.6921009,115.2375292,"Jl. Tukad Badung XVIII No.8, Renon, Denpasar Selatan, Kota Denpasar, Bali 80234, Indonesia",https://maps.google.com/?cid=12647239167383670097,OPERATIONAL,+62 858-8303-6611,guest_house,"guest_house, lodging",3.9,25,
ChIJpbFyF3dB0i0R1SE4gFkNlOs,Warung kakoel renon,-8.6901627,115.2379869,"Renon, Denpasar Selatan, Denpasar City, Bali 80226, Indonesia",https://maps.google.com/?cid=16975207573520654805,OPERATIONAL,+62 896-0648-5000,restaurant,"restaurant, food",4.3,47,
ChIJdzuqygFB0i0R-qhlyiU_CEA,Pondok Indah Citarum,-8.690308,115.2334094,"Blok 8 no 8 panjer, Jl. Tukad Citarum Gg. O, Dauh Puri Klod, Denpasar Selatan, Denpasar City, Bali 80226, Indonesia",https://maps.google.com/?cid=4614007249783073018,OPERATIONAL,+62 813-3777-1132,,lodging,4.1,180,
ChIJ7wpXX1dB0i0R9aLAIeg1gkk,Teman Social Space,-8.69052,115.23508389999999,"Jl. Tukad Badung XIV D No.21, Renon, Denpasar Selatan, Kota Denpasar, Bali 80226, Indonesia",https://maps.google.com/?cid=5296855382856082165,OPERATIONAL,,coffee_shop,"coffee_shop, cafe, food, store",4.7,91,
ChIJ876pkKlB0i0RwQ-9Tdufm38,Grand City Inn,-8.6948815,115.23838740000001,"Jl. Tukad Badung No.211X, Renon, Denpasar Selatan, Kota Denpasar, Bali 80226, Indonesia",https://maps.google.com/?cid=9195118828457889729,OPERATIONAL,+62 823-2283-7009,guest_house,"guest_house, lodging",4.3,200,
ChIJ_zsRM6tB0i0RKQ6y2DxajEk,Santana Gody Office & Residence,-8.688809,115.23965899999999,"Santana Gody Building, Jl. Tukad Badung XVII No.36, Renon, Denpasar Selatan, Kota Denpasar, Bali 80226, Indonesia",https://maps.google.com/?cid=5299710078888316457,OPERATIONAL,,hostel,"hostel, lodging",3.2,127,
ChIJQZkZOAtB0i0RbAXWz8a569k,ARAAK BALI MURNI,-8.688844999999999,115.23785529999999,"Jl. Tukad Badung No.127, Renon, Denpasar Selatan, Kota Denpasar, Bali 80239, Indonesia",https://maps.google.com/?cid=15702848789298939244,OPERATIONAL,+62 813-3731-3602,bar,bar,5,115,
ChIJv2SYKLhH0i0Rza_evRjSVcg,AMUL INDIAN RESTAURANT @amulindia by pankaj batra,-8.6897519,115.2352748,"Jl. Tukad Badung XIV no2 blok d, Renon, Denpasar Selatan, Kota Denpasar, Bali 80226, Indonesia",https://maps.google.com/?cid=14435675184312528845,OPERATIONAL,+62 813-3768-1445,indian_restaurant,"indian_restaurant, restaurant, food",4.5,337,
ChIJEWEu8HhB0i0RKjOwYfgIMAM,TOKO PLASTIK MEGAH JAYA,-8.6900613,115.23816289999999,"Jl. Tukad Badung No.129 C, Renon, Denpasar Selatan, Kota Denpasar, Bali 80226, Indonesia",https://maps.google.com/?cid=229693443879744298,OPERATIONAL,+62 823-6660-0069,,"hotel, lodging, restaurant, food, store",4.8,42,
ChIJKVwlX29B0i0RkMS7svBAci0,"Jalan Tukad Badung XVI Blok E No 28 , Renon ,Denpasar",-8.690214,115.23457700000002,"Jl. Tukad Citarum Gg. O No.77, Renon, Denpasar Selatan, Kota Denpasar, Bali 80226, Indonesia",https://maps.google.com/?cid=3274751281586750608,OPERATIONAL,+62 852-5670-9032,,lodging,4.5,8,
ChIJG4Cq7spB0i0RnJD9gqzhnEA,Gantangan Dua Jari,-8.6895625,115.2337125,"866M+5FG, Jl. Tukad Citarum Blok O VI, Dauh Puri Klod, Kec. Denpasar Bar., Kota Denpasar, Bali 80225, Indonesia",https://maps.google.com/?cid=4655844245842530460,OPERATIONAL,,park,"park, pet_store, store",4.6,16,
ChIJkQBMB6pB0i0RCDAD8bmAQi0,House of Made,-8.693705399999999,115.236228,"Jl. Tukad Badung XXB/B1 No.5, Renon, Denpasar Selatan, Denpasar City, Bali 80226, Indonesia",https://maps.google.com/?cid=3261310616270483464,OPERATIONAL,+62 812-3827-132,guest_house,"guest_house, lodging",4.6,70,
ChIJ6Zv811RA0i0RF01b0CoCJW8,OYO 3190 Pondok Putra Bersaudara,-8.688310999999999,115.2389827,"Jl. Tukad Badung XV No.10B, Renon, Denpasar Selatan, Kota Denpasar, Bali 80226, Indonesia",https://maps.google.com/?cid=8008809895255821591,OPERATIONAL,+62 21 29707601,hotel,"hotel, lodging",3.6,89,
ChIJPUIMBqtB0i0RRI2kxWwlJDQ,Kos Renon,-8.6909932,115.24001249999999,"Jl. Tukad Badung Tim. No.18A, Renon, Denpasar Selatan, Kota Denpasar, Bali 80226, Indonesia",https://maps.google.com/?cid=3757169138236427588,OPERATIONAL,+62 818-0800-0003,extended_stay_hotel,"extended_stay_hotel, hotel, hostel, lodging",4.6,58,
