id,name,latitude,longitude,address,url,status,phone,primary-type,types,rating,rating-count,price-level
ChIJq6oeku040i0Rxw-ueoe2LT4,Best Canggu Hostel,-8.630583099999999,115.15415329999999,"Bali Canggu, Jl. Kayu Tulang Perum Puri Sambandha No.A12, Canggu, Kec. Kuta Utara, Kabupaten Badung, Bali 82361, Indonesia",https://maps.google.com/?cid=4480437897298579399,OPERATIONAL,+62 877-3552-0032,hostel,"hostel, lodging",4.9,361,
ChIJIxY8sAk50i0RFjn4GCxYh70,PADI PADI CANGGU LUXURY ROOM & RESTAURANT by agora home,-8.628033000000002,115.15600979999999,"Jl. Subak Daksina Jl. Raya Babakan Canggu No.118, Tibubeneng, Kec. Kuta Utara, Kabupaten Badung, Bali 80361, Indonesia",https://maps.google.com/?cid=13656981341445044502,OPERATIONAL,+62 812-3956-703,private_guest_room,"private_guest_room, lodging",4.7,27,
ChIJudYBk_E40i0RkxuSwE-FnoM,Anita's,-8.6325107,115.1526821,"Jl. Pura Wates Canggu No.48, Babakan, Canggu, Kec. Kuta Utara, Kabupaten Badung, Bali 80361, Indonesia",https://maps.google.com/?cid=9484164442868554643,OPERATIONAL,,italian_restaurant,"italian_restaurant, indonesian_restaurant, restaurant, food",4.7,432,PRICE_LEVEL_INEXPENSIVE
ChIJQUS64ew40i0R3YGAzj1V40o,"PONDOK KEMBUNG ""Guest House""",-8.6325187,115.1566949,"Jl. Raya Padonan, Tibubeneng, Kec. Kuta Utara, Kabupaten Badung, Bali 80361, Indonesia",https://maps.google.com/?cid=5396250502465880541,OPERATIONAL,+62 819-9911-1716,hotel,"hotel, lodging",4.7,41,
ChIJ10p3-4A50i0RtS6st8vkKio,Odadi Guesthouse,-8.629746299999999,115.15868959999997,"Jl. Batan Celagi Gg. Sedana, Tibubeneng, Kec. Kuta Utara, Kabupaten Badung, Bali 80361, Indonesia",https://maps.google.com/?cid=3038492462225829557,OPERATIONAL,+62 819-9923-7393,lodging,lodging,4.8,10,
ChIJIVWRmns50i0RZcMhzJblj2s,Wahyu Guest House,-8.6294889,115.15848099999998,"95C5+695, Gg. Mangga 1, Tibubeneng, Kec. Kuta Utara, Kabupaten Badung, Bali 80361, Indonesia",https://maps.google.com/?cid=7750665919560532837,OPERATIONAL,,hotel,"hotel, lodging",4.5,38,
ChIJ53ybeNU50i0RHTFHQn5CYnY,KJ KLUMPU & MINUMOLOGI,-8.6298342,115.15519560000001,"Jl. Subak Daksina No.9, Tibubeneng, Kec. Kuta Utara, Kabupaten Badung, Bali 80361, Indonesia",https://maps.google.com/?cid=8530453754238415133,OPERATIONAL,+62 812-3816-5859,private_guest_room,"private_guest_room, lodging",4.8,26,
ChIJIWycMVs50i0RV4E05bRNKiw,Sangkala Coffee and Eatery,-8.6253865,115.1533858,"Jl. Raya Babakan Canggu No.74, Canggu, Kec. Kuta Utara, Kabupaten Badung, Bali 80351, Indonesia",https://maps.google.com/?cid=3182441526025552215,OPERATIONAL,+62 813-5300-4962,coffee_shop,"coffee_shop, cafe, restaurant, store, food",4.6,103,
ChIJXR7nd-440i0RBqq2XY-TaII,RICEFIELDRESTO,-8.628904,115.15548439999998,"Jl. Subak Daksina No.19, Tibubeneng, Kec. Kuta Utara, Kabupaten Badung, Bali 80361, Indonesia",https://maps.google.com/?cid=9396922866470398470,OPERATIONAL,+62 857-3876-5962,restaurant,"restaurant, food",4.5,67,
ChIJUTMbXgc50i0Ro0f8NwMpWqo,Rara Guest House,-8.6310869,115.1515472,"Jl. Pura Wates Canggu No.39, Canggu, Kec. Kuta Utara, Kabupaten Badung, Bali 80351, Indonesia",https://maps.google.com/?cid=12275168828152629155,OPERATIONAL,+62 819-3310-9191,hotel,"hotel, lodging",4.8,36,
ChIJoZfRqOk50i0RtEPjPPGu5uk,La Masia Canggu,-8.6274535,115.15570090000001,"Jl. Subak Daksina, Canggu, Kec. Kuta Utara, Kabupaten Badung, Bali 08820, Indonesia",https://maps.google.com/?cid=16854351006612538292,OPERATIONAL,+62 819-1610-0568,,lodging,4.1,16,
ChIJ5RiNgmo50i0R7Ufr2Js5kvc,Kubu Dauh Padonan guesthouse By SDM,-8.6307007,115.1586317,"Jl. Pangkung Pulu, Tibubeneng, Kec. Kuta Utara, Kabupaten Badung, Bali 80361, Indonesia",https://maps.google.com/?cid=17839384415489968109,OPERATIONAL,+62 818-0536-7924,bed_and_breakfast,"bed_and_breakfast, private_guest_room, lodging",4.6,7,
ChIJm0z1zW050i0RjaZHy4rgzxs,Rahma Guest House,-8.6299383,115.15277300000001,"Jl. Pura Wates Canggu No.26, Canggu, Kec. Kuta Utara, Kabupaten Badung, Bali 80351, Indonesia",https://maps.google.com/?cid=2004067245923739277,OPERATIONAL,+62 821-4647-4491,lodging,lodging,4.9,27,
ChIJWWzWJPI40i0RDlp_J9D0z-4,4Gadis Guest House,-8.629806,115.1512027,"Jl. Raya Babakan Canggu No.26, Canggu, Kec. Kuta Utara, Kabupaten Badung, Bali 80351, Indonesia",https://maps.google.com/?cid=17208241876058987022,OPERATIONAL,+62 813-3933-9043,private_guest_room,"private_guest_room, lodging",4.8,52,
ChIJ6-vy8lw50i0RWNV48Ty4LVU,Canggu Ricefield Guest House,-8.632156199999999,115.1555846,"Gg. Mangga Jl. Panggang No.100, Tibubeneng, Kec. Kuta Utara, Kabupaten Badung, Bali 80361, Indonesia",https://maps.google.com/?cid=6137764439064630616,OPERATIONAL,+62 821-4588-8853,guest_house,"guest_house, lodging",4.8,18,
ChIJbUOanPE40i0RGtzlK4tvXYk,Toraja Villa,-8.6288658,115.15078829999999,"Jl. Balai Subak No. 3, X Jl. Raya Babakan Canggu No.Br, Canggu, Kec. Kuta Utara, Kabupaten Badung, Bali 80361, Indonesia",https://maps.google.com/?cid=9898190199557839898,OPERATIONAL,+62 361 8445633,hotel,"hotel, lodging",4.6,70,
ChIJPW6E3XE50i0RVvPURguuDFc,Alam rooms,-8.6268655,115.1561504,"Jl. Subak Daksina No.1, Tibubeneng, Kec. Kuta Utara, Kabupaten Badung, Bali 80361, Indonesia",https://maps.google.com/?cid=6272579744476492630,OPERATIONAL,,guest_house,"guest_house, lodging",4.8,36,
ChIJZTFViPE40i0RUbZeta3O6Iw,Warung Pande Vegan,-8.629044799999999,115.15126710000001,"Jl. Raya Babakan Canggu No.49, Canggu, Kec. Kuta Utara, Kabupaten Badung, Bali 80351, Indonesia",https://maps.google.com/?cid=10153592605374330449,OPERATIONAL,+62 858-6114-8199,vegan_restaurant,"vegan_restaurant, vegetarian_restaurant, restaurant, food",4.7,150,
ChIJq6QHrhg50i0RJ8J3LNZwJSQ,House of Yoreh,-8.6297218,115.1511289,"Jl. Raya Babakan Canggu No.26, Canggu, Kec. Kuta Utara, Kabupaten Badung, Bali 80361, Indonesia",https://maps.google.com/?cid=2604612024675058215,OPERATIONAL,+62 823-4185-1618,cafe,"coffee_shop, cafe, jewelry_store, store, food",5,172,
ChIJjZrBrqM50i0RQslDwm59pEA,Villa Kuncara Canggu,-8.6310868,115.1554966,"Gg. Shinta, Canggu, Kec. Kuta Utara, Kabupaten Badung, Bali 80361, Indonesia",https://maps.google.com/?cid=4657985829267032386,OPERATIONAL,+62 811-3960-3131,,lodging,4.6,15,
