id,name,latitude,longitude,address,url,status,phone,primary-type,types,rating,rating-count,price-level
ChIJ1wNv748-0i0RW2b6A2ok7xs,Warung Rujak Lalah Manis,-8.579405699999999,115.22528859999998,"Sibang Gede, Abiansemal, Badung Regency, Bali 80352, Indonesia",https://maps.google.com/?cid=2012867596209776219,OPERATIONAL,+62 857-3728-0950,restaurant,"restaurant, indonesian_restaurant, food",4.6,88,PRICE_LEVEL_INEXPENSIVE
ChIJr2Y0urM_0i0RV6C3aHy0i78,Kolam pancing DOUBLE $,-8.579607400000002,115.225557,"Jl. Raya Angantaka - Sibang Gede, Sibang Gede, Kec. Abiansemal, Kabupaten Badung, Bali 80352, Indonesia",https://maps.google.com/?cid=13802323929432825943,OPERATIONAL,+62 819-9939-5777,amusement_center,"amusement_center, amusement_park",5,3,
ChIJW23jNo8-0i0Rze88vhVqB30,Warung Makan sate kelinci bali,-8.5796572,115.22887229999999,"Jl. Raya Angantaka - Sibang Gede, Sibang Gede, Kec. Abiansemal, Kabupaten Badung, Bali 80352, Indonesia",https://maps.google.com/?cid=9009286221196488653,OPERATIONAL,+62 878-6275-3099,indonesian_restaurant,"indonesian_restaurant, restaurant, food",4.2,26,
ChIJD5nroW0_0i0R18AmFReZFF4,Jero Tegeh Sibanggede,-8.580491199999999,115.2314886,"Jl. Raya Angantaka - Sibang Gede, Sibang Gede, Kec. Abiansemal, Kabupaten Badung, Bali 80352, Indonesia",https://maps.google.com/?cid=6779211663517597911,OPERATIONAL,+62 851-0095-4743,,lodging,4.8,6,
ChIJ31ncMYo_0i0RDhYO7yzUFAI,Wr Nasi Bubuh Men Kembung,-8.5795403,115.2306504,"Sibang Gede, Abiansemal, Badung Regency, Bali 80352, Indonesia",https://maps.google.com/?cid=149977977064396302,OPERATIONAL,+62 857-3839-2986,restaurant,"restaurant, food",2,1,
ChIJ6QqsQUo_0i0R1AcDhooImPU,Warung Himih Bali,-8.579621699999999,115.22551159999998,"Sibang Gede, Abiansemal, Badung Regency, Bali 80352, Indonesia",https://maps.google.com/?cid=17696904126799218644,CLOSED_TEMPORARILY,+62 878-6275-3099,restaurant,"restaurant, food",4.4,54,
ChIJAeOUaQA_0i0Rd5akgk4Vot8,lingga yoni,-8.5795345,115.2273468,"C6CG+5WQ blok D, Jl. Raya Angantaka - Sibang Gede, Sibang Gede, Kec. Abiansemal, Kabupaten Badung, Bali, Indonesia",https://maps.google.com/?cid=16114465843628512887,OPERATIONAL,,park,park,,,
