id,name,latitude,longitude,address,url,status,phone,primary-type,types,rating,rating-count,price-level
ChIJ-YldxNYV0i0RKPHCrk4GNY0,Masa Masa,-8.635653,115.29030599999999,"Jl. Subak Telaga I No.9, Ketewel, Kec. Sukawati, Kabupaten Gianyar, Bali 80582, Indonesia",https://maps.google.com/?cid=10175045868122730792,OPERATIONAL,+62 819-4630-5122,indonesian_restaurant,"indonesian_restaurant, restaurant, food",4.8,261,
ChIJj3hKQ_0_0i0RsYOqMxLz-Ts,Black Sands Coffee & Eatery,-8.6353236,115.28331270000001,"100 meter utara perempatan prof Mantra, Jl. Raya Ketewel No.8, Ketewel, Kec. Gianyar, Bali, 80582, Indonesia",https://maps.google.com/?cid=4321752576940475313,OPERATIONAL,,brunch_restaurant,"brunch_restaurant, breakfast_restaurant, restaurant, food",4.5,303,
ChIJqbovNFQV0i0RzplxTGDkrWA,Manyar Beach,-8.6410384,115.28698159999999,"Jl. Pantai Manyar, Ketewel, Kec. Sukawati, Kabupaten Gianyar, Bali 80582, Indonesia",https://maps.google.com/?cid=6966475300862532046,OPERATIONAL,+62 878-6243-9363,tourist_attraction,tourist_attraction,4.3,166,
ChIJV3eywOoV0i0RVB-JPkR9MOY,BALI DOLL HOUSE - MUSEUM BONEKA,-8.634414399999999,115.28972379999999,"Jl. Prof. Dr. Ida Bagus Mantra No.99, Ketewel, Kec. Sukawati, Kabupaten Gianyar, Bali, Indonesia",https://maps.google.com/?cid=16586895159665958740,OPERATIONAL,+62 821-4657-1347,amusement_center,"amusement_center, event_venue, park, museum, store, food",4.7,60,
ChIJqYUoWW4_0i0Roj_-NzEOgCc,ACK Fried Chicken Ketewel,-8.6365891,115.28319529999999,"977M+978, Jl. Prof. Dr. Ida Bagus Mantra, Ketewel, Kec. Sukawati, Kabupaten Gianyar, Bali 80582, Indonesia",https://maps.google.com/?cid=2846290569053749154,OPERATIONAL,+62 878-4354-1155,restaurant,"restaurant, food",4.4,115,
ChIJwYQzoCg_0i0RLZ2vAQJm1RM,Warung Lawar Kambing Pan Kobar,-8.6353569,115.2832718,"Jl. Raya Ketewel No.8, Ketewel, Kec. Sukawati, Kabupaten Gianyar, Bali 80582, Indonesia",https://maps.google.com/?cid=1429160615564254509,OPERATIONAL,+62 812-3667-6608,restaurant,"restaurant, food",5,13,
ChIJs3-LWjwV0i0Rmg20J38WdMM,Manggo House,-8.6335559,115.28846869999998,"978Q+H9G, Jl. Bypass Jl. Prof. Dr. Ida Bagus Mantra, Banjar Manyar, Kec. Sukawati, Kabupaten Gianyar, Bali 80582, Indonesia",https://maps.google.com/?cid=14083906670077152666,OPERATIONAL,+62 813-3133-3019,lodging,lodging,5,1,
ChIJhQMLINIV0i0RJCEy9HoKLr0,Warung Lalapan Cak Mario,-8.6362626,115.28511639999999,"977P+F2X, Jl. Prof. Dr. Ida Bagus Mantra, Ketewel, Kec. Sukawati, Kabupaten Gianyar, Bali 80582, Indonesia",https://maps.google.com/?cid=13631844645296283940,OPERATIONAL,+62 813-5334-3104,restaurant,"restaurant, food",4.3,278,
ChIJ8WSAC1cV0i0RD7ZpkYhcVAo,Lawar tewel,-8.6360611,115.28766569999999,"Jl. Prof. Dr. Ida Bagus Mantra No.111C, Ketewel, Kec. Sukawati, Kabupaten Gianyar, Bali, Indonesia",https://maps.google.com/?cid=744321580047906319,OPERATIONAL,+62 813-3825-4908,restaurant,"restaurant, food",3.8,17,
ChIJ_xncH2UV0i0RBtXb8-kOzOE,Pantai Catur Segara,-8.6385285,115.29045889999999,"976R+H5P, Jl. Pura Hyang Bukit, Ketewel, Kec. Sukawati, Kabupaten Gianyar, Bali, Indonesia",https://maps.google.com/?cid=16270395951764198662,OPERATIONAL,,tourist_attraction,tourist_attraction,4.6,10,
ChIJm7MH2lcV0i0RMovfQbK82xY,Kresna Art Gallery,-8.6370241,115.2841763,"Jl. Prof. Dr. Ida Bagus Mantra No.98, Ketewel, Kec. Sukawati, Kabupaten Gianyar, Bali 80582, Indonesia",https://maps.google.com/?cid=1647117562529418034,OPERATIONAL,+62 812-3991-053,art_gallery,art_gallery,4.6,71,
ChIJ_xIlAlM_0i0Rs7IkiNfOGbk,"Warung Ibu Mosin, Warung Nasi Lawar Babi Dan Ayam",-8.6346013,115.28347049999999,"978M+595, Jl. Raya Ketewel, Ketewel, Kec. Sukawati, Kabupaten Gianyar, Bali 80582, Indonesia",https://maps.google.com/?cid=13337919196531831475,OPERATIONAL,+62 812-3562-9888,indonesian_restaurant,"indonesian_restaurant, restaurant, food",4.9,17,
ChIJUW3P1PMV0i0RWXOzIyrchS0,Manggis Wanayu,-8.6373714,115.2894022,"Jl. Hyang Bukit Gg. Manggis No.1, Ketewel, Kec. Sukawati, Kabupaten Gianyar, Bali 80581, Indonesia",https://maps.google.com/?cid=3280269977154974553,OPERATIONAL,,guest_house,"guest_house, lodging",5,11,
ChIJ966HedU_0i0RtrF3ZYQ7-WM,Paon Ketewel,-8.6371289,115.2832135,"977M+47W, Jl. Prof. Dr. Ida Bagus Mantra, Ketewel, Kec. Sukawati, Kabupaten Gianyar, Bali, Indonesia",https://maps.google.com/?cid=7203854518779883958,OPERATIONAL,+62 817-9753-784,restaurant,"restaurant, food",3.4,14,
ChIJNVwnNoA_0i0R6k4pScKSQcY,Warung nasi lawar dk,-8.6354081,115.2830458,"977M+R6M, Jl. Prof. Dr. Ida Bagus Mantra, Ketewel, Kec. Sukawati, Kabupaten Gianyar, Bali 80582, Indonesia",https://maps.google.com/?cid=14285860856144678634,OPERATIONAL,+62 812-3848-7927,restaurant,"restaurant, food",5,6,
ChIJi82lCHUV0i0RkZM2uaiwuaU,Suarti beach Ketewel,-8.6412658,115.28620589999998,"975P+FFW, Jl. Nusa Indah, Ketewel, Kec. Sukawati, Kabupaten Gianyar, Bali, Indonesia",https://maps.google.com/?cid=11941770125657936785,OPERATIONAL,+62 813-3755-1455,lodging,lodging,4.8,5,
ChIJq357_Pw_0i0R4ZhS1HKKhwQ,Warung Ayam Betutu,-8.6366021,115.28262799999999,"Jl. Prof. Dr. Ida Bagus Mantra No.300, Ketewel, Kec. Sukawati, Kabupaten Gianyar, Bali 80582, Indonesia",https://maps.google.com/?cid=326381723800738017,OPERATIONAL,+62 821-4551-6423,indonesian_restaurant,"indonesian_restaurant, restaurant, food",4.5,6,
ChIJL4jM04U_0i0R96jnv-MmqF0,Jivva Koffie at Ketewel,-8.6345726,115.28327449999999,"Jl. Raya Ketewel, Ketewel, Kec. Sukawati, Kabupaten Gianyar, Bali 80582, Indonesia",https://maps.google.com/?cid=6748686801233750263,CLOSED_TEMPORARILY,+62 821-4594-8143,coffee_shop,"coffee_shop, cafe, store, food",4.7,21,
ChIJpVlY3O4V0i0RnpgmzvG6qPo,Pantai Hyang Bukit,-8.6366908,115.29132299999999,"977R+8CW, Jl. Pura Hyang Bukit, Ketewel, Kec. Sukawati, Kabupaten Gianyar, Bali, Indonesia",https://maps.google.com/?cid=18061891853277894814,OPERATIONAL,,tourist_attraction,tourist_attraction,,,
ChIJiS7NvhsV0i0RK2Z7hmnknl0,Warung Makan Bu Made,-8.6354355,115.2878099,"Jl. Raya Ketewel, Ketewel, Kec. Sukawati, Kabupaten Gianyar, Bali 80237, Indonesia",https://maps.google.com/?cid=6746080433726514731,OPERATIONAL,+62 812-4655-304,restaurant,"restaurant, food",3.3,4,
