id,name,latitude,longitude,address,url,status,phone,primary-type,types,rating,rating-count,price-level
ChIJ0YAz7-ud0S0Rny7iKh_0tlY,Pantai lokapaksa,-8.1833683,114.91922009999999,"RW89+FH4, Pantai, Lokapaksa, Kec. Seririt, Kabupaten Buleleng, Bali 81153, Indonesia",https://maps.google.com/?cid=6248449947723771551,OPERATIONAL,,tourist_attraction,tourist_attraction,4.4,8,
ChIJhRHwi0yd0S0R_WhY5aVRenY,Bali Sea Villas - North Bali,-8.1836175,114.9207228,"U3, Jl. Mawar, Lokapaksa, Kec. Seririt, Kabupaten Buleleng, Bali 81153, Indonesia",https://maps.google.com/?cid=8537225816593426685,OPERATIONAL,+62 821-4447-7110,travel_agency,"travel_agency, real_estate_agency, hotel, lodging",4.9,36,
ChIJY30_j0yd0S0RLt9JvTquKxk,Villa Rumah Senja,-8.1833335,114.92128310000001,"Blok, Jl. Mawar Blok U No.3, Lokapaksa, Seririt, Buleleng Regency, Bali 81153, Indonesia",https://maps.google.com/?cid=1813734842253827886,OPERATIONAL,,hotel,"hotel, lodging",4.8,17,
ChIJae-0dEud0S0RSTX1aXhqJ3g,Villa Samora,-8.183115400000002,114.9234863,"RW8F+Q95, Jl. Mawar, Lokapaksa, Kec. Seririt, Kabupaten Buleleng, Bali 81153, Indonesia",https://maps.google.com/?cid=8658005874049365321,OPERATIONAL,,lodging,lodging,5,2,
ChIJHeAldkud0S0RR-8dMc-lFLA,Villa Mawar,-8.1833016,114.9229384,"Blok U No., Jl. Mawar No.3, Lokapaksa, Kec. Seririt, Kabupaten Buleleng, Bali 81153, Indonesia",https://maps.google.com/?cid=12687948359510388551,OPERATIONAL,,lodging,lodging,5,9,
ChIJKYBW4_2d0S0R8E3HuS4a5No,Villa Terang Bulan,-8.1831791,114.92397529999998,"RW8F+PHH, Lokapaksa, Seririt, Buleleng Regency, Bali 81153, Indonesia",https://maps.google.com/?cid=15772760582945983984,OPERATIONAL,,hotel,"hotel, lodging",5,2,
ChIJZc0cnEud0S0RShJb6qbs7P0,Villa Nirwana,-8.1832782,114.92291220000001,"Jl. Mawar Blok U No.3, Lokapaksa, Kec. Seririt, Kabupaten Buleleng, Bali 81153, Indonesia",https://maps.google.com/?cid=18297259587740045898,OPERATIONAL,,,lodging,5,7,
ChIJAyH7VUqd0S0RDy2UeqMwdjY,villa mari masuk,-8.1828067,114.92532489999999,"Blok U No.3,,, Jl. Mawar, Lokapaksa, Kec. Seririt, Kabupaten Buleleng, Bali 81153, Indonesia",https://maps.google.com/?cid=3924377603994299663,OPERATIONAL,+31 6 51976544,lodging,lodging,4.8,9,
