id,name,latitude,longitude,address,url,status,phone,primary-type,types,rating,rating-count,price-level
ChIJr8Q0ahlb0i0RRF1B_1fZIF4,Roosterfish Beach Club,-8.8438231,115.18817209999997,"Jl. Pantai Pandawa, Kutuh, Kec. Kuta Sel., Kabupaten Badung, Bali 80361, Indonesia",https://maps.google.com/?cid=6782660010787822916,OPERATIONAL,+62 811-3940-3588,restaurant,"restaurant, food",4.5,1275,PRICE_LEVEL_MODERATE
ChIJJT0SQ2Nb0i0Rbi7tvah3x7w,Villa Latitude Bali,-8.843731199999999,115.1844393,"Karang Kembar Estate No. 1, Jalan Karang Putih, Desa Kutuh, Kutuh, Kec. Kuta Sel., Kabupaten Badung, Bali 80364, Indonesia",https://maps.google.com/?cid=13602972766120521326,OPERATIONAL,+62 878-6107-7713,,"wedding_venue, event_venue, lodging",4.5,425,
ChIJwa-rFYhb0i0RdmlgaAA68Ks,Pandawa Seaview,-8.8430584,115.1855205,"554P+Q64, Jl. Pantai Pandawa, Kutuh, Kec. Kuta Sel., Kabupaten Badung, Bali, Indonesia",https://maps.google.com/?cid=12389466348321794422,OPERATIONAL,+62 813-3842-0488,restaurant,"restaurant, food",4.6,132,
ChIJ_8oxDJtc0i0RWrINR93cl2Q,Private Villas of Bali - Villa Frangipani,-8.8418073,115.18945049999999,"Gapura Vista Residences Jalan Pura Melang Kelod, Bukit Pandawa Banjar Pantigiri, Kutuh, Kec. Kuta Sel., Kabupaten Badung, Bali 80361, Indonesia",https://maps.google.com/?cid=7248504968214065754,OPERATIONAL,+62 812-3957-7328,,lodging,4.5,59,
ChIJDSbEbWNb0i0RC4l0KMJekd4,Villa Karang Kembar 3,-8.8429248,115.18416999999998,"554M+RMM, Jl. Karang Kembar, Kutuh, Kec. Kuta Sel., Kabupaten Badung, Bali, Indonesia",https://maps.google.com/?cid=16037703936038439179,OPERATIONAL,,,lodging,4.5,54,
ChIJ6QVUXZ1c0i0R1tz_tb4d9eA,oka warung pandawa,-8.8430681,115.1897698,"Kutuh, South Kuta, Badung Regency, Bali 80361, Indonesia",https://maps.google.com/?cid=16209895138724404438,OPERATIONAL,+62 821-4644-5479,restaurant,"restaurant, food",4.4,74,
ChIJJZDBECxb0i0Rty5GhleJYmk,Karang Kembar 5,-8.8432167,115.1842922,"Jl. Karang Kembar No.5, Kutuh, Kec. Kuta Sel., Kabupaten Badung, Bali 80364, Indonesia",https://maps.google.com/?cid=7593782930707984055,OPERATIONAL,,hotel,"hotel, lodging",5,6,
ChIJrRpuHNZb0i0R8sdI3zKqEic,Teba Cafe Pandawa,-8.8445403,115.18632919999999,"Jl. Pantai Pandawa, Kutuh, Kec. Kuta Sel., Kabupaten Badung, Bali 80361, Indonesia",https://maps.google.com/?cid=2815499852531156978,OPERATIONAL,,seafood_restaurant,"seafood_restaurant, restaurant, food",4.7,12,
ChIJT6TD7GNb0i0RNetaUl17Zss,Pandawa Breeze,-8.844608599999999,115.18793019999998,"554Q+553, Jl. Pantai Pandawa, Kutuh, Kec. Kuta Sel., Kabupaten Badung, Bali 80361, Indonesia",https://maps.google.com/?cid=14656537678067723061,OPERATIONAL,+62 813-3833-5659,restaurant,"restaurant, bar, food",4.5,52,
ChIJfWCDmZ1c0i0R3ZhqEveM-FI,Villa Amita,-8.8412473,115.19006780000001,"Gapura Vista, Jl Pura Melang Kelod, Banjar Pantigiri, Kutuh, Nusa Dua, Kabupaten Badung, Bali 80362, Indonesia",https://maps.google.com/?cid=5978683498128120029,OPERATIONAL,+62 821-4585-7677,,lodging,3.8,23,
ChIJ1YW1_SBd0i0RH8g4zueWiOk,LG SURF LESSON,-8.8430485,115.19014799999998,"554R+Q52 Sri Suharso Ahe Beach, Kutuh, Kec. Kuta Sel., Kabupaten Badung, Bali, Indonesia",https://maps.google.com/?cid=16827865930011297823,OPERATIONAL,+62 813-3746-9356,tourist_attraction,tourist_attraction,4.8,4,
ChIJe0hPP5xb0i0Rjn-1QAq5iPk,Pandawa beach cafe feat. ST World,-8.8448911,115.18768139999999,"Jl. Pantai Pandawa, Kutuh, Kec. Kuta Sel., Kabupaten Badung, Bali, Indonesia",https://maps.google.com/?cid=17980824965963153294,OPERATIONAL,,restaurant,"restaurant, food",4,34,
ChIJ_XkENQ9b0i0RocN1vyUhCSg,Pandawa Lighthouse,-8.844390599999999,115.18749810000001,"554P+6XX, Kutuh, South Kuta, Badung Regency, Bali, Indonesia",https://maps.google.com/?cid=2884873482317185953,OPERATIONAL,,tourist_attraction,tourist_attraction,4.8,4,
ChIJoW-FX3tb0i0RswZrEuxU3dg,Karang Kembar Estate - Villa 2,-8.8429628,115.1844122,"Jl. Karang Kembar No.2, Banjar Jabapura, Kutuh, Kec. Kuta, Kabupaten Badung, Bali 80364, Indonesia",https://maps.google.com/?cid=15626739654943508147,OPERATIONAL,+62 361 769071,lodging,lodging,4.5,59,
ChIJVVQUWZ5d0i0RJmxyMyn9-sQ,Villa Damai Gapura Vista,-8.8413003,115.1894476,"555Q+FQG, Kutuh, South Kuta, Badung Regency, Bali, Indonesia",https://maps.google.com/?cid=14193935529010162726,OPERATIONAL,+62 361 8468517,lodging,lodging,4.8,5,
ChIJSQ8YMNJd0i0RWiWTyKdxqJ0,Warung Karisma (Warung Mek Derti Pandawa),-8.8430228,115.18977160000001,"Pantai Pandawa (Daerah Kiri), Sebelah kiri Roosterfish Beach Club, Kutuh, Kec. Kuta Sel., Kabupaten Badung, Bali 80361, Indonesia",https://maps.google.com/?cid=11360455025480639834,OPERATIONAL,+62 853-3338-1941,indonesian_restaurant,"indonesian_restaurant, restaurant, food",4.8,5,
ChIJizjFXZ1c0i0Rr9xY_pjh0Jk,Warung Bu Oren,-8.8431596,115.18933429999998,"554Q+PPP, Jl. Pantai Pandawa, Kutuh, Kec. Kuta Sel., Kabupaten Badung, Bali 80361, Indonesia",https://maps.google.com/?cid=11083606730177305775,OPERATIONAL,+62 822-3775-3914,indonesian_restaurant,"indonesian_restaurant, restaurant, food",5,2,
ChIJk4pTNn1b0i0RLmvO3XugaBI,MR Dim Sum Bali,-8.844939799999999,115.187272,"554P+2WC, Kutuh, South Kuta, Badung Regency, Bali, Indonesia",https://maps.google.com/?cid=1326486544123325230,OPERATIONAL,+62 821-4454-7730,indonesian_restaurant,"chinese_restaurant, indonesian_restaurant, restaurant, food",4.7,3,
ChIJYZ8Qe0Bd0i0RF6z33P5MU5Q,Villa,-8.8408784,115.1894533,"555Q+FQG, Kutuh, South Kuta, Badung Regency, Bali, Indonesia",https://maps.google.com/?cid=10687970998192942103,OPERATIONAL,,,lodging,,,
ChIJlbSjXZ1c0i0RWI0c6qqDDY8,Blue Fin Warung,-8.8431452,115.1894417,"554Q+PQW, Jl. Pantai Pandawa, Kutuh, Kec. Kuta Sel., Kabupaten Badung, Bali 80316, Indonesia",https://maps.google.com/?cid=10308039892216352088,OPERATIONAL,+62 853-3963-4843,restaurant,"restaurant, food",3.5,2,
