id,name,latitude,longitude,address,url,status,phone,primary-type,types,rating,rating-count,price-level
ChIJXXzgiDib0S0RDtwXbcH1Gss,Home villa,-8.170904,115.02885299999998,"Unnamed Road, Kaliasem, Banjar, Buleleng Regency, Bali 81152, Indonesia",https://maps.google.com/?cid=14635280150201621518,OPERATIONAL,+62 822-3535-4223,,"private_guest_room, lodging",4.9,47,
ChIJgQZWODWb0S0RQM_iM8C5Wyw,Villa lilly,-8.178065799999999,115.02451730000001,"R2CF+QRC, Kaliasem, Banjar, Buleleng Regency, Bali 81152, Indonesia",https://maps.google.com/?cid=3196352595704860480,OPERATIONAL,,hotel,"hotel, lodging",4.4,19,
ChIJSdr61jSb0S0R_6V0Hj566MA,Star View Villa,-8.1783074,115.0260676,"R2CG+MCG, Kaliasem, Banjar, Buleleng Regency, Bali 81152, Indonesia",https://maps.google.com/?cid=13900494657096558079,OPERATIONAL,+62 813-3791-3116,hotel,"hotel, lodging",4.9,15,
ChIJ5fYYlEeb0S0RyQDFkycq30A,Kubu Kusuma Guest House Lovina,-8.1748265,115.02642150000001,"Jl. A.A. Pandji Tisna, Kaliasem, Kec. Banjar, Kabupaten Buleleng, Bali 81152, Indonesia",https://maps.google.com/?cid=4674501287705116873,OPERATIONAL,+62 878-6079-8471,bed_and_breakfast,"bed_and_breakfast, guest_house, lodging",4.3,26,
ChIJwSgdAhCb0S0RDDexmCYpcmI,Gereja Anak Agung Panji Tisna,-8.176656699999999,115.0314702,"R2FJ+8HQ, Kayu Putih, Sukasada, Buleleng Regency, Bali 81152, Indonesia",https://maps.google.com/?cid=7093777608809199372,OPERATIONAL,,tourist_attraction,tourist_attraction,5,2,
ChIJMVcHuaWb0S0RWVkXSKuujG0,"Kedai "" HONEY DEW """,-8.1750217,115.02561019999999,"R2FG+X6X, Jl. A.A. Pandji Tisna, Kaliasem, Kec. Banjar, Kabupaten Buleleng, Bali 81152, Indonesia",https://maps.google.com/?cid=7893876297545767257,OPERATIONAL,,breakfast_restaurant,"breakfast_restaurant, restaurant, food",4.6,16,
ChIJWUpEQDab0S0R_xXVuu6Ipzc,Warung Dewi,-8.1724681,115.0244568,"R2HF+2Q8, Jl. AA Pandji Tisna, Kaliasem, Kec. Banjar, Kabupaten Buleleng, Bali 81152, Indonesia",https://maps.google.com/?cid=4010324552114836991,OPERATIONAL,+62 859-5531-4500,restaurant,"restaurant, food",5,1,
ChIJxyvPwDeb0S0R83ZS9MqZkGg,Rasta construction,-8.174113,115.028094,"Unnamed Road, R2GH+965, Kaliasem, Kec. Banjar, Kabupaten Buleleng, Bali 81152, Indonesia",https://maps.google.com/?cid=7534691273552328435,OPERATIONAL,,bar,bar,,,
ChIJ0dRz1xCb0S0RDZkzni8e8L4,SEA Buleleng,-8.173870899999999,115.02681199999998,"R2GG+FP3, Kaliasem, Banjar, Buleleng Regency, Bali 81152, Indonesia",https://maps.google.com/?cid=13758530051483343117,CLOSED_TEMPORARILY,,lodging,lodging,,,
ChIJY4csMDSb0S0RhWDV8rIurlU,Warung Mak Neo,-8.1748265,115.02642150000001,"Jln Panji Tisna, R2GG+3H7, lebah, Kaliasem, Kec. Banjar, Kabupaten Buleleng, Bali 81152, Indonesia",https://maps.google.com/?cid=6173923485284655237,OPERATIONAL,,restaurant,"restaurant, food",5,1,
ChIJPwmb_uub0S0RwX74S8wPFJY,WHITE CAFE,-8.1738841,115.02597139999999,"KALIASEM, PERUM TAMAN LOTUS, Jl. A.A. Pandji Tisna BLOK A-1, Kaliasem, Kec. Banjar, Kabupaten Buleleng, Bali 81152, Indonesia",https://maps.google.com/?cid=10814285975345725121,CLOSED_TEMPORARILY,+62 819-1698-1262,restaurant,"restaurant, food",4.9,44,
ChIJ86csUnub0S0Ra2vPP4pJcl0,W@&@lo Warung @badi @badi londry,-8.1779253,115.02849800000001,"R2CH+R9H, Jl. A.A. Pandji Tisna, Kaliasem, Kec. Banjar, Kabupaten Buleleng, Bali 81152, Indonesia",https://maps.google.com/?cid=6733525250997185387,OPERATIONAL,,coffee_shop,"coffee_shop, cafe, food, store",5,1,
ChIJR7ucYLSb0S0RFMIVTnP7A7g,AnggaMahendra,-8.1716965,115.02594990000001,"Unnamed Road, R2HG+89G, Kaliasem, Kec. Banjar, Kabupaten Buleleng, Bali 81152, Indonesia",https://maps.google.com/?cid=13259718200558731796,OPERATIONAL,+62 831-1564-7785,lodging,lodging,,,
ChIJ3WrqCHab0S0R_bhRg8dFE9k,Purnama,-8.174113,115.028094,"Unnamed Road, R2GH+965, Kaliasem, Kec. Banjar, Kabupaten Buleleng, Bali 81152, Indonesia",https://maps.google.com/?cid=15641922653991844093,OPERATIONAL,,private_guest_room,"private_guest_room, lodging",,,
ChIJ88iQADWb0S0RLXO5mt1QR-k,Belvilla 93727 Amabela Villa,-8.176309999999999,115.025587,"Kaliasem, R2FG+F6G, Kabupaten, Banjar, Buleleng Regency, Bali 81152, Indonesia",https://maps.google.com/?cid=16809493046897505069,OPERATIONAL,+62 817-788-016,hotel,"hotel, lodging",,,
ChIJ-bkbXACb0S0ROv7aJsmX_Sg,WR Krama Bali,-8.172346,115.02439489999999,"R2HF+3PQ, Jl. A.A. Pandji Tisna, Kaliasem, Kec. Banjar, Kabupaten Buleleng, Bali 81152, Indonesia",https://maps.google.com/?cid=2953683820821020218,OPERATIONAL,,indonesian_restaurant,"indonesian_restaurant, restaurant, food",,,
ChIJAS_i7Ieb0S0R2uMiVHpwKjI,Darbe corner singaraja,-8.1722775,115.0243452,"R2HF+3PQ, Jl. A.A. Pandji Tisna, Kaliasem, Kec. Banjar, Kabupaten Buleleng, Bali 81152, Indonesia",https://maps.google.com/?cid=3614825321618138074,CLOSED_TEMPORARILY,,restaurant,"restaurant, food",,,
ChIJhd4CeACb0S0RS47D--2ZO7w,Fendal central lovina,-8.1720196,115.0243037,"R2HC+XR5, Jl. A.A. Pandji Tisna, Kaliasem, Kec. Banjar, Kabupaten Buleleng, Bali 81152, Indonesia",https://maps.google.com/?cid=13563603950166576715,OPERATIONAL,,private_guest_room,"private_guest_room, lodging",,,
