id,name,latitude,longitude,address,url,status,phone,primary-type,types,rating,rating-count,price-level
ChIJXUaIVGcR0i0RiQVrqiCd-pM,Bakso Babi Pak Talen,-8.5529923,115.39909109999999,"C9WX+RJ4, Jl. Raya Tojan, Tojan, Kec. Klungkung, Kabupaten Klungkung, Bali 80716, Indonesia",https://maps.google.com/?cid=10663007831376725385,OPERATIONAL,+62 821-4606-5600,indonesian_restaurant,"indonesian_restaurant, restaurant, food",4.6,251,
ChIJtw4h0ccR0i0Rby3O2dqLwGE,Warung made pizza,-8.552696,115.40215649999999,"Jl. Raya Takmung, Tojan, Kec. Klungkung, Kabupaten Klungkung, Bali 80716, Indonesia",https://maps.google.com/?cid=7043783589280755055,OPERATIONAL,+62 859-3612-6886,pizza_restaurant,"pizza_restaurant, restaurant, food",4.8,55,
ChIJOclneKcR0i0RUg0STJQ0bqM,Klotok Surf Shack,-8.552967299999999,115.3974073,"Jl. Sedap Malam No.3 Banjar Uma Lemek, Kemoning, Kec. Klungkung, Kabupaten Klungkung, Bali 80716, Indonesia",https://maps.google.com/?cid=11776407887156481362,OPERATIONAL,,,lodging,5,1,
ChIJN96O1w0R0i0RdctNuDS7N0M,Dapur Moeda,-8.548713099999999,115.40053119999997,"Satra, Klungkung, Klungkung Regency, Bali 80716, Indonesia",https://maps.google.com/?cid=4843545759365057397,CLOSED_TEMPORARILY,+62 812-4676-7183,restaurant,"restaurant, food",5,6,
ChIJOfYEZWcR0i0RQWTWze_wJLM,Kediaman Bintana (Bali Semara),-8.549306399999999,115.4028569,"Jl. Puputan No.121, Tojan, Kec. Klungkung, Kabupaten Klungkung, Bali 80716, Indonesia",https://maps.google.com/?cid=12908707344691913793,OPERATIONAL,,car_rental,car_rental,3.9,7,
ChIJxeov474R0i0RwYU1hXC-TCM,SOGLO HOUSE,-8.5479136,115.4009009,"FC22+R9J, banjar jelantik mamoran, Satra, Kec. Klungkung, Kabupaten Klungkung, Bali 80716, Indonesia",https://maps.google.com/?cid=2543617280037979585,CLOSED_TEMPORARILY,,lodging,lodging,5,2,
ChIJl19nJ6sR0i0RCYZUah8aJSY,Nasi Goreng,-8.552378,115.39690399999999,"Jl. Matahari No.108X, Satra, Kec. Klungkung, Kabupaten Klungkung, Bali 80716, Indonesia",https://maps.google.com/?cid=2748631869809788425,OPERATIONAL,,restaurant,"restaurant, food",,,
ChIJ-7alboYR0i0RyJwDdrc6Avo,Perumahan Srinadi Permai,-8.5508565,115.39961600000001,"C9XX+MR5, Satra, Klungkung, Klungkung Regency, Bali 80716, Indonesia",https://maps.google.com/?cid=18015026019068779720,OPERATIONAL,,lodging,lodging,5,2,
ChIJ3Yhcr10R0i0RCmz3er2KQVg,Warung Bu Dewi,-8.5490745,115.40010689999998,"FC22+92H, Jl. Kenyeri, Satra, Kec. Klungkung, Kabupaten Klungkung, Bali 80716, Indonesia",https://maps.google.com/?cid=6359516695240338442,OPERATIONAL,,restaurant,"restaurant, food",5,4,
ChIJ0ekrRhYR0i0RQKjx0KVTc6A,BABi guling alexa,-8.5497148,115.3999431,"Jl. Kenyeri, Satra, Kec. Klungkung, Kabupaten Klungkung, Bali 80714, Indonesia",https://maps.google.com/?cid=11561676640030402624,OPERATIONAL,+62 859-0441-0684,restaurant,"restaurant, food",5,3,
ChIJY4zJ4kIR0i0RCZJeZFwfJ5E,Warung Sansan,-8.5477489,115.40014629999999,"FC22+W32, Jl. Kenyeri, Satra, Kec. Klungkung, Kabupaten Klungkung, Bali 80716, Indonesia",https://maps.google.com/?cid=10459363141272637961,OPERATIONAL,+62 831-1410-6298,restaurant,"restaurant, food",4.6,7,
ChIJwS7oJF0R0i0RS8Xv_4Xl5xY,Warung Nasi Soto Ayam Ibu Dewi,-8.547071500000001,115.39985630000001,"F93X+5WH, Jl. Kenyeri, Satra, Kec. Klungkung, Kabupaten Klungkung, Bali 80716, Indonesia",https://maps.google.com/?cid=1650540152141890891,OPERATIONAL,+62 853-3828-8656,indonesian_restaurant,"indonesian_restaurant, restaurant, food",4.8,4,
ChIJ4ckb-KoR0i0RTu6KL45sIwI,PAONBAR warung food & drink,-8.547513,115.398563,"Jl. Matahari IV, Satra, Kec. Klungkung, Kabupaten Klungkung, Bali 80716, Indonesia",https://maps.google.com/?cid=154086170199518798,OPERATIONAL,,restaurant,"restaurant, food",4,2,
ChIJXbVMFQMR0i0RAx5Jxnrb0i4,Warung Segarasari,-8.5487168,115.40162839999999,"Jl. Kenyeri XIV, Jelantik, Kuribatu, Kabupaten Klungkung, Bali 80716, Indonesia",https://maps.google.com/?cid=3374000391213096451,OPERATIONAL,+62 857-3809-2373,grocery_store,"grocery_store, fast_food_restaurant, hamburger_restaurant, american_restaurant, restaurant, food, store",5,1,
ChIJA1KVP14R0i0RYkDq0cUHMXE,Warung Banyuwangi Bu Mantra-Gel Gel,-8.552528299999999,115.4008769,"CCW2+X9J, Jl. Kenyeri, Satra, Kec. Klungkung, Kabupaten Klungkung, Bali 80716, Indonesia",https://maps.google.com/?cid=8156308946356420706,OPERATIONAL,+62 823-3927-4218,indonesian_restaurant,"indonesian_restaurant, restaurant, food",4.4,7,
ChIJ659nhWcR0i0RuCjoqBELOtw,Warung Tanox,-8.547896,115.40299859999998,"FC23+R5X, Jl. Puputan, Semarapura Kangin, Kec. Klungkung, Kabupaten Klungkung, Bali 80716, Indonesia",https://maps.google.com/?cid=15869008407469500600,OPERATIONAL,+62 878-6171-4725,indonesian_restaurant,"indonesian_restaurant, restaurant, food",4.9,8,
ChIJsQve2F0R0i0RbDGC5x0g5x4,Warung Pak Kumis Lumajang,-8.551067999999999,115.40023869999999,"CCX2+H3H, Jl. Kenyeri, Satra, Kec. Klungkung, Kabupaten Klungkung, Bali 80716, Indonesia",https://maps.google.com/?cid=2226783853568209260,OPERATIONAL,+62 878-6225-0404,restaurant,"restaurant, food",4.5,2,
ChIJP-DCdNoR0i0RkTeKoTF8UgA,MINI BAR BROTHER WALKER,-8.5500162,115.39767870000001,"C9XX+X3V, Jl. Matahari, Satra, Kec. Klungkung, Kabupaten Klungkung, Bali 80716, Indonesia",https://maps.google.com/?cid=23217500695705489,CLOSED_TEMPORARILY,+62 857-3960-2274,bar,bar,5,1,
ChIJtZ9VVl0R0i0RBG_ISBaxED0,Warung Makan JAGARAGA,-8.5467013,115.40048840000001,"FC32+859, Jl. Kenyeri IX, Semarapura Kelod, Kec. Klungkung, Kabupaten Klungkung, Bali 80716, Indonesia",https://maps.google.com/?cid=4400211545209466628,OPERATIONAL,+62 817-4719-465,indonesian_restaurant,"indonesian_restaurant, restaurant, food",,,
ChIJ2fSq2sQR0i0Rrq9GBH7ea0s,Warung Pak Mangku Sunartha,-8.552519199999999,115.3976743,"Jl. Matahari No.108, Satra, Kec. Klungkung, Kabupaten Klungkung, Bali 80716, Indonesia",https://maps.google.com/?cid=5434682008171622318,OPERATIONAL,,coffee_shop,"coffee_shop, cafe, food, store",,,
