id,name,latitude,longitude,address,url,status,phone,primary-type,types,rating,rating-count,price-level
ChIJZdstgcIH0i0RPz-XMdp518s,Rumah Wila,-8.4324449,115.621034,"HJ8C+VC3, Jl. Sersan Mayor Gejer, Tegallinggah, Kec. Karangasem, Kabupaten Karangasem, Bali 80811, Indonesia",https://maps.google.com/?cid=14688342687733989183,OPERATIONAL,,private_guest_room,"private_guest_room, lodging",5,5,
ChIJoR6ONiMH0i0RcaE-qoB_ujA,NOX BGLN CLUB,-8.4328179,115.6223213,"HJ8C+VWG, Jl. Sersan Mayor Gejer, Tegallinggah, Kec. Karangasem, Kabupaten Karangasem, Bali 80811, Indonesia",https://maps.google.com/?cid=3511259050077495665,OPERATIONAL,,night_club,night_club,,,
ChIJVfa0A8oH0i0R6sDhcGRGyug,Batutua,-8.434388,115.62378849999999,"HJ8F+6GV, Tegallinggah, Karangasem, Karangasem Regency, Bali, Indonesia",https://maps.google.com/?cid=16774297159299350762,OPERATIONAL,,historical_landmark,historical_landmark,,,
ChIJgdsu_VQH0i0RKeCo0z-QaYQ,DC Dimell,-8.4312558,115.62287319999999,"HJ9F+F4X, Tegallinggah, Karangasem, Karangasem Regency, Bali, Indonesia",https://maps.google.com/?cid=9541315889369505833,OPERATIONAL,,park,park,,,
ChIJWxqXegAH0i0ROZL4O0bsDBs,Banjar adat balepunduk kelod,-8.430974899999999,115.62300119999999,"HJ9F+J66, Tegallinggah, Karangasem, Karangasem Regency, Bali, Indonesia",https://maps.google.com/?cid=1949192525142594105,OPERATIONAL,,tourist_attraction,tourist_attraction,,,
ChIJqdnUC7IH0i0R1chdiMfXIYI,Villa Rejeng,-8.4303534,115.6202244,"HJ9C+V35, Tegallinggah, Karangasem, Karangasem Regency, Bali 80811, Indonesia",https://maps.google.com/?cid=9377013151148394709,OPERATIONAL,,cafe,"cafe, food",4.5,6,
ChIJ3S29_kMH0i0Rh0fUo_948A0,Pondok Boga Bounty,-8.4317314,115.62631139999999,"HJ9G+8G3, Bukit, Karangasem, Karangasem Regency, Bali 80811, Indonesia",https://maps.google.com/?cid=1004435756264212359,OPERATIONAL,+62 877-6269-0579,,lodging,3.7,3,
