id,name,latitude,longitude,address,url,status,phone,primary-type,types,rating,rating-count,price-level
ChIJn1cUkUYj0i0Rwg2vEywqXBY,Horison Ume Suites & Villas Ubud,-8.472937,115.26316309999999,"Jalan Banjar Kelabang Moding, Tegallalang, Kec. Tegallalang, Kabupaten Gianyar, Bali 80561, Indonesia",https://maps.google.com/?cid=1611209135488961986,OPERATIONAL,+62 878-8811-9947,resort_hotel,"resort_hotel, hotel, lodging",4.6,120,
ChIJy6pXSLki0i0R8JtrBFpjSLE,Bidadari Private Villas & Retreat,-8.4703304,115.2642992,"Jl. Raya, Kelabang Moding, Tegallalang, Kec. Tegallalang, Kabupaten Gianyar, Bali 80571, Indonesia",https://maps.google.com/?cid=12774569581308779504,OPERATIONAL,+62 361 9000401,resort_hotel,"resort_hotel, hotel, lodging",4.7,272,
ChIJibfnsL4i0i0RRAzNBpYpDHA,Alam Dania Cottage,-8.4704972,115.2647959,"Kelabang Moding No.168, Tegallalang, Kecamatan Ubud, Kabupaten Gianyar, Bali 80571, Indonesia",https://maps.google.com/?cid=8073873956304391236,OPERATIONAL,+62 361 9000465,cottage,"cottage, lodging",4.7,145,
ChIJXdFXyacj0i0RLAEdSvci-rk,Santosha Place,-8.473010799999999,115.2642021,"Road, Kelabang Moding, Tegallalang, Kec. Tegallalang, Kabupaten Gianyar, Bali 80571, Indonesia",https://maps.google.com/?cid=13401062086690013484,OPERATIONAL,+62 852-3733-6026,,lodging,4.7,71,
ChIJ_3HF-Ogj0i0RAo4f25EMhnE,Jinengku Day Club,-8.4729634,115.262873,"Jl. Raya Kelabang Moding No.Br, Tegallalang, Kec. Tegallalang, Kabupaten Gianyar, Bali 80561, Indonesia",https://maps.google.com/?cid=8180239593751154178,OPERATIONAL,+62 878-8811-9947,restaurant,"restaurant, food",4.5,73,
ChIJb9H8yb4i0i0RRvZzsuKaYMw,Ayu Duwur Beji,-8.4696268,115.26486949999999,"Jl, Kelabang Moding, Tegallalang, Kecamatan Ubud, Kabupaten Gianyar, Bali 80571, Indonesia",https://maps.google.com/?cid=14726941079948752454,OPERATIONAL,+62 877-6158-5173,,"hotel, lodging",4.6,94,
ChIJlaZW5jUj0i0RMD2Ay0kiKN8,Ditha guest house,-8.472227,115.2635011,"Jln Kelabang Moding, Ubud, Kec. Tegallalang, Kabupaten Gianyar, Bali 80571, Indonesia",https://maps.google.com/?cid=16080140169868492080,OPERATIONAL,+62 895-0915-1138,hotel,"hotel, lodging",4.7,23,
ChIJpVEOqMgj0i0RWiPhH6Cl0hE,The Iyang Ubud,-8.471395300000001,115.26437250000001,"G7H7+CPX, Tegallalang, Gianyar Regency, Bali 80571, Indonesia",https://maps.google.com/?cid=1284270950902211418,OPERATIONAL,+62 877-5342-0760,,lodging,4.8,36,
ChIJYZyxADwj0i0RdnC7nzHFQmU,The Alus Cottage & private villa,-8.4729384,115.26382760000001,"Br, Kelabang Moding, Tegallalang, Kec. Tegallalang, Kabupaten Gianyar, Bali 80561, Indonesia",https://maps.google.com/?cid=7296611163217555574,OPERATIONAL,+62 818-0566-1561,,lodging,4.5,61,
ChIJR4ZRuL4i0i0RfX_QjJCIyOM,Kimaya Retreats,-8.4691383,115.2646509,"G7J7+8VR, Kelabang Moding, Tegallalang, Kecamatan Ubud, Kabupaten Gianyar, Bali 80571, Indonesia",https://maps.google.com/?cid=16413518996370915197,OPERATIONAL,,hotel,"hotel, lodging",4.9,22,
ChIJfWSsCKAj0i0R3aYoFKpsvFU,Happy Warung,-8.4748577,115.2638491,"G7G7+3G5 happy warung, Tegallalang, Kec. Tegallalang, Kabupaten Gianyar, Bali 80571, Indonesia",https://maps.google.com/?cid=6177932266583926493,OPERATIONAL,+62 21 03687536,restaurant,"restaurant, food",4.9,130,PRICE_LEVEL_INEXPENSIVE
ChIJIzxh1Lki0i0R0MdEm0rx--Y,Secluded Jungle Villa,-8.474931999999999,115.263646,"G7G7+2FC, Tegallalang, Gianyar Regency, Bali 80571, Indonesia",https://maps.google.com/?cid=16644162150612649936,OPERATIONAL,+62 812-3901-957,hotel,"hotel, lodging",4.8,43,
ChIJY0JFqaoj0i0RPhycelEARG0,Ayis House,-8.4699876,115.26521160000001,"Kelabang Moding No.168, Tegallalang, Kecamatan Ubud, Kabupaten Gianyar, Bali 80571, Indonesia",https://maps.google.com/?cid=7873418398499871806,OPERATIONAL,,hostel,"hostel, lodging",5,6,
ChIJmSfEsLki0i0RZ2PqTLCwyv0,warung JB Jambangan Bali,-8.4705097,115.2647079,"Jln Kelabang Moding No.713, Tegallalang, Kecamatan Ubud, Kabupaten Gianyar, Bali 80571, Indonesia",https://maps.google.com/?cid=18287623508142482279,OPERATIONAL,+62 813-3834-4388,restaurant,"restaurant, indonesian_restaurant, food",4.7,181,
ChIJvfW7oJgj0i0RyAbTrVkMWZE,Aix Cottage Ubud,-8.4715466,115.26433209999999,"Kelabang Moding No.16, Tegallalang, Kecamatan Ubud, Kabupaten Gianyar, Bali 80571, Indonesia",https://maps.google.com/?cid=10473415987734709960,OPERATIONAL,+62 831-1969-2893,,"hotel, lodging",4.9,38,
ChIJJzr8bZ4j0i0R7QNeovgUoy8,Sebali-Bali,-8.4746817,115.26007489999999,"G7G6+42G, Jl. Mawar, Keliki, Kec. Tegallalang, Kabupaten Gianyar, Bali 80571, Indonesia",https://maps.google.com/?cid=3432610399094965229,OPERATIONAL,+62 877-6156-3745,lodging,lodging,3.8,8,
ChIJCa6ZWr8j0i0RSFDRgvMWvXc,Adiguna Ubud Villa,-8.4733767,115.26368549999998,"G7G7+JFV, Tegallalang, Gianyar Regency, Bali 80571, Indonesia",https://maps.google.com/?cid=8628077696239358024,OPERATIONAL,,hotel,"hotel, lodging",5,11,
ChIJD5BpmA0j0i0Rk2h2cxqaacs,The Oding House,-8.470915,115.26466260000001,"Jl, Kelabang Moding, Tegallalang, Kecamatan Ubud, Kabupaten Gianyar, Bali 80571, Indonesia",https://maps.google.com/?cid=14657415900650956947,OPERATIONAL,+62 858-5834-9431,,lodging,4.7,35,
ChIJ92ciRmkj0i0RjBEjiu3_O2c,Ume Coffee & Dining,-8.4728198,115.26388700000001,"l. Raya, Kelabang Moding No.Br, Tegallalang, Kec. Tegallalang, Kabupaten Gianyar, Bali 80561, Indonesia",https://maps.google.com/?cid=7438820605222392204,OPERATIONAL,+62 819-9977-7642,restaurant,"restaurant, food",4.8,68,
ChIJ5dNGeeYj0i0R65uvMfauz0M,Widi's House,-8.4736957,115.26366110000001,"Jl, Kelabang Moding, Tegallalang, Kecamatan Ubud, Kabupaten Gianyar, Bali 80571, Indonesia",https://maps.google.com/?cid=4886316493139057643,OPERATIONAL,+62 812-4655-9918,private_guest_room,"private_guest_room, lodging",4.8,29,
