id,name,latitude,longitude,address,url,status,phone,primary-type,types,rating,rating-count,price-level
ChIJl8nGkDdx0i0RwsfZ0AUen5Y,warung kak alus,-8.7368995,115.51787240000002,"7G79+64X, Klumpu, Nusa Penida, Klungkung Regency, Bali 80771, Indonesia",https://maps.google.com/?cid=10853426637313787842,OPERATIONAL,+62 831-1414-6508,restaurant,"restaurant, food",5,2,
ChIJJ9yzWPxx0i0RdKWprVCNi4k,Catuspata Batumadeg,-8.739416499999999,115.5176752,"7G69+C3G, Batumadeg, Nusa Penida, Klungkung Regency, Bali 80771, Indonesia",https://maps.google.com/?cid=9911170782609384820,OPERATIONAL,,tourist_attraction,tourist_attraction,,,
ChIJqyCyWbBx0i0RXXsng0IXRfo,Warung Nudang(like sedap cafe/hala food,-8.7402426,115.51988159999999,"7G59+WX2, Desa, Batumadeg, Kec. Nusa Penida, Kabupaten Klungkung, Bali 80771, Indonesia",https://maps.google.com/?cid=18033845857310702429,OPERATIONAL,+62 852-3151-636,cafe,"cafe, food",3.4,7,
ChIJR2l4Zqdx0i0RnA_kNRAj2LM,Perumahan Kadek Didit Tiagan Nusa Penida Klumpu,-8.735665599999999,115.52130020000001,"Klumpu, Nusa Penida, Klungkung Regency, Bali 80771, Indonesia",https://maps.google.com/?cid=12959146480289189788,OPERATIONAL,+62 831-1485-0211,car_rental,"car_rental, store",,,
ChIJDXChBQBx0i0RzmzmBdOSPPM,Pope driver tour,-8.7415513,115.52110549999999,"7G5C+9CH, Pengalusan, Klumpu, Kec. Nusa Penida, Kabupaten Klungkung, Bali 80771, Indonesia",https://maps.google.com/?cid=17527045284853869774,OPERATIONAL,,tourist_attraction,tourist_attraction,,,
ChIJ3YmoRgBx0i0RYPnASdtg1FE,Di br tiagan,-8.735484099999999,115.5179829,"7G79+Q5X, Klumpu, Nusa Penida, Klungkung Regency, Bali 80771, Indonesia",https://maps.google.com/?cid=5896444307086309728,OPERATIONAL,,coffee_shop,"coffee_shop, cafe, food, store",,,
