id,name,latitude,longitude,address,url,status,phone,primary-type,types,rating,rating-count,price-level
ChIJN6rB1zUl0i0RyNufyzjKHdo,D'Bendungan View,-8.473102899999999,115.0996631,"G3GX+QV3, Jl. Telaga Tunjung, Timpag, Kec. Kerambitan, Kabupaten Tabanan, Bali 82161, Indonesia",https://maps.google.com/?cid=15716940619876129736,OPERATIONAL,+62 812-3941-314,restaurant,"restaurant, cafe, food",4.4,22,PRICE_LEVEL_INEXPENSIVE
ChIJ-e6TAvIl0i0RlfvGSE7aH8I,WARUNG D'REJENK,-8.4696679,115.09945080000001,"G3JX+4QP, Pesagi, Penebel, Tabanan Regency, Bali 82161, Indonesia",https://maps.google.com/?cid=13988138997399354261,OPERATIONAL,+62 813-3703-1233,restaurant,"restaurant, food",5,1,
ChIJi6noFa8l0i0Rcvh1TO3Nz9g,"Banjar dinas Pegubugan kauh, desa Pesagi",-8.473322399999999,115.0968219,"G3GW+MP, Timpag, Kerambitan, Tabanan Regency, Bali 82161, Indonesia",https://maps.google.com/?cid=15622932051445282930,OPERATIONAL,,park,park,,,
ChIJ0WppClEl0i0Rl5HvbXbJz04,Kubu Krismon,-8.4751732,115.10008629999999,"G4F2+W2P, Jl. Telaga Tunjung, Timpag, Kec. Kerambitan, Kabupaten Tabanan, Bali 82152, Indonesia",https://maps.google.com/?cid=5678979165625225623,OPERATIONAL,,,lodging,,,
ChIJvWiWAh0l0i0RM8W8PbcdMwg,WARUNG DEKDUH PACUT,-8.471856299999999,115.10466869999999,"Jl. Raya Pacut, Rejasa, Kec. Penebel, Kabupaten Tabanan, Bali 82152, Indonesia",https://maps.google.com/?cid=590848648967669043,OPERATIONAL,+62 812-3616-2306,cafe,"cafe, food",,,
ChIJNfc8GwAl0i0RVpyFkIkZepQ,Jembatan Bendungan Telaga Tunjung,-8.4735142,115.10281230000001,"G3FW+QHR, Jl. Telaga Tunjung, Timpag, Kec. Kerambitan, Kabupaten Tabanan, Bali 82161, Indonesia",https://maps.google.com/?cid=10698891943397923926,OPERATIONAL,,tourist_attraction,tourist_attraction,,,
ChIJOeNEBbwl0i0RtGKS3IhJUzw,warung gojuel,-8.4724159,115.104675,"G4H3+2VM, Jl. Pacut, Rejasa, Kec. Penebel, Kabupaten Tabanan, Bali 82152, Indonesia",https://maps.google.com/?cid=4346898917507621556,OPERATIONAL,,restaurant,"restaurant, food",4,4,
