id,name,latitude,longitude,address,url,status,phone,primary-type,types,rating,rating-count,price-level
ChIJl7GhE1490i0RbDpA3EOn55s,The Garcia Ubud,-8.561549,115.26798559999999,"Jl. Raya Silungan, Lodtunduh, Kecamatan Ubud, Kabupaten Gianyar, Bali 80571, Indonesia",https://maps.google.com/?cid=11234131705398835820,OPERATIONAL,+62 361 2013779,hotel,"hotel, lodging",4.7,520,
ChIJa6ztTeE90i0RS2ZGout_c4U,Nyuh Bali - Luxury Villa Resort & Spa in Ubud,-8.5585306,115.2664113,"Jl. Raya Silungan, Lodtunduh, Kecamatan Ubud, Kabupaten Gianyar, Bali 80571, Indonesia",https://maps.google.com/?cid=9616170279382705739,OPERATIONAL,+62 853-3377-9779,resort_hotel,"resort_hotel, hotel, lodging",4.7,434,
ChIJDc0SIeQ90i0RcfFI3zzxJ_0,The Alena Resort,-8.558184500000001,115.26637930000001,"Banjar Silungan, Lodtunduh, Kecamatan Ubud, Kabupaten Gianyar, Bali 80571, Indonesia",https://maps.google.com/?cid=18241814059433914737,OPERATIONAL,+62 361 9082487,resort_hotel,"resort_hotel, hotel, lodging, spa, restaurant, food",4.7,715,
ChIJq4v9dsw90i0R3QqKnXMadmg,Samtana Villas,-8.5591808,115.26637679999999,"C7R8+8HC, Jl. Raya Silungan, Lodtunduh, Kecamatan Ubud, Kabupaten Gianyar, Bali 80582, Indonesia",https://maps.google.com/?cid=7527232911062993629,OPERATIONAL,,,lodging,4.8,22,
ChIJ67Du6tg90i0R2nF4nL9Mad0,Ksuna Restaurant,-8.5618166,115.26781880000001,"Jl. Raya Silungan, Lodtunduh, Kecamatan Ubud, Kabupaten Gianyar, Bali 80571, Indonesia",https://maps.google.com/?cid=15954367540784296410,OPERATIONAL,+62 361 2013779,restaurant,"restaurant, food",4.6,229,
ChIJW8UbT-Q90i0R7HOAvxHDc-0,Umah d ubud,-8.5584426,115.26796189999999,"C7R9+J5G, MAS, Ubud, Gianyar Regency, Bali 80582, Indonesia",https://maps.google.com/?cid=17110233890305373164,OPERATIONAL,+62 822-3780-6153,hotel,"hotel, lodging",4.4,61,
ChIJ0TDruyE90i0RMbEte1Uwb7c,"Baliarum Villas, Mas",-8.5565147,115.270642,"Jl. Arjuna No.43, MAS, Kecamatan Ubud, Kabupaten Gianyar, Bali 80571, Indonesia",https://maps.google.com/?cid=13217836575052640561,OPERATIONAL,,lodging,lodging,4.3,9,
ChIJzwBSawg90i0RJ6kiAOoegg0,Mawar House,-8.555959099999999,115.26758330000001,"C7V9+J28, MAS, Ubud, Gianyar Regency, Bali 80571, Indonesia",https://maps.google.com/?cid=973374459838900519,OPERATIONAL,+62 813-3807-4540,lodging,lodging,4.5,17,
ChIJLWFip_w90i0RLYG8woxVk9s,Warung makan RR,-8.5601436,115.27279980000002,"Jl. Raya Mas No.12, MAS, Kecamatan Ubud, Kabupaten Gianyar, Bali 80582, Indonesia",https://maps.google.com/?cid=15822083978933600557,OPERATIONAL,+62 361 982353,restaurant,"cafe, restaurant, food",4.5,242,
ChIJbXQ3HuQ90i0Rs2AKaYnQ5UU,Villa Anandani,-8.5593374,115.26610330000001,"Silungan Lodtunduh Ubud, C7R8+7C9, Lodtunduh, Kec. Gianyar, Kabupaten Gianyar, Bali 80582, Indonesia",https://maps.google.com/?cid=5036661046875152563,OPERATIONAL,,lodging,lodging,4.5,24,
ChIJB3Qx3ps90i0RkO0VTZYP5kA,Puri Kembar villa,-8.561033799999999,115.2655318,"Jl. A.A. Gede Rai, Lodtunduh, Kecamatan Ubud, Kabupaten Gianyar, Bali 80571, Indonesia",https://maps.google.com/?cid=4676442401283632528,OPERATIONAL,+62 859-3532-5740,hotel,"hotel, guest_house, lodging",5,9,
ChIJeY51zII90i0Re0I0qc17Y4g,Perantenan Restaurant at The Alena Resort,-8.558183399999999,115.2663474,"Jl. Raya Silungan, Lodtunduh, Kecamatan Ubud, Kabupaten Gianyar, Bali 80571, Indonesia",https://maps.google.com/?cid=9827834935089840763,OPERATIONAL,+62 361 9082487,restaurant,"restaurant, indonesian_restaurant, food",5,68,
ChIJWXQnGQI90i0RUA5loqS19fo,Warkop Kita (Warung Kopi Kita),-8.5592953,115.2730276,"Jl. Raya Mas No.24, MAS, Kecamatan Ubud, Kabupaten Gianyar, Bali 80571, Indonesia",https://maps.google.com/?cid=18083559597479890512,OPERATIONAL,,coffee_shop,"coffee_shop, cafe, store, food",4.9,15,
ChIJxzRFPeU90i0RKkw8CrwwExk,Umah Galuh Ubud,-8.557088799999999,115.27040240000001,"Jl. Arjuna No.10, MAS, Kecamatan Ubud, Kabupaten Gianyar, Bali 80571, Indonesia",https://maps.google.com/?cid=1806841459689409578,OPERATIONAL,+62 812-3745-6997,,lodging,4.9,16,
ChIJhV-jVUQ90i0RD4yggnNvW6s,발리 우붓 더 가르시아 호텔,-8.5615467,115.26801149999999,"Indonesia, Bali, Kabupaten Gianyar, Kecamatan Ubud, Lodtunduh, the garica ubud",https://maps.google.com/?cid=12347585345269828623,OPERATIONAL,,hotel,"hotel, lodging",5,1,
ChIJ-xL1yEc90i0R0e_tGT3sxM0,Ubud Mas Glamping,-8.5557672,115.26918060000001,"Jl. Arjuna, Banjar Abianseka, MAS, Kecamatan Ubud, Kabupaten Gianyar, Bali 80571, Indonesia",https://maps.google.com/?cid=14827235620382699473,OPERATIONAL,+62 812-5202-5299,resort_hotel,"resort_hotel, hotel, lodging",5,1,
ChIJ89dPX6c90i0RxuClEZVxs7M,La Lune Villa,-8.5551418,115.2689585,"MAS, Ubud, Gianyar Regency, Bali 80571, Indonesia",https://maps.google.com/?cid=12948818238680457414,OPERATIONAL,+62 813-282-999,lodging,lodging,5,6,
ChIJrbQw4WM90i0Rw6D2IOmFE84,"JFC Mas,Ubud",-8.5558437,115.272217,"C7VC+MV8, Jl. Raya Mas, MAS, Kecamatan Ubud, Kabupaten Gianyar, Bali 80571, Indonesia",https://maps.google.com/?cid=14849359632697565379,OPERATIONAL,+62 878-5080-2028,meal_takeaway,"meal_takeaway, restaurant, food",3.6,36,
ChIJUXjb3MA90i0Ruu2hMCkgGYo,KEDAI PICA,-8.5591838,115.27265310000001,"Jl. Raya Mas No.18-22, MAS, Kecamatan Ubud, Kabupaten Gianyar, Bali 80582, Indonesia",https://maps.google.com/?cid=9951020212933488058,OPERATIONAL,+62 821-4754-3805,coffee_shop,"coffee_shop, cafe, store, food",4.4,7,
ChIJ3SZu_z850i0R9pTRBfJJjVc,Abian sari villa,-8.5573224,115.26960679999998,"C7V9+3RH, Jl. Arjuna, MAS, Kecamatan Ubud, Kabupaten Gianyar, Bali 80571, Indonesia",https://maps.google.com/?cid=6308779956844467446,OPERATIONAL,+62 817-564-780,hotel,"hotel, lodging",4,7,
