id,name,latitude,longitude,address,url,status,phone,primary-type,types,rating,rating-count,price-level
ChIJ76jlneR30i0RDY8hbVq7JL8,Tropical Glamping Bali,-8.7779338,115.6087133,"Pejukutan, Nusa Penida, Klungkung Regency, Bali 80771, Indonesia",https://maps.google.com/?cid=13773339557458185997,OPERATIONAL,+62 831-1438-0491,hotel,"hotel, lodging",4.8,63,
ChIJ9Tmq9mx30i0RT2vcEVzN7aA,Kaje Cottage,-8.7758466,115.608247,"jalan raya pelilit, Pejukutan, Kec. Nusa Penida, Kabupaten Klungkung, Bali 80771, Indonesia",https://maps.google.com/?cid=11596150410869238607,OPERATIONAL,+62 812-3896-3357,hotel,"hotel, lodging",4.3,38,
ChIJD2JgSFF30i0Rd2W5etedX44,Warung The Sorent,-8.775360599999999,115.6090532,"Unnamed Road, Pejukutan, Nusa Penida, Klungkung Regency, Bali 80771, Indonesia",https://maps.google.com/?cid=10259092024975779191,OPERATIONAL,+62 853-3342-1015,restaurant,"restaurant, food",4.5,522,PRICE_LEVEL_INEXPENSIVE
ChIJsftjpmF30i0RqdY65aMpdRA,Prananta Hill Cottage and Restaurant,-8.7764531,115.60504750000001,"6JF4+C27, Pejukutan, Nusa Penida, Klungkung Regency, Bali 80771, Indonesia",https://maps.google.com/?cid=1185899860784240297,OPERATIONAL,+62 831-1414-9068,restaurant,"restaurant, food",4.3,75,
ChIJ61UekN930i0ReylqpI0dTiA,Eastside Penida Kitchen & Bar,-8.775807,115.60850819999999,"jalan raya pelilit, Pejukutan, Kec. Nusa Penida, Kabupaten Klungkung, Bali 80771, Indonesia",https://maps.google.com/?cid=2327830551583140219,OPERATIONAL,+62 812-4670-4048,restaurant,"restaurant, food",5,192,
ChIJeTGkBPVz0i0RVqDwZvFg0DE,Bukit Cafe Nusapenida,-8.7761275,115.60702769999999,"Jalan Pantai Atuh, dusun Pelilit, Pejukutan, Kec. Nusa Penida, Kabupaten Klungkung, Bali 80771, Indonesia",https://maps.google.com/?cid=3589475492944715862,OPERATIONAL,+62 878-1013-5788,restaurant,"restaurant, food",4.9,20,
ChIJYcZAQs530i0RstAPQgMeLBA,SUAN HOME STAY,-8.7781562,115.60950020000001,"6JC5+PRJ, Unnamed Road, Pejukutan, Kec. Nusa Penida, Kabupaten Klungkung, Bali 80771, Indonesia",https://maps.google.com/?cid=1165339402924183730,OPERATIONAL,+62 831-1515-5961,private_guest_room,"private_guest_room, lodging",4.5,2,
ChIJ-xYsAdh30i0Rg8pCYG3fyl0,Makasi Warung,-8.7759202,115.60721099999999,"Jln.Pantai Atuh, Dusun, 6JF4+JVP, Pelilit, Pejukutan, Kec. Nusa Penida, Kabupaten Klungkung, Bali 80771, Indonesia",https://maps.google.com/?cid=6758459851682269827,OPERATIONAL,+62 812-4625-9943,restaurant,"restaurant, food",4.5,6,
ChIJ5w2G_tB30i0RlmYilTd92tQ,new hope villa,-8.7760315,115.60821670000001,"6JF5+H7P, Unnamed Road, Pejukutan, Kec. Nusa Penida, Kabupaten Klungkung, Bali 80771, Indonesia",https://maps.google.com/?cid=15337709158642378390,OPERATIONAL,+62 812-3896-3357,lodging,lodging,4.9,20,
