id,name,latitude,longitude,address,url,status,phone,primary-type,types,rating,rating-count,price-level
ChIJQ6Hede8h0i0R5x-X-GgLKmg,Anantara Ubud Bali Resort,-8.3918623,115.2715584,"Jl. Raya Puhu Payangan No.88, Puhu, Kec. Payangan, Kabupaten Gianyar, Bali 80572, Indonesia",https://maps.google.com/?cid=7505824274441510887,OPERATIONAL,+66 2 365 9110,hotel,"hotel, lodging",4.5,130,
ChIJP-m026Mh0i0RhqSx0zJE4p0,bhisnawa cafe,-8.3927517,115.26935329999999,"J749+VPX, Puhu, Payangan, Gianyar Regency, Bali 80572, Indonesia",https://maps.google.com/?cid=11376730593781982342,CLOSED_TEMPORARILY,+62 857-9281-6220,restaurant,"restaurant, food",4.9,36,
ChIJYSB7m18h0i0Rr1ZufonKK44,villa N Hotel,-8.3919902,115.2712492,"Unnamed Road, J75C+6F5, Puhu, Kec. Payangan, Kabupaten Gianyar, Bali 80572, Indonesia",https://maps.google.com/?cid=10244504469264815791,OPERATIONAL,,hotel,"hotel, lodging",3.7,3,
ChIJlXU7VZEh0i0RmXZa4HkYg-M,SS garden,-8.3956875,115.2723125,"J73C+PW, Taro, Tegallalang, Gianyar Regency, Bali 80561, Indonesia",https://maps.google.com/?cid=16393973980292871833,OPERATIONAL,+62 821-4635-2665,park,park,,,
ChIJITJoigEh0i0Roy-RZ2CtkYg,Tanah Abam,-8.3957117,115.27229,"Unnamed Road, J73C+PW7, Taro, Kec. Tegallalang, Kabupaten Gianyar, Bali 80561, Indonesia",https://maps.google.com/?cid=9840837290347278243,OPERATIONAL,,hotel,"hotel, lodging",,,
