id,name,latitude,longitude,address,url,status,phone,primary-type,types,rating,rating-count,price-level
ChIJt6gpetRE0i0RkXxJfSDCcI4,Renaissance Bali Uluwatu Resort & Spa,-8.812979,115.14485499999999,"Jl. Pantai Balangan I No.1, Ungasan, Kec. Kuta Sel., Kabupaten Badung, Bali 80361, Indonesia",https://maps.google.com/?cid=10263916995574070417,OPERATIONAL,+62 361 2003588,hotel,"hotel, wedding_venue, event_venue, lodging",4.7,3023,
ChIJOf7i6ytb0i0Rt-R9fX3TZGc,BGS Bali Surf Shop & Coffee Bar - Dreamland,-8.8212011,115.14612380000001,"Jl. Raya Uluwatu No.77, Ungasan, Kec. Kuta Sel., Kabupaten Badung, Bali 80361, Indonesia",https://maps.google.com/?cid=7450312219507418295,OPERATIONAL,+62 878-6181-3103,sporting_goods_store,"cafe, sporting_goods_store, food, store",4.9,551,
ChIJy75s7HI_0i0R0zmU_Cx9a8Y,Villa Ricca Eco Lodge,-8.818864,115.1446493,"Jl. Kahuripan No.21, Bukit Ungasan, Kec. Kuta Sel., Kabupaten Badung, Bali 80361, Indonesia",https://maps.google.com/?cid=14297659074187377107,OPERATIONAL,+62 812-3865-3326,private_guest_room,"private_guest_room, lodging",3.9,64,
ChIJ9aQF8itb0i0RG3YGj0qQ6Sw,El Merkat Bali,-8.8211462,115.1464498,"Jl. Raya Uluwatu No.Km, Ungasan, Kec. Kuta Sel., Kabupaten Badung, Bali 80361, Indonesia",https://maps.google.com/?cid=3236276457143957019,OPERATIONAL,+62 811-3976-300,restaurant,"mediterranean_restaurant, grocery_store, liquor_store, restaurant, food, store",4.5,1084,PRICE_LEVEL_MODERATE
ChIJtVzD2NJE0i0RaMDGN-vmt-4,Nagara Boutique Hotel and Coworking,-8.8164961,115.15055149999999,"Jl. Pantai Balangan No.16, Ungasan, Kec. Kuta Sel., Kabupaten Badung, Bali 80361, Indonesia",https://maps.google.com/?cid=17201471199692374120,OPERATIONAL,+62 889-9988-9898,hotel,"hotel, lodging, restaurant, food",4.3,60,
ChIJJ9gtACtb0i0RNG6FE3tbXFE,Mahagiri Villas & Spa Dreamland,-8.8192697,115.14491650000001,"Jalan Kahuripan, Br Bakungsari, Ungasan, Badung Regency, Bali 80361, Indonesia",https://maps.google.com/?cid=5862661399096159796,OPERATIONAL,+62 361 8481223,hotel,"hotel, lodging",4.4,177,
ChIJ49phlOFG0i0RBBoCXZluULk,Like At Home ~ Authentic Italian Cuisine,-8.8209213,115.1474476,"Jl. Raya Uluwatu No.13C, Ungasan, Kec. Kuta Sel., Kabupaten Badung, Bali 80361, Indonesia",https://maps.google.com/?cid=13353294500122991108,OPERATIONAL,+62 859-5419-6727,italian_restaurant,"italian_restaurant, restaurant, food",4.6,330,
ChIJ6ULSwStb0i0RKuJiOmIvtKo,Warung Makan MADE,-8.820972,115.145891,"54HW+J96, Jl. Raya Uluwatu, Ungasan, Kec. Kuta Sel., Kabupaten Badung, Bali 80361, Indonesia",https://maps.google.com/?cid=12300508581188526634,OPERATIONAL,+62 813-3839-8884,seafood_restaurant,"seafood_restaurant, indonesian_restaurant, restaurant, food",4.5,721,PRICE_LEVEL_INEXPENSIVE
ChIJI_2SRrxb0i0RkNZ1YCzh9Kg,Hillstone Luxury Village,-8.818178399999999,115.14389329999997,"Jl. N.Kahuripan, Ungasan, Kec. Kuta Sel., Kabupaten Badung, Bali 80361, Indonesia",https://maps.google.com/?cid=12174603273402439312,OPERATIONAL,+62 813-3744-9355,hotel,"hotel, lodging",4.5,40,
ChIJd2Ouj4tb0i0Rfk8ZPHpA7f8,Ayu's Food From The Heart,-8.819405,115.14573039999999,"Bukit Ungasan, Gg. Jenggala 1, Ungasan, Kec. Kuta Sel., Kabupaten Badung, Bali 80361, Indonesia",https://maps.google.com/?cid=18441466942890528638,OPERATIONAL,+62 821-4449-3687,restaurant,"restaurant, cafe, food",4.8,215,
ChIJJ4WUvStb0i0RaI0vqj1BVxU,The Bali Boarding House,-8.81899,115.1442642,"No, Jl. N.Kahuripan No.22, Ungasan, Kec. Kuta Sel., Kabupaten Badung, Bali 80361, Indonesia",https://maps.google.com/?cid=1537769530874367336,OPERATIONAL,+62 813-5307-5292,hotel,"hotel, travel_agency, lodging, food",4.7,55,
ChIJ3ZB4wbZb0i0RcCtf6t7aliQ,My Bali Coffee,-8.8206264,115.14805840000001,"Jl. Raya Uluwatu No.9, Ungasan, Kec. Kuta Sel., Kabupaten Badung, Bali 80361, Indonesia",https://maps.google.com/?cid=2636535282821704560,OPERATIONAL,,cafe,"cafe, food",4.8,251,PRICE_LEVEL_INEXPENSIVE
ChIJieHkgO1b0i0RDwv-mB_63rw,Salad Lab Ungasan,-8.8207121,115.1476622,"No.13 A, Banjar Bakung sari Jl. Raya Uluwatu, Ungasan, Kec. Kuta Sel., Kabupaten Badung, Bali 80361, Indonesia",https://maps.google.com/?cid=13609590137577933583,CLOSED_TEMPORARILY,+62 859-3449-2400,restaurant,"restaurant, food",4.4,191,
ChIJnTLFzNRE0i0RxerPvztLoOo,Vertical House Bali,-8.816526,115.14537299999999,"Jalan Taman Paradise Banjar Bakung sari, Ungasan, Kec. Kuta Sel., Kabupaten Badung, Bali 80361, Indonesia",https://maps.google.com/?cid=16906595721142069957,OPERATIONAL,+62 812-3756-6371,hotel,"hotel, lodging",4.8,78,
ChIJCeUuv5Vb0i0RiaqPZjG6LKg,Pad thai at bali,-8.820929399999999,115.14753449999999,"No.13 A, Jl. Raya Uluwatu, Ungasan, Kec. Kuta Sel., Kabupaten Badung, Bali 80361, Indonesia",https://maps.google.com/?cid=12118265418684017289,OPERATIONAL,+62 821-4433-1677,restaurant,"restaurant, food",4.5,456,
ChIJ_4fmH19F0i0RBBEz0qrpVpg,Surfers GrillHouse Bali : Best Steakhouse in Balangan,-8.815889199999999,115.1491236,"Jl. Pantai Balangan No.69, Ungasan, Kec. Kuta Sel., Kabupaten Badung, Bali 80361, Indonesia",https://maps.google.com/?cid=10977218061642436868,OPERATIONAL,+62 812-3778-3470,steak_house,"steak_house, barbecue_restaurant, bar, restaurant, food",4.7,119,
ChIJcynuTC1b0i0Rz3Cv1QUWA1o,Noka Resto Ungasan,-8.820518,115.14568229999998,"Ungasan, South Kuta, Badung Regency, Bali 80361, Indonesia",https://maps.google.com/?cid=6486052102659338447,OPERATIONAL,+62 823-4176-9731,restaurant,"restaurant, chinese_restaurant, indonesian_restaurant, food",4.5,164,PRICE_LEVEL_INEXPENSIVE
ChIJXVrg471b0i0RjEAcj6PD47E,PIZZA 'N GOOO UNGASAN,-8.8210338,115.1468498,"Jl. Raya Uluwatu No.13A, Ungasan, Kec. Kuta Sel., Kabupaten Badung, Bali 80361, Indonesia",https://maps.google.com/?cid=12818304071674642572,OPERATIONAL,+62 813-3936-2842,meal_takeaway,"pizza_restaurant, meal_delivery, italian_restaurant, meal_takeaway, restaurant, food",4.7,163,
ChIJV_sguLhb0i0ReoXu2Cxh0mw,Tony's New York Pizza Ungasan,-8.821306,115.14617000000001,"Jl. Raya Uluwatu No.77, Pecatu, Kec. Kuta Sel., Kabupaten Badung, Bali 80361, Indonesia",https://maps.google.com/?cid=7841436746451420538,OPERATIONAL,+62 838-8600-039,pizza_restaurant,"pizza_restaurant, restaurant, food",4.6,68,
ChIJ9TMWjVFF0i0R2aRfKn9IDIQ,Rental motor bike & car (ungasan rental),-8.8139035,115.14878389999998,"Jl. Tundun Penyu Dipal, Ungasan, Kec. Kuta Sel., Kabupaten Badung, Bali 80362, Indonesia",https://maps.google.com/?cid=9515059823735973081,OPERATIONAL,+62 811-3860-900,,car_rental,4.9,45,
