id,name,latitude,longitude,address,url,status,phone,primary-type,types,rating,rating-count,price-level
ChIJ1UfV5dUj0i0Rhf6CcLp1rUU,Pedukuhan karang buncing carangsari,-8.455382799999999,115.2127141,"Jl tukad panet No.4, Carangsari, Kec. Petang, Kabupaten Badung, Bali 80353, Indonesia",https://maps.google.com/?cid=5020798603199970949,OPERATIONAL,,guest_house,"guest_house, lodging",4.5,8,
ChIJ00RymM8j0i0RKrJqMFh7m3A,Air terjun waterfall Jemeng,-8.456718600000002,115.21256559999999,"Jl. Tukad Penet IV Jemeng, Samuan Kawan No.Road, Carangsari, Kec. Petang, Kabupaten Badung, Bali 80353, Indonesia",https://maps.google.com/?cid=8114214772337717802,OPERATIONAL,,tourist_attraction,tourist_attraction,4.5,11,
ChIJd6MvgrAj0i0R35ifgucCOtk,Warung Jero Telaga,-8.4565871,115.2058755,"G6V4+996, Jl. Seribupati, Cau Belayu, Kec. Marga, Kabupaten Tabanan, Bali 82181, Indonesia",https://maps.google.com/?cid=15652826648231778527,OPERATIONAL,,restaurant,"restaurant, food",5,3,
ChIJoSAXRFYj0i0RAIPkZlwKHKs,Pedukuhan,-8.454632199999999,115.213309,"G6W7+48, Carangsari, Petang, Badung Regency, Bali, Indonesia",https://maps.google.com/?cid=12329741271813096192,OPERATIONAL,,hindu_temple,"hindu_temple, lodging, place_of_worship",5,2,
ChIJm2W-4jwj0i0RszkYnMnfdVc,Pondok Cottage,-8.4587598,115.20658829999999,"G6R4+CJV, Cau Belayu, Marga, Tabanan Regency, Bali 80352, Indonesia",https://maps.google.com/?cid=6302189310575131059,OPERATIONAL,,cottage,"cottage, lodging",,,
ChIJfcEPQB4j0i0R-93MinIHIcQ,Kaja Kangin Forest,-8.4592244,115.20654239999999,"G6R4+CJV, Cau Belayu, Marga, Tabanan Regency, Bali 80352, Indonesia",https://maps.google.com/?cid=14132585294201675259,OPERATIONAL,,national_park,"national_park, park",,,
ChIJ0QUp38Ej0i0Rt6MQ-S8oPoc,Purecliff,-8.4581267,115.20834980000001,"Jl. Seribupati No.40, Cau Belayu, Kec. Marga, Kabupaten Tabanan, Bali 82181, Indonesia",https://maps.google.com/?cid=9745270830183523255,OPERATIONAL,,park,park,5,1,
ChIJz4XNBvkj0i0RqA37skNpeGU,Warung Men Gede Wira,-8.456928,115.2122449,"Carangsari, Petang, Badung Regency, Bali 80353, Indonesia",https://maps.google.com/?cid=7311709734522523048,OPERATIONAL,+62 821-4677-6018,restaurant,"restaurant, food",,,
ChIJWTV2n9Ej0i0RlhcXq1Nnv10,Pondok bala werdi,-8.4550723,115.20645169999999,"G6V4+XHG, Cau Belayu, Marga, Tabanan Regency, Bali 82181, Indonesia",https://maps.google.com/?cid=6755231575129397142,OPERATIONAL,,,lodging,,,
ChIJrQTA86kj0i0RsurdL0MIDLE,Giri Cottage,-8.457927399999999,115.2070184,"Jl. Seribupati No.40, Cau Belayu, Kec. Marga, Kabupaten Tabanan, Bali 82181, Indonesia",https://maps.google.com/?cid=12757580929092676274,OPERATIONAL,,cottage,"cottage, lodging",,,
ChIJr4m5gq0j0i0RkWBJfP3Mceg,Pondok Pak Komala,-8.4565871,115.2058755,"G6V4+996, Jl. Seribupati, Cau Belayu, Kec. Marga, Kabupaten Tabanan, Bali 82181, Indonesia",https://maps.google.com/?cid=16749393878251561105,OPERATIONAL,+62 821-4653-9389,lodging,lodging,,,
ChIJy6Hewwoj0i0RTJSpOOCyfMU,Pondok Krismon,-8.4575149,115.2056911,"Jl. Seribupati No.17, Cau Belayu, Kec. Marga, Kabupaten Tabanan, Bali 82181, Indonesia",https://maps.google.com/?cid=14230445598676980812,OPERATIONAL,,cottage,"cottage, lodging",,,
ChIJOecuX0Qj0i0RRa9PpEgsvfY,Pondok Kemir,-8.4583274,115.206594,"G6R4+CJV, Cau Belayu, Marga, Tabanan Regency, Bali 80352, Indonesia",https://maps.google.com/?cid=17779415594434539333,OPERATIONAL,,cottage,"cottage, lodging",,,
ChIJV0gOvv4j0i0RDCTcR_xkb28,Yanti Cottage,-8.4590835,115.20564279999999,"Jl. Seribupati No.17, Cau Belayu, Kec. Marga, Kabupaten Tabanan, Bali 82181, Indonesia",https://maps.google.com/?cid=8029747695325029388,OPERATIONAL,,cottage,"cottage, lodging",,,
