id,name,latitude,longitude,address,url,status,phone,primary-type,types,rating,rating-count,price-level
ChIJRc7KhsaB0S0REB92khbg47Q,Warung Maharani,-8.267185699999999,114.990066,"PXMR+42G, Jl. Pelapuan, Kekeran, Kec. Busung Biu, Kabupaten Buleleng, Bali 81154, Indonesia",https://maps.google.com/?cid=13034508134091464464,OPERATIONAL,,restaurant,"restaurant, food",5,1,
ChIJEULfUPSB0S0Rc03DDfHBXN0,omae bose,-8.2674825,114.98804419999999,"PXMQ+263, Jl. Pelapuan, Pelapuan, Kec. Busung Biu, Kabupaten Buleleng, Bali 81154, Indonesia",https://maps.google.com/?cid=15950837221301636467,OPERATIONAL,,private_guest_room,"private_guest_room, lodging",,,
ChIJ2RBCxhKB0S0RLhuhLjCjyv8,RND,-8.2657658,114.99106139999999,"PXMR+MCV, Pelapuan, Busung Biu, Buleleng Regency, Bali 81154, Indonesia",https://maps.google.com/?cid=18431723852303244078,OPERATIONAL,,private_guest_room,"private_guest_room, lodging",,,
ChIJMzhqQhWB0S0RGTcIRuFrO2E,MAMISORA,-8.267102699999999,114.99232319999999,"PXMR+5W4, Pelapuan, Busung Biu, Buleleng Regency, Bali 81154, Indonesia",https://maps.google.com/?cid=7006312260591695641,OPERATIONAL,,brunch_restaurant,"brunch_restaurant, restaurant, food",,,
ChIJ83sHE9GB0S0R-r0ENYmZB7Q,Warung Tipat Buk Rose,-8.2671887,114.99006999999999,"PXMR+42G, Jl. Pelapuan, Kekeran, Kec. Busung Biu, Kabupaten Buleleng, Bali 81154, Indonesia",https://maps.google.com/?cid=12972506066243075578,CLOSED_TEMPORARILY,,indonesian_restaurant,"indonesian_restaurant, restaurant, food",,,
ChIJFdBXVlGB0S0RH87jIdSV5M4,ROOM BOWO,-8.2665422,114.99243469999999,"PXMR+9XM, Pelapuan, Busung Biu, Buleleng Regency, Bali 81154, Indonesia",https://maps.google.com/?cid=14908205404837367327,OPERATIONAL,,restaurant,"restaurant, food",1,1,
