id,name,latitude,longitude,address,url,status,phone,primary-type,types,rating,rating-count,price-level
ChIJMf9duh6P0S0RapIMtvcnL_Q,Lemukih Camping Hill,-8.2164559,115.1716923,"Lemukih, Sawan, Buleleng Regency, Bali 81161, Indonesia",https://maps.google.com/?cid=17595326214024499818,OPERATIONAL,+62 819-3437-9218,park,park,4.8,31,
ChIJkYc2oz-P0S0RZz3qkfoi53c,GUNUNG SARI GARDEN,-8.2172968,115.17033119999999,"Q5MC+44R, Lemukih, Sawan, Buleleng Regency, Bali 81161, Indonesia",https://maps.google.com/?cid=8639912869718801767,OPERATIONAL,+62 878-4436-5765,tourist_attraction,tourist_attraction,4.8,11,
ChIJH96VCf-P0S0RGh1YdRu1DuQ,Mandha Scene Camping Ground,-8.2164559,115.1716923,"Q5MC+CM8, Lemukih, Sawan, Buleleng Regency, Bali 81161, Indonesia",https://maps.google.com/?cid=16433271219858971930,OPERATIONAL,+62 878-6320-7984,campground,"campground, park, lodging",5,15,
ChIJB_RhzY2O0S0REm8vNi8ndBQ,Valley Observation,-8.2170854,115.1704244,"Lemukih, Sawan, Buleleng Regency, Bali 81161, Indonesia",https://maps.google.com/?cid=1473846061783019282,OPERATIONAL,,park,park,4.5,25,
ChIJb8E9f9KP0S0Rr7mNSj-f4dM,Gunung Sari Swing Twin Mountains view,-8.217163,115.17024129999999,"Lemukih, Singaraja, Buleleng Regency, Bali 81171, Indonesia",https://maps.google.com/?cid=15267659305945250223,OPERATIONAL,,amusement_center,"amusement_park, amusement_center",,,
ChIJFc1zYvyP0S0RiVFt_-vTOHE,Yoko Home Stay,-8.2179636,115.1692051,"Buah banjah,Desa, Lemukih, Kec. Sawan, Kabupaten Buleleng, Bali 81161, Indonesia",https://maps.google.com/?cid=8158503735537783177,CLOSED_TEMPORARILY,,private_guest_room,"private_guest_room, lodging",5,1,
