id,name,latitude,longitude,address,url,status,phone,primary-type,types,rating,rating-count,price-level
ChIJe2jMFL0x0i0R2gyUz5RXb-4,Warung Bebek Bali,-8.5635932,115.09249170000001,"C3PR+HX9, Jl. Yeh Gangga I, Gubug, Kec. Tabanan, Kabupaten Tabanan, Bali, Indonesia",https://maps.google.com/?cid=17181047400091094234,OPERATIONAL,+62 361 7995742,restaurant,"restaurant, food",4.7,59,
ChIJ71wPOqYw0i0Rr68iRKEIHi8,Penginapan KAMBOJA,-8.566780399999999,115.09019320000002,"Jl. Yeh Gangga I No.135, Gubug, Kec. Tabanan, Kabupaten Tabanan, Bali 82115, Indonesia",https://maps.google.com/?cid=3395160657809813423,OPERATIONAL,+62 878-6119-8009,,lodging,3.9,28,
ChIJ2Q8yo-ox0i0RTKfJAxEl770,Kamboja Private Villa,-8.5659452,115.09164519999997,"Jl. Yeh Gangga I No.11x, Gubug, Kec. Tabanan, Kabupaten Tabanan, Bali 82115, Indonesia",https://maps.google.com/?cid=13686198547610445644,OPERATIONAL,+62 882-1918-8000,private_guest_room,"private_guest_room, lodging",5,5,
ChIJvdIw8JY70i0RL1DXNy9GkPM,ATMA HOUSE,-8.566576699999999,115.0940986,"Jl. Sarwa Genep, Gubug, Kec. Tabanan, Kabupaten Tabanan, Bali 82115, Indonesia",https://maps.google.com/?cid=17550604916477087791,CLOSED_TEMPORARILY,+62 813-3736-2263,guest_house,"guest_house, lodging",,,
ChIJzz1zCFc70i0RIDTcYYYN5EE,TPA sementara Sarwa genep,-8.5685541,115.0932438,"C3JV+H7H, Jl. Sarwa Genep, Gubug, Kec. Tabanan, Kabupaten Tabanan, Bali 82115, Indonesia",https://maps.google.com/?cid=4747934777973945376,CLOSED_TEMPORARILY,,park,park,,,
ChIJUUIX3FYx0i0RMekBjIyrTbY,AYAM GEPREK GUBUG,-8.5646174,115.09145180000002,"C3PR+5H4, Jl. Yeh Gangga I, Gubug, Kec. Tabanan, Kabupaten Tabanan, Bali 82115, Indonesia",https://maps.google.com/?cid=13136344308242311473,OPERATIONAL,+62 821-4704-8404,restaurant,"restaurant, food",4.8,6,
ChIJGwzHnQox0i0RQmxbui8HEXQ,Temmy's House,-8.569996699999999,115.0913577,"C3JR+2G5, Gubug, Tabanan, Tabanan Regency, Bali 82115, Indonesia",https://maps.google.com/?cid=8363473884575132738,OPERATIONAL,,private_guest_room,"private_guest_room, lodging",5,1,
ChIJK-sRxr470i0Rhg_gHe7SMqA,Warung Mak Kembar,-8.567975800000001,115.0947772,"C3JV+RW2, Bongan, Tabanan, Tabanan Regency, Bali 82115, Indonesia",https://maps.google.com/?cid=11543520715049275270,OPERATIONAL,+62 819-3618-7529,restaurant,"restaurant, food",5,3,
ChIJYYiJOaYw0i0R4pZ-ZsOj8ts,Lodging House,-8.5667803,115.09025270000001,"Jl. Yeh Gangga I No.135, Gubug, Kec. Tabanan, Kabupaten Tabanan, Bali 82115, Indonesia",https://maps.google.com/?cid=15848910098303719138,OPERATIONAL,+62 878-6119-8009,,lodging,5,1,
ChIJkeSXzuox0i0RP6KbKjrwNhA,Babi Guling Pak Nesa,-8.566274500000002,115.09038059999997,"C3MR+F3P, Gubug, Tabanan, Tabanan Regency, Bali 82115, Indonesia",https://maps.google.com/?cid=1168385285962834495,OPERATIONAL,+62 819-3312-8881,restaurant,"restaurant, food",5,1,
ChIJC2fLpEsx0i0RbriihJFhtCA,Tirta's house (Blok D4),-8.569966599999999,115.09152420000001,"Gubug, Tabanan, Tabanan Regency, Bali 82115, Indonesia",https://maps.google.com/?cid=2356615782645020782,OPERATIONAL,,private_guest_room,"private_guest_room, lodging",,,
ChIJF9x8Bqcw0i0RhgWlZbSCAf0,Warung Omang,-8.5647956,115.09161909999997,"C3PR+3JQ, Jl. Yeh Gangga I, Gubug, Kec. Tabanan, Kabupaten Tabanan, Bali 82115, Indonesia",https://maps.google.com/?cid=18230996477883516294,OPERATIONAL,+62 813-3886-6799,restaurant,"restaurant, food",4.7,6,
ChIJoZuQLlMx0i0RzVJo6g0WH_c,Warung nongkrong,-8.5647738,115.0915867,"Br, C3PR+3JW, Gubug, Kec. Tabanan, Kabupaten Tabanan, Bali 82115, Indonesia",https://maps.google.com/?cid=17806975700669321933,OPERATIONAL,+62 821-4643-2611,restaurant,"restaurant, food",,,
ChIJLX_JEUox0i0R3Swdvl89dFg,Rumah Anggi,-8.5667491,115.090208,"Jl. Yeh Gangga I No.11x, Gubug, Kec. Tabanan, Kabupaten Tabanan, Bali 82115, Indonesia",https://maps.google.com/?cid=6373786854056864989,OPERATIONAL,,private_guest_room,"private_guest_room, lodging",,,
ChIJG5bDIgAx0i0RfFtIcpKJs_M,Kosperbatasan,-8.5672033,115.08943319999999,"C3MQ+3VV, Jl. Yeh Gangga I, Gubug, Kec. Tabanan, Kabupaten Tabanan, Bali 82115, Indonesia",https://maps.google.com/?cid=17560530634123271036,OPERATIONAL,,,lodging,,,
ChIJmw2A85Ex0i0RaRttQbzh39g,jhony Garment,-8.5692759,115.0938786,"Perum GCWA blok Dahlia no 24, Bongan, Kec. Tabanan, Kabupaten Tabanan, Bali, Indonesia",https://maps.google.com/?cid=15627457430666681193,OPERATIONAL,,,lodging,,,
ChIJAw6mvUUx0i0RJYZ3NXTRa6Q,ME Warung,-8.564266,115.09175150000002,"C3PR+7PR, Jl. Yeh Gangga I, Gubug, Kec. Tabanan, Kabupaten Tabanan, Bali 82115, Indonesia",https://maps.google.com/?cid=11847793541771658789,OPERATIONAL,+62 822-3788-0995,cafe,"cafe, food",,,
ChIJl0dFGGgx0i0R3cFQOPxYLzI,Dewanti house,-8.5704279,115.09099610000001,"Jalan Yeh Gangga, Desa Sudimara, Banjar, C3HR+R9H, Cengolo, Kec. Tabanan, Kabupaten Tabanan, Bali 82121, Indonesia",https://maps.google.com/?cid=3616206866101617117,OPERATIONAL,,private_guest_room,"private_guest_room, lodging",,,
ChIJk96VqgMx0i0R9xnqRV494WE,Waroeng Tomblos,-8.5646653,115.09159770000001,"C3PR+4JQ, Jl. Yeh Gangga I, Gubug, Kec. Tabanan, Kabupaten Tabanan, Bali 82115, Indonesia",https://maps.google.com/?cid=7052985966548097527,OPERATIONAL,+62 821-4643-2611,restaurant,"restaurant, food",4,1,
ChIJgWDbRacw0i0R-fHyIjIi-CE,Warung Bu Novi,-8.5628771,115.09273060000001,"C3PV+R3X, Jl. Yeh Gangga I, Gubug, Kec. Tabanan, Kabupaten Tabanan, Bali 82115, Indonesia",https://maps.google.com/?cid=2447743996205920761,OPERATIONAL,+62 857-3833-5611,indonesian_restaurant,"indonesian_restaurant, restaurant, food",5,2,
