id,name,latitude,longitude,address,url,status,phone,primary-type,types,rating,rating-count,price-level
ChIJWevNJwAH0i0R7-Ex2Imo8n8,Kubu Carik - Karangasem Bali,-8.414741,115.6016629,"HJP2+4M3, Banjar Kuhum, Ababi, Kec. Abang, Kabupaten Karangasem, Bali 80852, Indonesia",https://maps.google.com/?cid=9219616697171960303,OPERATIONAL,+62 812-3797-0888,lodging,lodging,4.7,32,
ChIJ74j-Cf0H0i0R7NNdXMBq_mY,Ni anik,-8.414248299999999,115.60472869999998,"HJP3+8V5, Ababi, Abang, Karangasem Regency, Bali, Indonesia",https://maps.google.com/?cid=7421486610369074156,OPERATIONAL,,hostel,"hostel, lodging",,,
ChIJsaosl4oH0i0RzHTf6SND3Fo,wicky setiawan,-8.4142113,115.6047902,"HJP3+8W7, Jl. Raya Ababi, Ababi, Kec. Abang, Kabupaten Karangasem, Bali 80852, Indonesia",https://maps.google.com/?cid=6547181779816510668,OPERATIONAL,,hostel,"hostel, lodging",5,3,
ChIJS-DDFgAH0i0RsMEbSLFq6_E,Rumah di Carik I Made Sangging,-8.4168141,115.60181279999998,"HJM2+7PG Br. Dinas Abianjero, Ababi, Kec. Abang, Kabupaten Karangasem, Bali 80852, Indonesia",https://maps.google.com/?cid=17432144092319170992,OPERATIONAL,,private_guest_room,"private_guest_room, lodging",,,
ChIJE5NiFoQH0i0RwFmHBVv98lc,Sekepat agung,-8.4175241,115.60750149999998,"HJJ4+WG5, Ababi, Abang, Karangasem Regency, Bali 80852, Indonesia",https://maps.google.com/?cid=6337406193040316864,OPERATIONAL,,bar,bar,5,1,
ChIJv03gAUUH0i0Rh_bxA0_ENTY,i gede sudarsa,-8.4142039,115.6047978,"HJP3+8W7, Jalan Raya, Ababi, Kec. Karangasem, Kabupaten Karangasem, Bali 80852, Indonesia",https://maps.google.com/?cid=3906244095461422727,OPERATIONAL,,hostel,"hostel, lodging",,,
