id,name,latitude,longitude,address,url,status,phone,primary-type,types,rating,rating-count,price-level
ChIJy0kfXkv10S0RUQ2WmIXmILU,Depot Eka Nadi,-8.307259,115.3056392,"Unnamed Road, M8V4+37R, Katung, Kec. Kintamani, Kabupaten Bangli, Bali 80652, Indonesia",https://maps.google.com/?cid=13051685181584706897,OPERATIONAL,,restaurant,"restaurant, food",4.9,9,
ChIJAdtNDvv10S0RNI3abq_1qSA,Kedai bu ayu,-8.305834599999999,115.30651379999999,"M8V4+MJ6, Jl. Raya Katung, Katung, Kec. Kintamani, Kabupaten Bangli, Bali 80652, Indonesia",https://maps.google.com/?cid=2353682414105693492,OPERATIONAL,,coffee_shop,"coffee_shop, cafe, store, food",5,3,
ChIJ7017-kH10S0RHSNlqM_L_K4,WARUNG MAKAN KADEK,-8.3054753,115.306749,"M8V4+RM5, Jl. Raya Kintamani, Katung, Kec. Kintamani, Kabupaten Bangli, Bali 80652, Indonesia",https://maps.google.com/?cid=12609177149474415389,OPERATIONAL,+62 857-3816-2944,restaurant,"restaurant, food",4.8,4,
ChIJsTHstpv10S0R2Uf2wCiqYhg,Made Puger Sport Center,-8.3118065,115.30285789999998,"Jalan Raya Kedewatan, Katung, Kec. Kintamani, Kabupaten Bangli, Bali 80652, Indonesia",https://maps.google.com/?cid=1757153896640694233,OPERATIONAL,+62 812-3660-060,bar,bar,,,
ChIJb7GJv_n10S0RKRL06bnKPfM,Wisky Drum,-8.3083458,115.30462440000001,"M8R3+MR9, Katung, Kintamani, Bangli Regency, Bali 80652, Indonesia",https://maps.google.com/?cid=17527388224638685737,OPERATIONAL,,bar,bar,5,1,
ChIJn8l0e5H10S0RL6x_Z8uZRYs,Warung Pak Kopeng,-8.308178999999999,115.3051293,"M8R4+P3C, Jalan Raya, Katung, Kec. Kintamani, Kabupaten Bangli, Bali 80652, Indonesia",https://maps.google.com/?cid=10035596443558849583,OPERATIONAL,,restaurant,"restaurant, food",5,1,
ChIJrajpzhr10S0RoDz326nmwYo,ARD Warung,-8.310476399999999,115.30377049999998,"M8Q3+RG2, Jalan Raya, Katung, Kec. Kintamani, Kabupaten Bangli, Bali 80652, Indonesia",https://maps.google.com/?cid=9998526264953486496,OPERATIONAL,,bar,bar,,,
