id,name,latitude,longitude,address,url,status,phone,primary-type,types,rating,rating-count,price-level
ChIJ_3qRDxw_0i0RtlPi_KMnDzg,Kirani Joglo,-8.603741099999999,115.25789689999999,"Jl. Raya Celuk, Celuk, Kec. Sukawati, Kabupaten Gianyar, Bali 80582, Indonesia",https://maps.google.com/?cid=4039490976050467766,OPERATIONAL,+62 811-380-177,lodging,lodging,4.7,61,
ChIJcTeGNks-0i0R8_IjKrV_7B0,Barong And Kris Dance,-8.6061265,115.2558671,"97V4+G8X, Jl. Pura Puseh, Batubulan, Kec. Sukawati, Kabupaten Gianyar, Bali 80582, Indonesia",https://maps.google.com/?cid=2156238737676432115,OPERATIONAL,,performing_arts_theater,"performing_arts_theater, event_venue",4.3,338,
ChIJQVCQ-M8_0i0RSWk6x52Ow_c,Twissterdog Gianyar,-8.6024165,115.2616614,"Jl. Raya Celuk No.78, Batubulan, Kec. Sukawati, Kabupaten Gianyar, Bali 80582, Indonesia",https://maps.google.com/?cid=17853270156130281801,OPERATIONAL,,fast_food_restaurant,"fast_food_restaurant, restaurant, food",4.2,153,
ChIJTQ3isUo-0i0RP4DUSQlPPhI,Warung Ulam-Ulam,-8.606202699999999,115.2593138,"97V5+GP8, Batubulan, Sukawati, Gianyar Regency, Bali 80582, Indonesia",https://maps.google.com/?cid=1314575042550726719,OPERATIONAL,+62 361 297768,indonesian_restaurant,"indonesian_restaurant, restaurant, food",4.4,447,PRICE_LEVEL_MODERATE
ChIJ4bVStLQ_0i0R9ZYr1CFIeSg,Barong Dance Pura Puseh,-8.6060888,115.25590810000001,"97V4+H97, Jl. Pura Puseh, Batubulan, Kec. Sukawati, Kabupaten Gianyar, Bali 80582, Indonesia",https://maps.google.com/?cid=2916441543829853941,OPERATIONAL,,cultural_center,cultural_center,4.5,57,
ChIJ2SRRD5M_0i0R6Fe8ubs0G28,GOGO FRIED CHICKEN CELUK,-8.603292999999999,115.25804099999999,"Jl. Raya Celuk, Singapadu, Kec. Sukawati, Kabupaten Gianyar, Bali 80582, Indonesia",https://maps.google.com/?cid=8006050743460845544,OPERATIONAL,,restaurant,"restaurant, food",3.8,129,
ChIJi_GaNFk_0i0RMVJop3ZDsLk,Kecak Pura Puseh Batubulan,-8.606164,115.255976,"97V4+H97, Jl. Pura Puseh, Batubulan, Kec. Sukawati, Kabupaten Gianyar, Bali 80582, Indonesia",https://maps.google.com/?cid=13380268669811577393,OPERATIONAL,+62 823-4064-3830,tourist_attraction,tourist_attraction,4.8,12,
ChIJRWDsOgA_0i0RRfbOwuJeWN4,Point Coffee,-8.603245099999999,115.25802089999999,"Jl. Celuk Sukawati, Batubulan, Kec. Sukawati, Kabupaten Gianyar, Bali 80582, Indonesia",https://maps.google.com/?cid=16021660002394502725,OPERATIONAL,+62 21 1500280,coffee_shop,"coffee_shop, cafe, food, store",3.6,12,
ChIJlwmRZCI_0i0R3BB3L6cgXfM,Happy House 2 Celuk,-8.6051875,115.2616363,"97V6+WMC, Batubulan, Sukawati, Gianyar Regency, Bali, Indonesia",https://maps.google.com/?cid=17536208426478538972,OPERATIONAL,+62 896-1003-0811,extended_stay_hotel,"extended_stay_hotel, hotel, lodging",,,
ChIJjbYAW5k_0i0Rp8HqIyAAndg,Babi Guling Payangan Bu Sujani,-8.6023658,115.26102759999998,"Jl. Celuk Sukawati No.27, Batubulan, Kec. Sukawati, Kabupaten Gianyar, Bali 80582, Indonesia",https://maps.google.com/?cid=15608632021577548199,OPERATIONAL,+62 859-3533-4302,restaurant,"restaurant, food",4.9,16,
ChIJTz1xwcQ_0i0RBLUdZ6dmPig,Dodok Studio House,-8.6047323,115.26260569999998,"Jl. Teratai Gg. Jempiring, Celuk, Kec. Sukawati, Kabupaten Gianyar, Bali 80582, Indonesia",https://maps.google.com/?cid=2899868079248749828,OPERATIONAL,+62 813-3804-2888,,lodging,5,3,
ChIJg1TllVA_0i0RDEWgFvekMD4,Laklak mek mangku,-8.603981899999999,115.2554658,"Jl. Raya Celuk No.100x, Singapadu, Kec. Sukawati, Kabupaten Gianyar, Bali 80582, Indonesia",https://maps.google.com/?cid=4481263010377123084,OPERATIONAL,+62 853-3989-1399,restaurant,"restaurant, food",5,23,
ChIJhSHfwz4_0i0RU5YbBCIH2pc,Mie Seblak Bali,-8.6035231,115.25830219999997,"Jl. Celuk Sukawati No.27, Batubulan, Kec. Sukawati, Kabupaten Gianyar, Bali 80582, Indonesia",https://maps.google.com/?cid=10942066087329240659,OPERATIONAL,+62 857-9810-5964,restaurant,"restaurant, food",4.8,8,
ChIJiQW9zkA_0i0R8GI3Kms22jk,Rice field house,-8.6046403,115.2604267,"Jl. Teratai Blk. II No.32, Batubulan, Kec. Sukawati, Kabupaten Gianyar, Bali 80582, Indonesia",https://maps.google.com/?cid=4168704238982488816,OPERATIONAL,,bed_and_breakfast,"bed_and_breakfast, lodging",,,
ChIJj_B1UUo-0i0RuQlwtGcGLoU,Rumah Makan Minang Batubulan,-8.603674,115.257458,"97W4+GXP, Jl. Raya Celuk, Batubulan, Kec. Sukawati, Kabupaten Gianyar, Bali 80582, Indonesia",https://maps.google.com/?cid=9596614898451745209,OPERATIONAL,+62 819-1620-0378,indonesian_restaurant,"indonesian_restaurant, breakfast_restaurant, restaurant, food",4.1,117,
ChIJlyjDF0U_0i0RsWBrIPjrQMc,Semesta Bali Villa,-8.6031092,115.2625872,"Jl. Klaci Gg. Mawar, Batubulan, Kec. Sukawati, Kabupaten Gianyar, Bali 80582, Indonesia",https://maps.google.com/?cid=14357735062985466033,OPERATIONAL,+62 877-6018-7201,hotel,"hotel, lodging",5,1,
ChIJR3TVqEs-0i0RUEDKMQTvYWQ,Warung Banyuwangi,-8.603885199999999,115.25652649999999,"Jl. Raya Celuk, Batubulan, Kec. Sukawati, Kabupaten Gianyar, Bali 80582, Indonesia",https://maps.google.com/?cid=7233325277827973200,OPERATIONAL,+62 858-8000-8095,indonesian_restaurant,"indonesian_restaurant, restaurant, food",4.3,64,PRICE_LEVEL_INEXPENSIVE
ChIJ8SCH5J0_0i0RsNoPaaes3Q0,CREPESIGNATURE,-8.603334499999999,115.2581429,"Jl. Celuk Sukawati No.57, Batubulan, Kec. Sukawati, Kabupaten Gianyar, Bali 80582, Indonesia",https://maps.google.com/?cid=999144527368280752,OPERATIONAL,,restaurant,"restaurant, food, store",4.2,5,
ChIJiZ3rAW0_0i0RvqAh9yTqaA4,Ayam Potong Batubulan-Indobendul,-8.608760199999999,115.25912459999999,"Gg. Angrek No.3, Batubulan, Kec. Sukawati, Kabupaten Gianyar, Bali 80582, Indonesia",https://maps.google.com/?cid=1038337158594797758,OPERATIONAL,+62 819-9921-3368,farm,"restaurant, farm, food",3.7,3,
ChIJ3VgqepQ_0i0Rlv4Oyfb6Gg8,Kos Daniswara,-8.6043861,115.26073869999998,"Perum Nuansa Indah, Jl. Teratai Gg. Sandat Blk. 1 No.23, Celuk, Kec. Sukawati, Kabupaten Gianyar, Bali 80582, Indonesia",https://maps.google.com/?cid=1088458197805498006,OPERATIONAL,+62 813-3746-3591,motel,"motel, lodging",5,1,
