id,name,latitude,longitude,address,url,status,phone,primary-type,types,rating,rating-count,price-level
ChIJ5590WqEI0i0RPILpI_XrOGo,TEGA TRAC (Tegeh Agung Training Champ),-8.4673267,115.5866342,"GHMP+3M6, Pertima, Karangasem, Karangasem Regency, Bali 80811, Indonesia",https://maps.google.com/?cid=7654127004818178620,OPERATIONAL,+62 815-2906-8580,sports_complex,"sports_complex, lodging",5,2,
ChIJXXdQKA4J0i0RhkNsBkrqRlQ,KUBU GRIYA DAYUH,-8.464061599999999,115.58636759999999,"GHPP+9GH, Jl. Raya Bungaya, Bungaya, Kec. Bebandem, Kabupaten Karangasem, Bali, Indonesia",https://maps.google.com/?cid=6072798751211930502,OPERATIONAL,,hiking_area,"hiking_area, park",4,1,
ChIJkQa63aEJ0i0Rd2A84E36EZ4,Zona iPhone II,-8.4637026,115.58674859999999,"GHPP+GM9, Jl. Raya Bungaya, Bungaya, Kec. Bebandem, Kabupaten Karangasem, Bali 80811, Indonesia",https://maps.google.com/?cid=11390160144978174071,OPERATIONAL,,private_guest_room,"private_guest_room, lodging",3,1,
ChIJqzwu2CkJ0i0RK3w0wq48MlU,De roy ulun dese,-8.4654823,115.5897068,"GHMQ+RV4, Jl. Raya Bungaya, Pertima, Kec. Karangasem, Kabupaten Karangasem, Bali 80811, Indonesia",https://maps.google.com/?cid=6139035963339602987,OPERATIONAL,+62 812-4614-2971,lodging,lodging,5,1,
ChIJ88ZztWkJ0i0RgPdDcDaNoYA,"Tempajang, Pak Lenyep",-8.4647629,115.58891199999998,"GHPQ+3HV, Bungaya, Bebandem, Karangasem Regency, Bali, Indonesia",https://maps.google.com/?cid=9268844773056444288,OPERATIONAL,,park,park,,,
ChIJl1CbwEAH0i0R2XzWkwzZrKE,Jaki,-8.460763199999999,115.58814689999998,"GHQQ+M7R, Jl. Sudirman, Karangasem, Kec. Karangasem, Kabupaten Karangasem, Bali 80813, Indonesia",https://maps.google.com/?cid=11649924984143772889,CLOSED_TEMPORARILY,,restaurant,"restaurant, food",,,
