id,name,latitude,longitude,address,url,status,phone,primary-type,types,rating,rating-count,price-level
ChIJoyu2LZEc0i0RqAODXHdhJ2U,Pura Dalem Puri,-8.3790399,115.44346219999998,"Jl. Raya Menanga No.11, Besakih, Kec. Rendang, Kabupaten Karangasem, Bali 80863, Indonesia",https://maps.google.com/?cid=7288901687203529640,OPERATIONAL,,hindu_temple,"hindu_temple, tourist_attraction, place_of_worship",4.7,1173,
ChIJw6ctXpcc0i0Rru73jDwk5Kg,Puri Karang Besakih,-8.3816069,115.4451352,"Jalan Raya Besakih, JC9W+932, Besakih, Tirtagangga, Besakih, Kec. Rendang, Kabupaten Karangasem, Bali 80863, Indonesia",https://maps.google.com/?cid=12169891935543619246,OPERATIONAL,+62 857-9214-5695,hotel,"hotel, lodging",4.5,88,
ChIJacJ5NnId0i0R7VAEflmI27o,Candra homestay besakih,-8.378041,115.449595,"JCCX+QRH, Besakih, Rendang, Karangasem Regency, Bali 80863, Indonesia",https://maps.google.com/?cid=13464505428901908717,OPERATIONAL,,private_guest_room,"private_guest_room, lodging",4.4,9,
ChIJMabjq5cc0i0RscpZuVVRBDM,Pura Manik Mas,-8.379336,115.44702050000001,"Besakih, Rendang, Karangasem Regency, Bali 80863, Indonesia",https://maps.google.com/?cid=3676152624464906929,OPERATIONAL,+62 853-3307-4321,hindu_temple,"hindu_temple, tourist_attraction, place_of_worship",4.8,37,
ChIJBTgw5JYc0i0R9Vf4UsgxKjM,Pura Titi Gonggang,-8.3789512,115.44564189999998,"Besakih, Rendang, Karangasem Regency, Bali 80863, Indonesia",https://maps.google.com/?cid=3686813981411399669,OPERATIONAL,+62 823-3919-8076,hindu_temple,"hindu_temple, tourist_attraction, place_of_worship",5,5,
ChIJBZ000QQd0i0RoTCNmxUUgfQ,Warung Ketut Garing,-8.3790359,115.4488795,"JCCX+9HJ, Jl. Raya Besakih, Besakih, Kec. Rendang, Kabupaten Karangasem, Bali 80863, Indonesia",https://maps.google.com/?cid=17618385300286681249,OPERATIONAL,+62 857-9287-9040,restaurant,"restaurant, food",4.9,7,
ChIJ38Twa5sd0i0R6IM4bZteMVc,Warung Makan Adi Grosir,-8.3772209,115.449235,"Unnamed Road, JCFX+4M9, Besakih, Rendang, Karangasem Regency, Bali 80863, Indonesia",https://maps.google.com/?cid=6282906976803914728,OPERATIONAL,+62 813-3708-8855,indonesian_restaurant,"indonesian_restaurant, restaurant, food",5,4,
ChIJE2EOMI0d0i0RtXQrmcAiY1I,MINI BOGA BESAKIH,-8.377715799999999,115.44963949999998,"Besakih, Rendang, Karangasem Regency, Bali 80863, Indonesia",https://maps.google.com/?cid=5936626944403272885,OPERATIONAL,+62 852-3744-6677,indonesian_restaurant,"indonesian_restaurant, restaurant, food",4.9,16,
ChIJ9agdi08d0i0RlLMT7woU4A4,Besakih Balinese Coffee,-8.379080499999999,115.44770939999998,"JCCX+938, Besakih, Rendang, Karangasem Regency, Bali 80863, Indonesia",https://maps.google.com/?cid=1071878748507452308,OPERATIONAL,,coffee_shop,"coffee_shop, cafe, store, food",5,3,
ChIJ82My0HUd0i0Rl_RciXPPJbc,Warung Wayan timpen,-8.3793166,115.44420319999999,"Jl. Raya Menanga No.11, Besakih, Kec. Rendang, Kabupaten Karangasem, Bali 80863, Indonesia",https://maps.google.com/?cid=13197182378211865751,OPERATIONAL,,restaurant,"restaurant, food",,,
ChIJtSgARYod0i0RyZDltfCZvBg,Warung Kak Dalem,-8.3778872,115.44483329999998,"JCCV+RWW, Besakih, Rendang, Karangasem Regency, Bali 80863, Indonesia",https://maps.google.com/?cid=1782468811654795465,OPERATIONAL,,restaurant,"restaurant, food",,,
ChIJn1ltnxId0i0RbXFDZ20iLvY,Warung Makan SAKA,-8.378580099999999,115.4481951,"Besakih, Rendang, Karangasem Regency, Bali 80863, Indonesia",https://maps.google.com/?cid=17739153835538215277,OPERATIONAL,,restaurant,"restaurant, food",5,1,
ChIJ-ZWHToUd0i0RMiCNP8g9NIc,bali 389,-8.3787439,115.44777089999998,"JCCX+G42, Jl. Entry Pura Besakih, Besakih, Kec. Rendang, Kabupaten Karangasem, Bali 80863, Indonesia",https://maps.google.com/?cid=9742479824178192434,OPERATIONAL,,restaurant,"restaurant, food",,,
ChIJw7fELO4d0i0RRa-foCSOzg4,Bedeng PP Besakih,-8.3770803,115.4459389,"Jl. Raya Menanga No.19, Besakih, Kec. Rendang, Kabupaten Karangasem, Bali 80863, Indonesia",https://maps.google.com/?cid=1066946449698172741,OPERATIONAL,,park,park,4.7,7,
ChIJxWd3pc0d0i0REgd8KpjhOuQ,Warung DANAR,-8.379584099999999,115.44421220000001,"Jl. Raya Menanga No.11, Besakih, Kec. Rendang, Kabupaten Karangasem, Bali 80863, Indonesia",https://maps.google.com/?cid=16445705032960837394,OPERATIONAL,,indonesian_restaurant,"indonesian_restaurant, restaurant, food",,,
ChIJN_1jDwgd0i0RBOjFFBZAZeY,bali 388,-8.378995300000001,115.447824,"JCCX+C44, Jl. Entry Pura Besakih, Besakih, Kec. Rendang, Kabupaten Karangasem, Bali 80863, Indonesia",https://maps.google.com/?cid=16601746064953174020,OPERATIONAL,,restaurant,"restaurant, food",1,1,
ChIJwUk3JpQc0i0Re5-8Filb4Dc,Besakih боковая дорога,-8.3766718,115.44596430000001,"JCFW+89P, Jl. Raya Menanga, Besakih, Kec. Rendang, Kabupaten Karangasem, Bali 80863, Indonesia",https://maps.google.com/?cid=4026318298902470523,OPERATIONAL,,museum,museum,4.8,25,
ChIJF0jxV5cc0i0RAOOOSAMOcSI,Igusti Ngurah Wardana Sudiana,-8.3819945,115.44440739999999,"lingk poh udang no5x, Jl. Raya Besakih, Besakih, Kec. Rendang, Kabupaten Karangasem, Bali 80863, Indonesia",https://maps.google.com/?cid=2481780276922868480,OPERATIONAL,+62 813-3704-0436,,lodging,3.5,2,
ChIJSxigqXgd0i0RfRkpBihhzDs,Villa Kubu,-8.3758871,115.4470363,"JCFW+JRV, Delod setra adat, Besakih, Kec. Rendang, Kabupaten Karangasem, Bali 80863, Indonesia",https://maps.google.com/?cid=4308925768016664957,OPERATIONAL,,private_guest_room,"private_guest_room, lodging",5,1,
ChIJz4Xhwmsd0i0RQ2ZOvCyhs_k,Warung Lalapan Diah,-8.376943599999999,115.44468379999999,"JCFV+6VF, Jl. Raya Besakih, Besakih, Kec. Rendang, Kabupaten Karangasem, Bali 80863, Indonesia",https://maps.google.com/?cid=17992902149785151043,OPERATIONAL,+62 857-9282-5332,indonesian_restaurant,"indonesian_restaurant, restaurant, food",,,
