id,name,latitude,longitude,address,url,status,phone,primary-type,types,rating,rating-count,price-level
ChIJG9OnE8Zh0S0REih00wg-Yn4,Planet Bar & Karaoke,-8.3532578,114.584868,"JHWM+MWX, Baluk, Negara, Jembrana Regency, Bali 82218, Indonesia",https://maps.google.com/?cid=9106909604124829714,OPERATIONAL,+62 819-3634-3413,bar,bar,4.1,16,
ChIJ6yKmLYJh0S0RqoheHWHtLnM,Dapur Ibu,-8.3568084,114.5842308,"Perumahan Huma Lestari No.82, Baluk, Kec. Negara, Kabupaten Jembrana, Bali, Indonesia",https://maps.google.com/?cid=8299832164650748074,OPERATIONAL,+62 878-7500-7008,indonesian_restaurant,"indonesian_restaurant, restaurant, food",5,1,
ChIJewuZEAlh0S0RxFOzRZRbtUQ,Mie Ayam Pak Kumis,-8.3565632,114.58399969999999,"Perum. Huma Lestari No.43, Banjar Anyar, Baluk, Kec. Negara, Kabupaten Jembrana, Bali 82218, Indonesia",https://maps.google.com/?cid=4950964057746396100,OPERATIONAL,,breakfast_restaurant,"breakfast_restaurant, restaurant, food",5,1,
ChIJscjaPyBh0S0RIY4TX5nV3xc,Pondok Penida,-8.3575289,114.58422949999999,"JHRM+XMQ, Baluk, Negara, Jembrana Regency, Bali 82218, Indonesia",https://maps.google.com/?cid=1720328437380648481,OPERATIONAL,,cottage,"cottage, lodging",,,
ChIJ_6HngsVh0S0RHrpWq25g5H4,eddy ono punya,-8.356446,114.58426879999999,"JHVM+CPC, Baluk, Negara, Jembrana Regency, Bali 82218, Indonesia",https://maps.google.com/?cid=9143539171906206238,OPERATIONAL,+62 819-1332-3818,hotel,"hotel, lodging",4,2,
ChIJazjaJ6hh0S0RaK4loXm0o_Y,Warung Murtama,-8.3555832,114.5886211,"JHVQ+QC9, Baluk, Negara, Jembrana Regency, Bali 82218, Indonesia",https://maps.google.com/?cid=17772246989021752936,OPERATIONAL,+62 887-0322-9160,restaurant,"restaurant, food",2.3,4,
ChIJ73eKXgBh0S0R0wyjlDInKh0,Dex erick,-8.3562158,114.5884347,"JHVQ+M4H, Baluk, Negara, Jembrana Regency, Bali 82218, Indonesia",https://maps.google.com/?cid=2101535274317319379,OPERATIONAL,,park,park,,,
ChIJy1gJzVxh0S0Ro7tlug9wVnE,Rumah yoga Mahendra,-8.3560067,114.5835267,"Unnamed Road, JHVM+HCR, Baluk, Kec. Negara, Kabupaten Jembrana, Bali 82218, Indonesia",https://maps.google.com/?cid=8166838187137022883,OPERATIONAL,,,lodging,5,1,
