id,name,latitude,longitude,address,url,status,phone,primary-type,types,rating,rating-count,price-level
ChIJUStBPIWb0S0RqM-bGXQn490,Mie Gacoan Singaraja,-8.1194157,115.07373199999999,"Jl. A. Yani No.191, Banyuasri, Kec. Buleleng, Kabupaten Buleleng, Bali 81119, Indonesia",https://maps.google.com/?cid=15988666481694724008,OPERATIONAL,+62 895-3502-27111,restaurant,"restaurant, food",4.5,3675,PRICE_LEVEL_INEXPENSIVE
ChIJJ_k0qmua0S0RUKI5YmF3waw,Hotel Mandari,-8.1180757,115.0734535,"V3JF+Q98, Jl. Pantai Asri, Banyuasri, Kec. Buleleng, Kabupaten Buleleng, Bali 81119, Indonesia",https://maps.google.com/?cid=12448362105172238928,OPERATIONAL,+62 362 3303100,hotel,"hotel, lodging",4.2,197,
ChIJQ3syzGua0S0Rq9dCRiqEftc,OYO 91042 Hawaina Hotel,-8.119523299999999,115.07362710000001,"Jl. A. Yani No.194A, Baktiseraga, Kec. Buleleng, Kabupaten Buleleng, Bali 81119, Indonesia",https://maps.google.com/?cid=15527993882322327467,OPERATIONAL,+62 21 29707601,hotel,"hotel, lodging",3.5,102,
ChIJny0JbQ2a0S0RInO-Q8vLfdc,Rumah Makan Padang Minang Saiyo,-8.120051499999999,115.0733338,"Jl. A. Yani No.201, singaraja, Kec. Buleleng, Kabupaten Buleleng, Bali 81119, Indonesia",https://maps.google.com/?cid=15527791164118692642,OPERATIONAL,+62 853-3782-8866,indonesian_restaurant,"indonesian_restaurant, restaurant, food",4.5,390,
ChIJ4Tg8F_Cb0S0R07ALtqgmlYI,"KOST ""Nirmala GUEST HOUSE"" wedapuran",-8.117956000000001,115.07704,"V3JG+VMP, Jl. A. Yani No.111, Banyuasri, Kec. Buleleng, Kabupaten Buleleng, Bali 81116, Indonesia",https://maps.google.com/?cid=9409469502511100115,OPERATIONAL,+62 812-3957-9988,,lodging,2.6,17,
ChIJgbBgei-b0S0RlqvHUSxPB_Q,BAKSO MERCON ASELOLE,-8.1201144,115.0762654,"Jl. Jalak Putih 1, Banyuasri, Kec. Buleleng, Kabupaten Buleleng, Bali 81119, Indonesia",https://maps.google.com/?cid=17584110321860586390,OPERATIONAL,+62 819-4991-2881,indonesian_restaurant,"indonesian_restaurant, restaurant, food",4.6,85,PRICE_LEVEL_INEXPENSIVE
ChIJ14uqnmua0S0RhqeKb19H_po,Seafood Cak Ibad,-8.1180072,115.07511530000001,"Banyuasri, Buleleng, Buleleng Regency, Bali 81119, Indonesia",https://maps.google.com/?cid=11168442601144231814,OPERATIONAL,+62 823-4009-2546,seafood_restaurant,"seafood_restaurant, meal_takeaway, indonesian_restaurant, restaurant, food",4.3,439,PRICE_LEVEL_INEXPENSIVE
ChIJ8x1k_Umb0S0RlrCmmIdZMio,Bubur Ayam Bandung AZZAHRA,-8.1202685,115.072859,"V3HF+V4X, Jl. A. Yani, Kaliuntu, Kec. Buleleng, Kabupaten Buleleng, Bali, Indonesia",https://maps.google.com/?cid=3040591137345024150,OPERATIONAL,,restaurant,"restaurant, food",4.8,32,
ChIJjQN-nbWb0S0RC-aPgk6CAOo,Lidah Lokal Guest House,-8.1164811,115.0746095,"Jl. Pidada Gg. 3, Banyuasri, Kec. Buleleng, Kabupaten Buleleng, Bali 81116, Indonesia",https://maps.google.com/?cid=16861620278584665611,OPERATIONAL,+62 877-6298-7674,lodging,lodging,4.1,21,
ChIJpSvdH0-b0S0RyAfDwP7_Pdc,MISS STEAK SINGARAJA,-8.1202969,115.0728189,"Jl. Ahmad Yani Barat No.216, Baktiseraga, SINGARAJA, Kabupaten Buleleng, Bali 81119, Indonesia",https://maps.google.com/?cid=15509834161354639304,OPERATIONAL,+62 878-6322-0919,indonesian_restaurant,"indonesian_restaurant, steak_house, restaurant, food",4.7,82,
ChIJddjxa-k_0i0RiLhevYVp-Pk,Kost Pidada Mas Graha,-8.1172033,115.07544289999998,"Jl. Pidada No.2A, Banyuasri, Kec. Buleleng, Kabupaten Buleleng, Bali 80111, Indonesia",https://maps.google.com/?cid=18012262732796967048,OPERATIONAL,+62 878-6227-0292,,lodging,4.4,9,
ChIJxZZJMweb0S0Rq_7px7d9kdI,Sewa mobil singaraja,-8.1226213,115.07410639999999,"Jl. Jalak Putih No.2, Banyuasri, Kec. Buleleng, Kabupaten Buleleng, Bali 81116, Indonesia",https://maps.google.com/?cid=15173046847874399915,OPERATIONAL,+62 819-9972-0653,car_rental,car_rental,4.5,19,
ChIJbyy9A3ib0S0RAQing_AM3Ng,Kos Buleleng Singaraja Dewi Sita No. 9 (GRIYA MANJA DEWI SITA),-8.1200714,115.07474189999999,"Jl. A. Yani Gg. Dewi Sita No.9, Banyuasri, Kec. Buleleng, Kabupaten Buleleng, Bali 81151, Indonesia",https://maps.google.com/?cid=15626379034209224705,OPERATIONAL,+62 812-4691-915,,lodging,4.6,27,
ChIJG1jNTUeb0S0RieI0pIpk7kc,midnightcafe singaraja,-8.119017399999999,115.07400669999998,"Jl. Ahmad Yani Barat No.129, singaraja bali, Kec. Buleleng, Kabupaten Buleleng, Bali 81119, Indonesia",https://maps.google.com/?cid=5183190767773213321,OPERATIONAL,+62 896-4788-7881,cafe,"cafe, food",4.3,26,
ChIJMfYWsYWb0S0R6GPfgrwpEaI,TONGSENG DAN SATE KAMBING SINGARAJA,-8.1202911,115.0728321,"Jl. A. Yani No.216, Baktiseraga, Kec. Buleleng, Kabupaten Buleleng, Bali 81119, Indonesia",https://maps.google.com/?cid=11678161198374675432,OPERATIONAL,,restaurant,"restaurant, food",4.7,55,
ChIJSc3Pbwyb0S0RH3K3P63CQbU,Soto Ayam Lamongan dan Lalapan Pak Kumis Singaraja,-8.1185952,115.0748633,"Jl. A. Yani, Banyuasri, Kec. Buleleng, Kabupaten Buleleng, Bali 81119, Indonesia",https://maps.google.com/?cid=13060934443705266719,OPERATIONAL,+62 813-3893-5394,restaurant,"restaurant, indonesian_restaurant, food",4.5,33,
ChIJX5bn-_BB0i0R1nPvUlD4-WI,Cekelin Bali,-8.1238291,115.077197,"Ayodya Residence, Jl. Kumba Karna No.LC 10 Blok D No. 2, Banyuasri, Kec. Buleleng, Kabupaten Buleleng, Bali 81119, Indonesia",https://maps.google.com/?cid=7132004508790387670,OPERATIONAL,+62 815-2943-3629,store,"discount_store, wholesaler, indonesian_restaurant, restaurant, food, store",4.9,27,
ChIJNdICmGya0S0RsaHa0RVlAL4,Bakso Haram Singaraja,-8.116353100000001,115.07691380000001,"Jl. Singaraja-Gilimanuk, Banyuasri, Kec. Buleleng, Kabupaten Buleleng, Bali 81116, Indonesia",https://maps.google.com/?cid=13691054011595792817,OPERATIONAL,+62 878-7597-7748,indonesian_restaurant,"indonesian_restaurant, restaurant, food",4.3,237,PRICE_LEVEL_INEXPENSIVE
ChIJ2-oA6Umb0S0R1oABtiTnJ94,KOS IBU SAS,-8.1187123,115.08142529999999,"Banyuasri, Buleleng, Buleleng Regency, Bali 81116, Indonesia",https://maps.google.com/?cid=16008017545370108118,OPERATIONAL,+62 858-5871-4053,,lodging,4.1,9,
ChIJke5qpleb0S0RFJx6GJOv5K8,Warung Makan Mustri,-8.1199713,115.0734748,"Jl. A. Yani No.199, Baktiseraga, Kec. Buleleng, Kabupaten Buleleng, Bali 81119, Indonesia",https://maps.google.com/?cid=12674448297633160212,OPERATIONAL,+62 878-6315-0567,restaurant,"restaurant, food",4.6,12,
