id,name,latitude,longitude,address,url,status,phone,primary-type,types,rating,rating-count,price-level
ChIJJ12Jg2FE0i0RSfi2OuDEMTM,FOX Hotel Jimbaran Beach,-8.7726355,115.1709358,"Jl. Yoga Perkanthi No.3, Jimbaran, Kec. Kuta Sel., Kabupaten Badung, Bali 80361, Indonesia",https://maps.google.com/?cid=3688946037129934921,OPERATIONAL,+62 361 4725688,hotel,"hotel, gym, wedding_venue, spa, event_venue, lodging, health, restaurant, food",4.4,1281,
ChIJp7V6o2FE0i0R0Vpk0XMjS4M,Cuca Restaurant,-8.772611,115.170042,"Jl. Yoga Perkanthi, Jimbaran, Kec. Kuta Sel., Kabupaten Badung, Bali 80364, Indonesia",https://maps.google.com/?cid=9460694422563085009,OPERATIONAL,+62 812-3687-0486,restaurant,"bar, restaurant, food",4.8,4672,PRICE_LEVEL_EXPENSIVE
ChIJV_WTiE9F0i0RLFnQaqbb0Lk,Gourmet Garage,-8.768836,115.1772147,"Jl. Bypass Ngurah Rai No.18, Jimbaran, Kec. Kuta Sel., Kabupaten Badung, Bali 80361, Indonesia",https://maps.google.com/?cid=13389443199975577900,OPERATIONAL,+62 811-3821-9610,restaurant,"restaurant, ice_cream_shop, liquor_store, grocery_store, furniture_store, home_improvement_store, home_goods_store, wholesaler, food, store",4.5,724,PRICE_LEVEL_MODERATE
ChIJTd5PpGZE0i0R51Ml_PXO47Q,Bali Breezz Hotel,-8.7688537,115.17070509999999,"Jl. Pantai Sari No.23, Jimbaran, Kec. Kuta Sel., Kabupaten Badung, Bali 80361, Indonesia",https://maps.google.com/?cid=13034489302432961511,OPERATIONAL,+62 361 708524,hotel,"hotel, lodging",4.2,575,
ChIJ75ryhGFE0i0Rfh7Ey_DUwQs,Anja Jimbaran,-8.7723075,115.1699793,"Jl. Yoga Perkanthi No.2, Jimbaran, Kec. Kuta Sel., Kabupaten Badung, Bali 80361, Indonesia",https://maps.google.com/?cid=847192335598231166,OPERATIONAL,+62 361 3352068,hotel,"hotel, lodging",4.5,416,
ChIJ______8j0i0RcidkJGM1Bes,Keraton Jimbaran Resort,-8.7717555,115.17077419999998,"Jl. Mrajapati, Jimbaran, Kec. Kuta Sel., Kabupaten Badung, Bali 80361, Indonesia",https://maps.google.com/?cid=16935000673725196146,OPERATIONAL,+62 361 701961,hotel,"hotel, lodging",4.3,828,
ChIJa_lNhWFE0i0RK1c2DJXjtRs,Kayumanis Resto Jimbaran,-8.772637,115.17026,"Jl. Yoga Perkanthi, Jimbaran, Kec. Kuta Sel., Kabupaten Badung, Bali 80361, Indonesia",https://maps.google.com/?cid=1996752239103203115,OPERATIONAL,+62 817-7570-5777,indonesian_restaurant,"indonesian_restaurant, restaurant, food",4.7,731,PRICE_LEVEL_MODERATE
ChIJKScANWFE0i0RemOZChkzmQU,The Open House Bali Hotel,-8.769916799999999,115.16992179999998,"Jl. Pemelisan Agung No.25, Jimbaran, Kec. Kuta Sel., Kabupaten Badung, Bali 80361, Indonesia",https://maps.google.com/?cid=403409824271393658,OPERATIONAL,+62 361 709160,hotel,"hotel, resort_hotel, spa, lodging, restaurant, food",4.5,433,
ChIJpYrry2ZE0i0RA4DCs_5_wFA,AKUA de Bilbao,-8.769818899999999,115.16934279999998,"Jl. Pemelisan Agung No.27, Jimbaran, Kec. Kuta Sel., Kabupaten Badung, Bali 80361, Indonesia",https://maps.google.com/?cid=5818791450476969987,OPERATIONAL,+62 816-800-542,spanish_restaurant,"spanish_restaurant, coffee_shop, cafe, restaurant, food, store",4.6,684,PRICE_LEVEL_MODERATE
ChIJ1U6kC49F0i0R77uzVkIhZeI,PIZZA CO&NAK,-8.7713811,115.17611,"Jl. Ulun Siwi No.21, Jimbaran, Kec. Kuta Sel., Kabupaten Badung, Bali 80361, Indonesia",https://maps.google.com/?cid=16313481794025667567,OPERATIONAL,+62 812-3815-5201,pizza_restaurant,"pizza_restaurant, coffee_shop, cafe, restaurant, food, store",4.9,88,
ChIJR7oAsLBF0i0RCZLSP64b43k,Red Dragon Ramen Jimbaran,-8.771247599999999,115.1777378,"Jl. Bypass Ngurah Rai, Jimbaran, Kec. Kuta Sel., Kabupaten Badung, Bali 80361, Indonesia",https://maps.google.com/?cid=8782894133511623177,OPERATIONAL,+62 361 9587015,ramen_restaurant,"ramen_restaurant, japanese_restaurant, restaurant, food",4.8,165,
ChIJm9yuBGRE0i0RmyGhXddOFng,Villa Puri Royan,-8.7688594,115.17030679999998,"Jl. Pantai Sari No.25, Jimbaran, Kec. Kuta Sel., Kabupaten Badung, Bali 80361, Indonesia",https://maps.google.com/?cid=8653190420934762907,OPERATIONAL,+62 21 29706666,hotel,"hotel, bed_and_breakfast, lodging",4,213,
ChIJP6gTktlF0i0RggZ3Wh9iaXw,JEstate Bali,-8.7725185,115.1727713,"Jl. Uluwatu I, Jimbaran, Kec. Kuta Sel., Kabupaten Badung, Bali 80364, Indonesia",https://maps.google.com/?cid=8964804420058941058,OPERATIONAL,,hotel,"hotel, lodging",4.9,40,
ChIJ-77ElmNE0i0ROgA8RJwNsfg,Pura Ulun Siwi Kayangan Jagat,-8.7708815,115.1733524,"65HF+J8X, Jl. Raya Uluwatu, Jimbaran, Kec. Kuta Sel., Kabupaten Badung, Bali 80361, Indonesia",https://maps.google.com/?cid=17920119357094756410,OPERATIONAL,,hindu_temple,"hindu_temple, tourist_attraction, place_of_worship",4.6,241,
ChIJV8ohyXlF0i0RzhYbo3QMCKc,"BABI GULING"" KAK PASEK""",-8.771405399999999,115.17597570000001,"Jl. Ulun Siwi No.19, Jimbaran, Kec. Kuta Sel., Kabupaten Badung, Bali 80361, Indonesia",https://maps.google.com/?cid=12035883699239851726,OPERATIONAL,,brunch_restaurant,"brunch_restaurant, restaurant, food",4.8,99,
ChIJF2AI58RG0i0RYAoBwTGVmxM,Jimbaran Bay Villas,-8.7665504,115.17206840000001,"Jl. Segara Wangi, Gang 3 No. 1, Kedonganan, Badung, Kabupaten Badung, Bali 80361, Indonesia",https://maps.google.com/?cid=1412886949034789472,OPERATIONAL,+62 877-7274-3878,,"hotel, lodging",4.5,65,
ChIJ22CsGapF0i0Razz6RJ6A3YQ,Denays Guest House Jimbaran,-8.768386699999999,115.1762272,"JALAN BANTAS KANGIN No 6 JIMBARAN KUTA SELATAN KABUPATEN BADUNG, Jimbaran, Kec. Kuta Sel., BADUNG SELATAN, Bali 80361, Indonesia",https://maps.google.com/?cid=9573949800109980779,OPERATIONAL,,guest_house,"guest_house, lodging",4.1,25,
ChIJ7XDe0mNE0i0RB3DwPNRXt-Y,The Celuk Home Stay Jimbaran,-8.7719512,115.171708,"Jl. Mrajapati No.3, Jimbaran, Kec. Kuta Sel., Kabupaten Badung, Bali 80361, Indonesia",https://maps.google.com/?cid=16624853118528548871,OPERATIONAL,+62 853-3824-4945,private_guest_room,"private_guest_room, lodging",4.1,48,
ChIJ3cvwYxFF0i0RLpFqp1QgSMg,Warung The Bangsal,-8.7690261,115.16931629999999,"Jl. Pantai Jimbaran No.3, Jimbaran, Kec. Kuta Sel., Kabupaten Badung, Bali 80361, Indonesia",https://maps.google.com/?cid=14431820553866875182,OPERATIONAL,+62 812-3713-6921,seafood_restaurant,"seafood_restaurant, restaurant, food",4.6,125,
ChIJcaftutJF0i0RTAcOr7z-2lc,Warung Dapur Sirat ( Seafood Bakar & masakan indonesia),-8.7734334,115.17223070000001,"Jl. Raya Uluwatu, Jimbaran, Kec. Kuta Sel., Kabupaten Badung, Bali 80361, Indonesia",https://maps.google.com/?cid=6330652312566892364,OPERATIONAL,+62 812-4637-9929,seafood_restaurant,"seafood_restaurant, restaurant, food",4.6,362,
