id,name,latitude,longitude,address,url,status,phone,primary-type,types,rating,rating-count,price-level
ChIJ2VFrTBUR0i0RyIPjCGb-Mg0,Kertha Gosa Park,-8.5357626,115.40359339999999,"Jl. Kenanga No.11, Semarapura Kelod, Kec. Klungkung, Kabupaten Klungkung, Bali 80761, Indonesia",https://maps.google.com/?cid=951102185517843400,OPERATIONAL,,hindu_temple,"hindu_temple, tourist_attraction, historical_landmark, park, place_of_worship",4.5,3229,
ChIJ9cjN-z8R0i0RBwl-0jbavms,Lapangan Puputan Klungkung,-8.5357308,115.4017418,"Jl. Untung Suropati No.25, Semarapura Kelod, Kec. Klungkung, Kabupaten Klungkung, Bali 80711, Indonesia",https://maps.google.com/?cid=7763882736627878151,OPERATIONAL,,tourist_attraction,"tourist_attraction, park",4.6,1614,
ChIJ71d3QRUR0i0RByy-8IzhzmU,Puputan Klungkung monument,-8.5348317,115.403407,"FC83+397, Central Semarapura, Klungkung, Klungkung Regency, Bali 80761, Indonesia",https://maps.google.com/?cid=7336048838483782663,OPERATIONAL,,,tourist_attraction,4.7,799,
ChIJ723cqmwR0i0RlxUQK--WAks,Klungkung Royal Palace,-8.5357948,115.40293700000001,"Klungkung Royal Palace, JL. Diponegoro, Semarapura Kangin, 80751 Bali, Indonesia, Central Semarapura, Klungkung, Klungkung Regency, Bali 80761, Indonesia",https://maps.google.com/?cid=5405048456761841047,OPERATIONAL,,tourist_attraction,tourist_attraction,4.5,149,
ChIJK9Yxg10R0i0R9FOKrV1ztTQ,Alun - alun Ida I Dewa Agung Jambe,-8.535250099999999,115.4018102,"FC72+VPV, Jl. Untung Suropati, Semarapura Tengah, Kec. Klungkung, Kabupaten Klungkung, Bali, Indonesia",https://maps.google.com/?cid=3798068706937558004,OPERATIONAL,,tourist_attraction,tourist_attraction,5,2,
ChIJjXtS9j8R0i0RZgk2hVmMdJg,Balai Budaya Klungkung,-8.536296799999999,115.4013317,"Jl. Cempaka No.4, Semarapura Kelod, Kec. Klungkung, Kabupaten Klungkung, Bali 80761, Indonesia",https://maps.google.com/?cid=10985559707178371430,OPERATIONAL,,performing_arts_theater,"performing_arts_theater, event_venue",4.5,270,
ChIJ0Yxs4T8R0i0RNZ85AT9hRp8,Puri Agung Klungkung,-8.5351365,115.40226460000001,"Jl. Untung Suropati, Semarapura Tengah, Kec. Klungkung, Kabupaten Klungkung, Bali 80761, Indonesia",https://maps.google.com/?cid=11476967623631675189,OPERATIONAL,,historical_landmark,"historical_landmark, tourist_attraction",4.7,142,
ChIJ8a44uz4R0i0Ro13FpIFu0NQ,PAPILAS Coffee & Roastery - Klungkung,-8.5319485,115.3973362,"Jalan Ngurah Rai No. 27, Semarapura, Semarapura, Tengah, Semarapura Kauh, Kec. Klungkung, Kabupaten Klungkung, Bali 80713, Indonesia",https://maps.google.com/?cid=15334878234290773411,OPERATIONAL,+62 366 22658,cafe,"cafe, bakery, store, food",4.6,413,PRICE_LEVEL_MODERATE
ChIJS4_HgbYR0i0RFRJkwN01NUM,CERITA Coffee & Croissant,-8.536444999999999,115.39601990000001,"Jl. Flamboyan No.19, Semarapura Kelod, Kec. Klungkung, Kabupaten Klungkung, Bali 80715, Indonesia",https://maps.google.com/?cid=4842836200838664725,CLOSED_TEMPORARILY,,coffee_shop,"coffee_shop, cafe, store, food",4.3,28,
ChIJ09fl3jgR0i0RmZPHdZdGn40,Kemoning Klungkung,-8.5385312,115.39814859999998,"Jl. Jempiring No.24, Semarapura Kelod Kangin, Kec. Klungkung, Kabupaten Klungkung, Bali 80711, Indonesia",https://maps.google.com/?cid=10204952896974853017,OPERATIONAL,,tourist_attraction,tourist_attraction,4.4,124,
ChIJm27KeGoR0i0R-Rp0R6VpQT4,Museum Kertagosa,-8.5356217,115.40293100000001,"Jl. Anggrek No.20, Semarapura Kelod, Kec. Klungkung, Kabupaten Klungkung, Bali 80761, Indonesia",https://maps.google.com/?cid=4485982862427036409,OPERATIONAL,+62 823-3990-9966,museum,"museum, tourist_attraction",4.7,75,
ChIJJb1Kr2wR0i0RFjcg6fO5DuY,Godamn kitchen & bar,-8.535841399999999,115.4041839,"FC73+MMR, Semarapura Kelod Kangin, Klungkung, Klungkung Regency, Bali 80711, Indonesia",https://maps.google.com/?cid=16577391735636768534,OPERATIONAL,+62 812-3758-8275,hamburger_restaurant,"hamburger_restaurant, american_restaurant, restaurant, store, food",4.2,45,
ChIJ9zxNmHAR0i0RH2Mt8AR2ah8,D' Baruna Kost Klungkung,-8.5369187,115.3969134,"F97W+6QM, Gg. 2, Semarapura Kelod, Kec. Klungkung, Kabupaten Klungkung, Bali 80711, Indonesia",https://maps.google.com/?cid=2263751526288548639,OPERATIONAL,+62 812-3661-192,lodging,lodging,4.9,12,
ChIJt0kaoX0R0i0Rf6k6hahr7NE,Babi Guling Bu Dewa Restaurant,-8.5343184,115.3982569,"F98X+78C, Jl. Untung Suropati, Semarapura Kauh, Kec. Klungkung, Kabupaten Klungkung, Bali 80716, Indonesia",https://maps.google.com/?cid=15126583619964545407,OPERATIONAL,+62 815-2937-8577,indonesian_restaurant,"indonesian_restaurant, restaurant, food",4.3,88,
ChIJhZqBIj8R0i0R8f-Cm9XaG98,ACK Fried Chicken Klungkung I,-8.5342636,115.39785540000001,"Jl. Untung Suropati, Semarapura Tengah, Kec. Klungkung, Kabupaten Klungkung, Bali 80716, Indonesia",https://maps.google.com/?cid=16076683905801060337,OPERATIONAL,+62 817-4711-311,meal_takeaway,"fast_food_restaurant, meal_takeaway, restaurant, food",3.9,158,
ChIJnTTTuPsR0i0Rdrk-3p0Qbb0,Kedai Kopi nAu Klungkung,-8.5342487,115.39786360000001,"Jl. Untung Suropati, Semarapura Tengah, Kec. Klungkung, Kabupaten Klungkung, Bali 80716, Indonesia",https://maps.google.com/?cid=13649584315854403958,OPERATIONAL,+62 815-5048-160,coffee_shop,"coffee_shop, cafe, store, food",3.9,67,
ChIJJ9u-FgAR0i0RQ08KSimTl24,Jus Masa Lalu Klungkung,-8.534608,115.4039071,"Jl. Gajah Mada No.16, Semarapura Tengah, Kec. Klungkung, Kabupaten Klungkung, Bali 80761, Indonesia",https://maps.google.com/?cid=7968999871200513859,OPERATIONAL,+62 822-2096-3336,restaurant,"restaurant, food",4.7,26,
ChIJUecIPhUR0i0RbyF8INLPihg,Warung Makan Sate Kambing Madura Bu Safiah,-8.5345518,115.40427229999999,"Jl. Gn. Batukaru No.4, Semarapura Kelod Kangin, Kec. Klungkung, Kabupaten Klungkung, Bali 80716, Indonesia",https://maps.google.com/?cid=1768454305091428719,OPERATIONAL,+62 819-9991-6688,indonesian_restaurant,"indonesian_restaurant, restaurant, food",4.5,125,
ChIJWeTdN3ER0i0RAa9cCJQK8T0,BUBUR AYAM CIANJUR,-8.535774,115.39831009999997,"Jl. Gunung Batur, Semarapura Kelod Kangin, Kec. Klungkung, Kabupaten Klungkung, Bali 80761, Indonesia",https://maps.google.com/?cid=4463360336612601601,OPERATIONAL,,restaurant,"restaurant, food",4.5,4,
ChIJxTkyURUR0i0R662gaDwqh_k,Semarajaya Museum,-8.5355856,115.40257749999999,"FC73+Q28, Jl. Untung Suropati, Semarapura Kelod, Kec. Klungkung, Kabupaten Klungkung, Bali 80761, Indonesia",https://maps.google.com/?cid=17980386476241759723,OPERATIONAL,,museum,"museum, tourist_attraction",4.6,36,
