id,name,latitude,longitude,address,url,status,phone,primary-type,types,rating,rating-count,price-level
ChIJIcd7F6AQ0i0RuF3OuvRK_dU,Bukit Jambul Meat Ball,-8.4766322,115.40149939999999,"Jl. Raya Besakih, Pesaban, Kec. Rendang, Kabupaten Karangasem, Bali 80716, Indonesia",https://maps.google.com/?cid=15419563114153008568,OPERATIONAL,,indonesian_restaurant,"indonesian_restaurant, restaurant, food",4.4,49,PRICE_LEVEL_INEXPENSIVE
ChIJV7v0WKUb0i0ROJ52p3sly20,Warung Widari,-8.4745619,115.39990580000001,"G9GX+5XC, Jl. Raya Besakih, Pesaban, Kec. Rendang, Kabupaten Karangasem, Bali 80863, Indonesia",https://maps.google.com/?cid=7911458383427182136,OPERATIONAL,+62 813-3722-6920,restaurant,"restaurant, food",4,9,
ChIJrYnju4cb0i0Rc58VimVELA0,Warung Makan ardi sari,-8.473076599999999,115.40069,"GCG2+Q78, Jl. Raya Besakih, Pesaban, Kec. Rendang, Kabupaten Karangasem, Bali 80863, Indonesia",https://maps.google.com/?cid=949208824367390579,OPERATIONAL,,restaurant,"restaurant, food",4.3,3,
ChIJUe2tTQsa0i0Rj5ElcoikDB0,Dadie Pasek Kalungah Desa Pesaban,-8.4712715,115.40203419999999,"GCH2+FRV, Pesaban, Rendang, Karangasem Regency, Bali 80863, Indonesia",https://maps.google.com/?cid=2093228832758010255,OPERATIONAL,,museum,museum,,,
ChIJDxOQ3Tcb0i0RdNrLJligYYQ,Sumerta Dangkan gitgit,-8.472511899999999,115.40109679999999,"GCG2+XCX, Gang Kamboja Jl. Raya Besakih, Pesaban, Kec. Rendang, Kabupaten Karangasem, Bali 80863, Indonesia",https://maps.google.com/?cid=9539081786215881332,OPERATIONAL,+62 819-9914-4456,,lodging,,,
ChIJbcz_Gbwb0i0RyNgy1fGgYhM,Danu Homestay,-8.469574099999999,115.40217899999999,"Jl. Raya Besakih, Pesaban, Kec. Rendang, Kabupaten Karangasem, Bali 80863, Indonesia",https://maps.google.com/?cid=1396855794962716872,CLOSED_TEMPORARILY,+62 812-3922-5144,,lodging,,,
