id,name,latitude,longitude,address,url,status,phone,primary-type,types,rating,rating-count,price-level
ChIJhcp_e2Y90i0RblZwohaGVmM,Puri Saren Agung Taman,-8.4933757,115.225931,"G64G+WFV, Jalan Delod Pasar, Taman, Kec. Abiansemal, Kabupaten Badung, Bali 80352, Indonesia",https://maps.google.com/?cid=7158056089524655726,CLOSED_TEMPORARILY,+62 812-3933-8304,tourist_attraction,tourist_attraction,4.2,16,
ChIJ86oRFc880i0RvmJfM9HzCYA,Warung Lalapan Bali Ikan Bakar,-8.4962309,115.22015630000001,"Jl. Raya Punggul No.Br, Teguhan, Abiansemal,Badung, Kabupaten Badung, Bali 80352, Indonesia",https://maps.google.com/?cid=9226173391480775358,OPERATIONAL,+62 878-6226-6242,indonesian_restaurant,"indonesian_restaurant, restaurant, food",4,4,
ChIJmfNkzPw90i0RBcY0geejpTQ,Warung Pojok Bengawang,-8.4934659,115.2195993,"G649+JR9, Jalan Raya, Punggul, Kec. Abiansemal, Kabupaten Badung, Bali 80352, Indonesia",https://maps.google.com/?cid=3793618475830003205,OPERATIONAL,,restaurant,"restaurant, food",5,2,
ChIJx86Qm8g90i0Rou_YC0kNmMM,Warung Lalapan Rah Jordam,-8.4961595,115.22024219999999,"G63C+G3Q, Jalan Raya, Punggul, Kec. Abiansemal, Kabupaten Badung, Bali 80352, Indonesia",https://maps.google.com/?cid=14094029641238507426,OPERATIONAL,+62 878-6226-6242,restaurant,"restaurant, food",,,
ChIJc-StYMk90i0RH0hJM97wZDs,Sate babi jikparta,-8.4987412,115.22003039999998,"G62C+G22, Jl. Raya Jalan Banjar Padang, Punggul, Kec. Abiansemal, Kabupaten Badung, Bali 80352, Indonesia",https://maps.google.com/?cid=4279810383042660383,OPERATIONAL,+62 881-0383-00223,indonesian_restaurant,"indonesian_restaurant, restaurant, food",5,3,
ChIJ8SxKDsM90i0RFlDxdqIK544,Tugu Perjuangan Desa Punggul,-8.4936522,115.21964799999999,"G649+VQ6, Punggul, Abiansemal, Badung Regency, Bali 80352, Indonesia",https://maps.google.com/?cid=10297210765902434326,OPERATIONAL,,historical_landmark,historical_landmark,,,
ChIJna1DPgA90i0Ro3t51wByRGU,Rumah Yudha punggul,-8.4962898,115.2210896,"Jl. Jempiring No.33, Punggul, Kec. Abiansemal, Kabupaten Badung, Bali 80352, Indonesia",https://maps.google.com/?cid=7297082644187675555,OPERATIONAL,,hotel,"hotel, lodging",,,
ChIJd3VVIyc90i0RykEgPINE-lg,pondok paradise,-8.492687499999999,115.22618750000001,"G64G+WFV, Jalan Delod Pasar, Taman, Kec. Abiansemal, Kabupaten Badung, Bali 80352, Indonesia",https://maps.google.com/?cid=6411512349955473866,OPERATIONAL,+62 821-4608-8123,,lodging,5,3,
