id,name,latitude,longitude,address,url,status,phone,primary-type,types,rating,rating-count,price-level
ChIJVVVSRztD0i0RF6JnHroXko0,OYO 91207 Pondok Jepun Bali,-8.807423,115.202023,"Perum. Pd. Kampial Permai Jl. Dharmawangsa No.5, Benoa, Kec. Kuta Sel., Kabupaten Badung, Bali 80361, Indonesia",https://maps.google.com/?cid=10201242194089058839,OPERATIONAL,+62 818-0531-6510,hotel,"hotel, lodging",3.9,41,
ChIJ0dxrRU5D0i0ReAie_SBAldg,Ayam Bakar Bali Tulen Kampial,-8.805940399999999,115.20283830000001,"Jl. Dharmawangsa No.195, Benoa, Kec. Kuta Sel., Kabupaten Badung, Bali 80361, Indonesia",https://maps.google.com/?cid=15606450594160445560,OPERATIONAL,+62 815-2934-5794,restaurant,"restaurant, food",4.4,302,PRICE_LEVEL_INEXPENSIVE
ChIJN-QjG41D0i0R-korSUrZk00,WARUNG KAMPONG PRASMANAN,-8.8048749,115.20546749999998,"Jln raya kampial, nusa dua, Kec. Kuta Sel., Kabupaten Badung, Bali 80361, Indonesia",https://maps.google.com/?cid=5590050475575298810,OPERATIONAL,+62 813-3868-5244,restaurant,"restaurant, food",4.7,7,
ChIJHb5ACcdD0i0RDNpEcftO1RU,ArAriel Cozy Kosan,-8.8079219,115.20229329999998,"Jl. Dharmawangsa Perum. Pd. Kampial Permai, Nusa Dua, Kec. Kuta Sel., Kabupaten Badung, Bali 80363, Indonesia",https://maps.google.com/?cid=1573250486679951884,OPERATIONAL,+62 818-0544-6640,,lodging,5,3,
ChIJn8y77PJD0i0RCYtBYwBuavY,Kampial House 2 Bedrooms,-8.8108215,115.2024949,"Jalan dharmawangsa Kampial, Pondok Kampial A160, Benoa, Kec. Kuta Sel., Nusa Dua, Bali 80361, Indonesia",https://maps.google.com/?cid=17756125428805896969,OPERATIONAL,+62 878-6108-4145,hotel,"hotel, lodging",4.7,7,
ChIJzRw7YLdD0i0Rm0vQVnfJIWU,Nasi Uduk Ayam Bakar Madu Canaha,-8.8059861,115.2023105,"Benoa, South Kuta, Badung Regency, Bali 80361, Indonesia",https://maps.google.com/?cid=7287327186456955803,OPERATIONAL,+62 812-8121-1413,restaurant,"restaurant, indonesian_restaurant, food",4.9,51,
ChIJixfD6V9D0i0RfGnsoXLVOjw,Pondok Bamboo,-8.8086977,115.20240570000001,"Perum. Pd. Kampial Permai, Benoa, Kec. Kuta Sel., Kabupaten Badung, Bali 80361, Indonesia",https://maps.google.com/?cid=4340015879244507516,OPERATIONAL,+62 878-3005-6787,private_guest_room,"private_guest_room, lodging",5,3,
ChIJz14cbgdD0i0RqMm7C2e2EH0,Pondok Bali Ananda Kost,-8.805687299999999,115.2048549,"Jl. Penataran Sari Kampial No.5, Benoa, Kec. Kuta Sel., Kabupaten Badung, Bali 80361, Indonesia",https://maps.google.com/?cid=9011903408063105448,OPERATIONAL,,lodging,lodging,4.6,7,
ChIJIwbmZ8lD0i0Ro1oryFi_YOU,Kost 7 Days,-8.8104981,115.20339790000001,"Unnamed Road, 56Q3+R92, Benoa, South Kuta, Badung Regency, Bali 80361, Indonesia",https://maps.google.com/?cid=16528421020486032035,OPERATIONAL,+62 812-3614-5558,hotel,"hotel, lodging",5,4,
ChIJ-Soz6U5D0i0R-3c0xiE9JZc,Kost Pak Wayan 09,-8.8060388,115.2048492,"Jl. Penataran Sari Jl. Raya Kampial No.9, Benoa, Kec. Kuta Sel., Kabupaten Badung, Bali 80361, Indonesia",https://maps.google.com/?cid=10891178489133955067,OPERATIONAL,+62 819-9971-0474,,lodging,5,1,
ChIJ57HhIaRD0i0Rtyof_KQNZwM,Rumah Diva,-8.8119395,115.20306190000001,"Benoa, South Kuta, Badung Regency, Bali 80361, Indonesia",https://maps.google.com/?cid=245179706970679991,OPERATIONAL,,,lodging,4.3,6,
ChIJb4UuQahD0i0RdxU_YPnWWFw,Pondok Kampial A 50,-8.810628,115.2023045,"Perumahan Pondok Kampial Permai, 56Q2+RWV, Benoa, South Kuta, Badung Regency, Bali 80361, Indonesia",https://maps.google.com/?cid=6654304815989855607,OPERATIONAL,,private_guest_room,"private_guest_room, lodging",,,
ChIJfxWW-3JB0i0R-b9d6xYd5Ho,Sewa Mobil Bali,-8.8107378,115.2021511,"Kampial, Perumahan Giri Mandala No.6, Nusa Dua, South Kuta, Badung Regency, Bali 80361, Indonesia",https://maps.google.com/?cid=8855234751592513529,OPERATIONAL,+62 811-3884-214,car_rental,car_rental,4.9,76,
ChIJ7YOMAJNd0i0RJeVxdj91VVs,Samsam Guling Perintis Nusadua,-8.805727899999999,115.208189,"NusaDua, Jl. Perintis V Kampial No.8, Benoa, Kec. Kuta Sel., Kabupaten Badung, Bali 80361, Indonesia",https://maps.google.com/?cid=6581295345902413093,OPERATIONAL,+62 813-3866-3189,restaurant,"restaurant, food",5,5,
ChIJDUY3EWtD0i0RPLQVpMg7488,Warung Made House,-8.8107905,115.20300239999999,"Benoa, Kec. Kuta Sel., No.252, Benoa, Kec. Kuta Sel., Kabupaten Badung, Bali 80361, Indonesia",https://maps.google.com/?cid=14979882518496785468,OPERATIONAL,+62 877-6155-0449,private_guest_room,"private_guest_room, lodging",5,1,
ChIJHcTgJElD0i0RxA6Y4VyhRhw,Pondok Kerta Rahayu,-8.805559299999999,115.20764849999999,"IV No. 1 Kampial,, Jl. Perintis, Benoa, Kec. Kuta Sel., Kabupaten Badung, Bali 80361, Indonesia",https://maps.google.com/?cid=2037493301725630148,OPERATIONAL,,private_guest_room,"private_guest_room, lodging",3.7,6,
ChIJd7Wwkj1D0i0RIR2JsAd12oo,ayam qeprek nipen,-8.810308599999999,115.20197280000001,"Indonesia, Bali, Badung Regency, South Kuta, Benoa, tanjung seyro ganda mayu tengkuiung",https://maps.google.com/?cid=10005438198043974945,OPERATIONAL,,indonesian_restaurant,"indonesian_restaurant, restaurant, food",5,1,
ChIJH5h1IU9D0i0RxrdwJX0X_d0,Warung Be Fish,-8.8050514,115.20548649999999,"Jl. Dharmawangsa Kampial Nusa Dua No.333x, Benoa, Kec. Kuta Sel., Kabupaten Badung, Bali 80361, Indonesia",https://maps.google.com/?cid=15995967277756364742,CLOSED_TEMPORARILY,+62 812-4619-5252,indonesian_restaurant,"indonesian_restaurant, restaurant, food",4.3,449,PRICE_LEVEL_MODERATE
ChIJmz69dydD0i0RD9UvfmgGoKM,Belawan in Bali,-8.8117137,115.2030413,"Benoa, South Kuta, Badung Regency, Bali, Indonesia",https://maps.google.com/?cid=11790430870319387919,OPERATIONAL,+62 878-6799-0525,hotel,"hotel, lodging",5,1,
ChIJR6G_3ttD0i0RIPAkwV9xKws,Kod Bukit,-8.8117495,115.20356849999999,"56Q3+8C4, Perum. Pd. Kampial Permai, Benoa, Kec. Kuta Sel., Kabupaten Badung, Bali 80361, Indonesia",https://maps.google.com/?cid=804861614492020768,OPERATIONAL,,hostel,"hostel, lodging",3,2,
