id,name,latitude,longitude,address,url,status,phone,primary-type,types,rating,rating-count,price-level
ChIJ0VwQ1q3Z0y0RCLfo33BNqkU,Yudha house,-8.3675231,114.7064868,"JPM5+22G, Penyaringan, Mendoyo, Jembrana Regency, Bali 82261, Indonesia",https://maps.google.com/?cid=5019909881846085384,OPERATIONAL,,private_guest_room,"private_guest_room, lodging",5,1,
ChIJz87WLVHZ0y0RO_flPSLKVZQ,Base camp Bandit Pirate( Wankys House),-8.3716089,114.70186229999999,"JPH2+9P5, Jl. Ngurah Rai, Tegal Cangkring, Kec. Mendoyo, Kabupaten Jembrana, Bali 82261, Indonesia",https://maps.google.com/?cid=10688671539049920315,OPERATIONAL,+62 877-6156-1541,indonesian_restaurant,"indonesian_restaurant, restaurant, food",5,1,
ChIJ4UFaieTZ0y0RDUjaezr0EXw,Uchiha,-8.3699911,114.7025003,"JPJ3+222, Jl. Ngurah Rai, Tegal Cangkring, Kec. Mendoyo, Kabupaten Jembrana, Bali 82261, Indonesia",https://maps.google.com/?cid=8940195267330328589,OPERATIONAL,,museum,museum,,,
ChIJmRU34sjZ0y0RxMjKVQ7TzU0,PRANATALISA PUTRA,-8.3671469,114.7061658,"JPM4+4FV, Jl. Kartini, Penyaringan, Kec. Mendoyo, Kabupaten Jembrana, Bali 82261, Indonesia",https://maps.google.com/?cid=5606369169668491460,OPERATIONAL,,private_guest_room,"private_guest_room, lodging",4,1,
ChIJj5aHGgDZ0y0RF8A83MO5kIo,WAROENG_K,-8.3706251,114.70199910000001,"Jl. Ngurah Rai, Tegal Cangkring, Kec. Mendoyo, Kabupaten Jembrana, Bali 82261, Indonesia",https://maps.google.com/?cid=9984684624745119767,OPERATIONAL,,bar,bar,,,
ChIJtcsa9kDZ0y0Rq-rH1RoTwkQ,Widiana hous,-8.367296699999999,114.70659369999998,"JPM5+22G, Penyaringan, Mendoyo, Jembrana Regency, Bali 82261, Indonesia",https://maps.google.com/?cid=4954543546037693099,OPERATIONAL,,park,park,,,
ChIJ_9Q9y7PZ0y0R9omPHAqJ1rk,KONA'S OLDHOUSE,-8.367242599999999,114.7078593,"JPM5+445, Jl. Kartini, Penyaringan, Kec. Mendoyo, Kabupaten Jembrana, Bali 82261, Indonesia",https://maps.google.com/?cid=13391041218554595830,OPERATIONAL,+62 858-5827-1536,lodging,lodging,,,
ChIJQyqzdhjZ0y0RUpApB8ZJ0u8,Wiracana's House,-8.3677171,114.7082802,"JPJ5+W86, Penyaringan, Mendoyo, Jembrana Regency, Bali, Indonesia",https://maps.google.com/?cid=17280955835046531154,OPERATIONAL,,private_guest_room,"private_guest_room, lodging",5,1,
ChIJ4ZSKVb_Z0y0RHvRNFzeaDFs,Endra's House,-8.366458699999999,114.706187,"Jl. Kartini, Penyaringan, Kec. Mendoyo, Kabupaten Jembrana, Bali 82261, Indonesia",https://maps.google.com/?cid=6560788318576833566,OPERATIONAL,+62 821-4696-0024,private_guest_room,"private_guest_room, lodging",,,
