id,name,latitude,longitude,address,url,status,phone,primary-type,types,rating,rating-count,price-level
ChIJNw2mlOkl0i0RjNT7R6Wkkek,Pesawah - Bali Best Pig Suckling,-8.4571533,115.11872890000001,"G4V9+4G, Rejasa, Penebel, Tabanan Regency, Bali, Indonesia",https://maps.google.com/?cid=16830414312244499596,OPERATIONAL,+62 818-0531-2612,indonesian_restaurant,"indonesian_restaurant, restaurant, food",4.9,14,
ChIJyWVoLbUl0i0RhHWWdadpGVk,"Warung D, BENDUL",-8.4576686,115.1229585,"G4RF+W5P, Jegu, Penebel, Tabanan Regency, Bali, Indonesia",https://maps.google.com/?cid=6420278911746602372,OPERATIONAL,+62 812-3988-2530,pizza_restaurant,"pizza_restaurant, restaurant, food",5,8,
ChIJQ0tUVlAl0i0RRrB4Ijeqwso,Warung Nasi Babi Mbah Suwan,-8.460356299999999,115.11795,"G4Q9+V54, Jl. Raya Rijasa, Rejasa, Kec. Penebel, Kabupaten Tabanan, Bali 82115, Indonesia",https://maps.google.com/?cid=14610427294921568326,OPERATIONAL,+62 857-3735-9426,indonesian_restaurant,"indonesian_restaurant, restaurant, food",5,2,
ChIJ035uVOMl0i0RGT5DSuapxe4,Sekha Subak Srigumana,-8.4602081,115.12007469999999,"G4QC+W28, Rejasa, Penebel, Tabanan Regency, Bali 82115, Indonesia",https://maps.google.com/?cid=17205344757992341017,OPERATIONAL,,park,park,,,
ChIJvYS2214l0i0RVwYLkyseJk0,Pondok Maong Rejasa,-8.461117699999999,115.1189777,"Unnamed Road, G4Q9+HH5, Rejasa, Kec. Penebel, Kabupaten Tabanan, Bali 82111, Indonesia",https://maps.google.com/?cid=5559163962534856279,OPERATIONAL,+62 812-4673-8053,lodging,lodging,4.5,4,
