id,name,latitude,longitude,address,url,status,phone,primary-type,types,rating,rating-count,price-level
ChIJZQ7h-3s_0i0RyTJeJxHG3oE,Celuk Guest House,-8.601768300000002,115.27272509999999,"Jl. Subak Belaki, Celuk, Kec. Sukawati, Kabupaten Gianyar, Bali 80282, Indonesia",https://maps.google.com/?cid=9358134852699697865,OPERATIONAL,,,lodging,4.6,17,
ChIJiwcHJCU-0i0RdlMWA8f2cRI,Mandala Desa,-8.5933165,115.272688,"Banjar Lantangidung, Batuan, Sukawati, Batuan, Gianyar, Kabupaten Gianyar, Bali 80582, Indonesia",https://maps.google.com/?cid=1329114699661726582,OPERATIONAL,+62 361 294525,resort_hotel,"resort_hotel, hotel, lodging",4.8,99,
ChIJV6fe_YU_0i0RFGYaFxaQZLM,Warung Makan Pak Polis,-8.5975739,115.2691656,"Celuk, Sukawati, Gianyar Regency, Bali 80582, Indonesia",https://maps.google.com/?cid=12926615255011452436,OPERATIONAL,+62 878-8123-8209,indonesian_restaurant,"indonesian_restaurant, restaurant, food",4.7,25,
ChIJl6E5M_4_0i0RUGWUsU1Yelk,Rumah Makan Padang Asli Minang,-8.6004152,115.27163970000001,"Jl. Raya Celuk, Celuk, Kec. Sukawati, Kabupaten Gianyar, Bali 80582, Indonesia",https://maps.google.com/?cid=6447562907249304912,OPERATIONAL,+62 813-6544-2609,indonesian_restaurant,"indonesian_restaurant, restaurant, food",4.8,15,
ChIJQdvkxdw_0i0R31PVikGt5D4,Villa Rose,-8.599905,115.27600050000001,"97XG+W8V, Jl. Mengaling, Cemenggon, Celuk, Kec. Sukawati, Kabupaten Gianyar, Bali 80582, Indonesia",https://maps.google.com/?cid=4531937622055277535,OPERATIONAL,+62 819-9930-6238,,"hotel, lodging",5,7,
ChIJCQbFVAA_0i0R8gGriF6WaEo,Melukat,-8.601752099999999,115.2733865,"97XF+79R, Celuk, Sukawati, Gianyar Regency, Bali 80582, Indonesia",https://maps.google.com/?cid=5361700689148576242,OPERATIONAL,+62 815-6822-2292,hiking_area,"hiking_area, park",4.8,4,
ChIJa-7hnVw_0i0RDsOgokiGcX0,Pempek 28,-8.600009,115.26937350000001,"Jl. Raya Celuk No.27, Celuk, Kec. Sukawati, Kabupaten Gianyar, Bali 80582, Indonesia",https://maps.google.com/?cid=9039153573633508110,OPERATIONAL,+62 823-4093-8283,indonesian_restaurant,"indonesian_restaurant, restaurant, food",5,2,
ChIJwQM5aiU-0i0RlZTk3nzuvaI,Duduk Sucipta,-8.5944364,115.27350539999999,"Jl. Lettu Nengah Duaji No.09, Sukawati, Kec. Sukawati, Kabupaten Gianyar, Bali 80582, Indonesia",https://maps.google.com/?cid=11726791224825517205,OPERATIONAL,+62 857-3734-6647,coffee_shop,"coffee_shop, cafe, food, store",4.5,4,
ChIJQ0b1-48_0i0RD5YY-TLy3B8,Bakmol (Bakso Malang Asli),-8.5998773,115.26988180000001,"C729+2XR, Jl. Raya Celuk, Celuk, Kec. Sukawati, Kabupaten Gianyar, Bali 80582, Indonesia",https://maps.google.com/?cid=2295976210793534991,OPERATIONAL,+62 812-5267-1888,indonesian_restaurant,"indonesian_restaurant, restaurant, food",4.7,7,
ChIJqUGJ7jE-0i0R8BP2QFshJPs,Sate Ikan Laut,-8.5998501,115.2708615,"C72C+385, Jalan, Celuk, Kec. Sukawati, Kabupaten Gianyar, Bali 80582, Indonesia",https://maps.google.com/?cid=18096625878497104880,OPERATIONAL,+62 819-9996-3995,indonesian_restaurant,"indonesian_restaurant, restaurant, food",5,4,
ChIJM0CFUv8_0i0Rxh6YSOcF8_0,Pondok ceria,-8.5994438,115.2750973,"banjar cemengaon tempekan, C72G+62H, Jl. Mengaling, Celuk, Sukawati, Gianyar Regency, Bali 80582, Indonesia",https://maps.google.com/?cid=18298976201849970374,OPERATIONAL,,lodging,lodging,5,1,
ChIJ-yyxlow_0i0RqQq8Jsr-CAY,Gainyar,-8.601747,115.27342510000001,"97XF+893, Jl. Raya Celuk, Celuk, Kec. Sukawati, Kabupaten Gianyar, Bali 80582, Indonesia",https://maps.google.com/?cid=434877508227959465,OPERATIONAL,,hotel,"hotel, lodging",,,
ChIJY3OmZUs_0i0RX7Qhag0Yu3w,Warung Lawar Babi Pak Nyoman,-8.5943668,115.2747375,"C74F+7V5, Jl. Lettu Nengah Duaji, Batuan, Kec. Sukawati, Kabupaten Gianyar, Bali 80582, Indonesia",https://maps.google.com/?cid=8987803927242191967,OPERATIONAL,+62 889-7185-5990,indonesian_restaurant,"indonesian_restaurant, restaurant, food",5,1,
ChIJcdp0LDQ-0i0RkuATpNsqqT0,Warung Rakyat Galuh Mantri,-8.6004524,115.2721715,"Jl. Raya Celuk No.10, Celuk, Kec. Sukawati, Kabupaten Gianyar, Bali 80582, Indonesia",https://maps.google.com/?cid=4443129630216675474,OPERATIONAL,+62 813-3860-0099,indonesian_restaurant,"indonesian_restaurant, restaurant, food",4.2,10,
ChIJWdT5DIs_0i0Rc_g3Busb3II,KADAJANE Bar & Cafe,-8.5987954,115.27254049999999,"C72F+F2M, Celuk, Sukawati, Gianyar Regency, Bali 80582, Indonesia",https://maps.google.com/?cid=9429442416042571891,OPERATIONAL,,bar,"event_venue, bar",,,
ChIJNzm97DE-0i0R0_zqtlwZWlI,Nasi Djinggo,-8.5997161,115.2705176,"Celuk, Sukawati, Gianyar Regency, Bali, Indonesia",https://maps.google.com/?cid=5934083345010588883,OPERATIONAL,,restaurant,"restaurant, food",5,1,
ChIJZVVnEmQ_0i0RxW1j7ThOKPc,Laklak mek penuh 1,-8.5997338,115.27055980000002,"C72C+463 kantor, barat Jl. Raya Celuk, Celuk, Kec. Sukawati, Kabupaten Gianyar, Bali 80582, Indonesia",https://maps.google.com/?cid=17809570732844477893,OPERATIONAL,+62 812-3915-5150,restaurant,"restaurant, food",4.3,3,
ChIJKfYkjuY_0i0RRjmQNC2QLKs,Rumah Fundemic,-8.6010518,115.2712269,"97XC+HFH, Gg. Subak, Blaki, Kec. Sukawati, Kabupaten Gianyar, Bali 80582, Indonesia",https://maps.google.com/?cid=12334392003290741062,OPERATIONAL,,coffee_shop,"coffee_shop, cafe, food, store",,,
ChIJe33F_S0-0i0R4Iw-b0x8DK0,Warung Potre Koning Madura Rak. As,-8.6006811,115.27233079999999,"Celuk, Sukawati, Gianyar Regency, Bali, Indonesia",https://maps.google.com/?cid=12469478136007789792,OPERATIONAL,,restaurant,"restaurant, food",,,
ChIJoys67DE-0i0RhBAsR7LcsA4,Warung Makan Rahayu,-8.5998334,115.2707653,"C72C+386, Jalan, Celuk, Kec. Sukawati, Kabupaten Gianyar, Bali 80582, Indonesia",https://maps.google.com/?cid=1058588570688426116,OPERATIONAL,+62 819-9996-3995,indonesian_restaurant,"indonesian_restaurant, restaurant, food",,,
