id,name,latitude,longitude,address,url,status,phone,primary-type,types,rating,rating-count,price-level
ChIJAzHifGo70i0RJrd0Cik68HE,Sun Sang Eco Village,-8.5269698,115.0989033,"Jl. Raya Denpasar - Gilimanuk, Samsam, Kec. Kerambitan, Kabupaten Tabanan, Bali 82161, Indonesia",https://maps.google.com/?cid=8210126068639905574,OPERATIONAL,+62 857-3955-8577,hotel,"hotel, lodging",4.4,125,
ChIJq-76bbcx0i0R7mkW9gu9NZ8,Perumahan Mandung Permai Residen,-8.5277865,115.0938676,"F3CV+VGQ, Sembung Gede, Kerambitan, Tabanan Regency, Bali 82161, Indonesia",https://maps.google.com/?cid=11472283484867160558,OPERATIONAL,,private_guest_room,"private_guest_room, lodging",4,3,
ChIJ9127oJw60i0RFBsvvkUqat4,Warung Muslim Blitar Buana,-8.5256141,115.0999189,"Jl. Raya Denpasar - Gilimanuk, Samsam, Kec. Kerambitan, Kabupaten Tabanan, Bali 82161, Indonesia",https://maps.google.com/?cid=16026668702983199508,OPERATIONAL,+62 857-3825-1937,indonesian_restaurant,"indonesian_restaurant, restaurant, food",4.2,47,
ChIJNUUGv-470i0Rtp-IAhXLzNU,Ayam kemangi cabe ijo,-8.5310156,115.09762889999998,"Blk. C No.45, Sembung Gede, Kec. Kerambitan, Kabupaten Tabanan, Bali 82161, Indonesia",https://maps.google.com/?cid=15405911716424884150,OPERATIONAL,+62 812-3775-7723,restaurant,"restaurant, food",5,2,
ChIJ5cXt00o70i0RsvaptlHlCOM,Oma House,-8.524686299999999,115.09774089999999,"BTN Mandung V Blk. G No.8, Sembung Gede, Kec. Kerambitan, Kabupaten Tabanan, Bali 82161, Indonesia",https://maps.google.com/?cid=16359577785543030450,OPERATIONAL,,private_guest_room,"private_guest_room, lodging",3,3,
ChIJ6e3QsvMx0i0RpY10gYlP0JI,Perumahan Mandung Asri Residence,-8.5277585,115.09381239999999,"F3CV+VGV, Sembung Gede, Kerambitan, Tabanan Regency, Bali 82161, Indonesia",https://maps.google.com/?cid=10579042976694308261,OPERATIONAL,,cafe,"cafe, food",,,
ChIJb28n3-wx0i0RaxAb3hM12wA,Lapangan Gayatri Widya Mandala,-8.523657799999999,115.09531520000002,"Btn mandung permai 2&4, Sembung Gede, Kec. Kerambitan, Kabupaten Tabanan, Bali, Indonesia",https://maps.google.com/?cid=61701379346600043,OPERATIONAL,+62 819-1671-4906,campground,"campground, lodging, park",4.9,10,
ChIJc5EpS7s70i0RGCNgs99Ul0M,Yanto Badin Home,-8.5258445,115.09681189999998,"F3FW+MP7, Sembung Gede, Kerambitan, Tabanan Regency, Bali, Indonesia",https://maps.google.com/?cid=4870454841788343064,OPERATIONAL,,private_guest_room,"private_guest_room, lodging",5,1,
ChIJ2YEh4K470i0RAaYCPihaXuY,Kung Bega Swasisto Home,-8.5249595,115.09532940000001,"Perumahan Mandung V Blok A No.25, Sembung Gede, Kec. Kerambitan, Kabupaten Tabanan, Bali 82161, Indonesia",https://maps.google.com/?cid=16599804405419779585,OPERATIONAL,+62 812-3890-1171,private_guest_room,"private_guest_room, lodging",5,1,
ChIJ3ZnOqmk70i0RzytwiaXDgqw,Warung bude putri,-8.5246421,115.09426719999999,"Perum mandung PermaiI No. 58, Sembung Gede, Kec. Kerambitan, Kabupaten Tabanan, Bali 82161, Indonesia",https://maps.google.com/?cid=12430713037238840271,OPERATIONAL,+62 831-5641-2378,coffee_shop,"coffee_shop, cafe, food, store",,,
ChIJywlFILc70i0RQBkSae2oHZA,Luna Restaurant Tabanan,-8.5270216,115.09890390000001,"Jl. Raya Denpasar - Gilimanuk, Sembung Gede, Kec. Kerambitan, Kabupaten Tabanan, Bali 82161, Indonesia",https://maps.google.com/?cid=10384642053409741120,OPERATIONAL,+62 857-3955-8577,restaurant,"restaurant, food",,,
ChIJ7ymo8Zw60i0R63NG5LpMroA,Mandumg Permai,-8.5247016,115.09797320000001,"Mandung permai V blok G no 7, Samsam, Kec. Kerambitan, Kabupaten Tabanan, Bali 82114, Indonesia",https://maps.google.com/?cid=9272433048379880427,OPERATIONAL,+62 853-3109-0278,,lodging,3,2,
ChIJn0zT-rQ70i0R8v4zYZR3D2k,Gus aldy bali Transprot,-8.5310077,115.09761449999999,"F39X+H2X Bca land, Sembung Gede, Kec. Kerambitan, Kabupaten Tabanan, Bali, Indonesia",https://maps.google.com/?cid=7570400977802755826,OPERATIONAL,,car_rental,car_rental,5,4,
ChIJIeBwTAM70i0RtWty6w1WOxM,Dyah Kitchen Tabanan,-8.5247215,115.09635250000001,"F3GW+4G9, Sembung Gede, Kerambitan, Tabanan Regency, Bali 82161, Indonesia",https://maps.google.com/?cid=1385795928131267509,OPERATIONAL,+62 819-3104-5433,restaurant,"restaurant, food",5,7,
ChIJ77iTcq470i0RWKhbzSdgQBU,Nasi bento neisa,-8.5235968,115.094661,"Btn mandung permai 2&4 ,mandung no 80, Sembung Gede, Kec. Kerambitan, Kabupaten Tabanan, Bali, Indonesia",https://maps.google.com/?cid=1531329597371295832,OPERATIONAL,,breakfast_restaurant,"breakfast_restaurant, restaurant, food",5,1,
ChIJT_ogpCY70i0Rilgb88xL5hw,Warung WMP,-8.5245258,115.09436099999998,"Perum mandung PermaiI No. 58, Sembung Gede, Kec. Kerambitan, Kabupaten Tabanan, Bali 82161, Indonesia",https://maps.google.com/?cid=2082435221329500298,OPERATIONAL,,restaurant,"restaurant, food",5,1,
ChIJT_3aFns70i0RD7iR8MX4_RE,Air Terjun Tibu Jaka,-8.5279828,115.09952659999999,"F3CX+RR2, Samsam, Kerambitan, Tabanan Regency, Bali 82161, Indonesia",https://maps.google.com/?cid=1296465796780898319,OPERATIONAL,+62 819-9932-2355,tourist_attraction,tourist_attraction,4,1,
ChIJEatSI5060i0RYaC7ezBa_d4,Kampung Forsa SFCI Bali,-8.525812499999999,115.0963125,"Sembung Gede, Kerambitan, Tabanan Regency, Bali 82161, Indonesia",https://maps.google.com/?cid=16068098209808621665,OPERATIONAL,+62 857-3995-9882,,lodging,4.4,8,
ChIJ4fXBTF470i0R8afYQYoWazo,Rumah pak Didik Aris Santoso,-8.5243474,115.097588,"Perum mandung 5 Blok E No 17, Sembung Gede, Kec. Kerambitan, Kabupaten Tabanan, Bali 82161, Indonesia",https://maps.google.com/?cid=4209483059773876209,OPERATIONAL,,bed_and_breakfast,"bed_and_breakfast, lodging",5,1,
ChIJm6eN-fw70i0RgjeZIj4ffss,Warung D'Mumbu Kerambitan,-8.5316532,115.0953798,"Sembung Gede, Kerambitan, Tabanan Regency, Bali 82161, Indonesia",https://maps.google.com/?cid=14663191788493813634,OPERATIONAL,+62 813-3940-2106,coffee_shop,"coffee_shop, cafe, food, store",4.7,3,
