id,name,latitude,longitude,address,url,status,phone,primary-type,types,rating,rating-count,price-level
ChIJLx0lNhky0i0R2JDAGWPH_l4,Villa Gede Batulumbang,-8.5200818,114.99269539999999,"FXHV+X38, Antap, Selemadeg, Tabanan Regency, Bali, Indonesia",https://maps.google.com/?cid=6845127712097472728,OPERATIONAL,+62 813-5321-4704,guest_house,"guest_house, lodging",4.5,35,
ChIJcRBstBky0i0RUpBv63dUpTg,Balian Beach House,-8.5212678,114.9890897,"Gang Garuda, Selemadeg, FXHQ+FJW, Antap, Tabanan, Antap, Kec. Selemadeg, Kabupaten Tabanan, Bali 82162, Indonesia",https://maps.google.com/?cid=4081761511309021266,OPERATIONAL,+62 831-1975-5537,,lodging,4.5,39,
ChIJwynVVP8z0i0RzaIRGPUMD1s,Warung Triple B - Bebek Bumbu Bali,-8.5232602,114.99138860000001,"FXGR+QGW, Antap, Selemadeg, Tabanan Regency, Bali, Indonesia",https://maps.google.com/?cid=6561477428912431821,OPERATIONAL,,indonesian_restaurant,"indonesian_restaurant, restaurant, food",4.6,8,
ChIJ0fgPlL4z0i0Rx7Oc8eUzxMc,Warung Bu Nur,-8.5207015,114.98839,"FXHQ+P96, Jl. Raya Denpasar - Gilimanuk, Antap, Kec. Selemadeg, Kabupaten Tabanan, Bali 82162, Indonesia",https://maps.google.com/?cid=14394687371677053895,OPERATIONAL,+62 852-3786-5242,restaurant,"restaurant, food",4.8,12,
ChIJta8Wrxsz0i0RePSeZTycDXM,Warung besek,-8.516923,114.9913096,"FXMR+6GM, Antap, Selemadeg, Tabanan Regency, Bali 82162, Indonesia",https://maps.google.com/?cid=8290454272275838072,OPERATIONAL,+62 813-3855-4598,restaurant,"restaurant, food",5,1,
ChIJZ5Ar5A4z0i0Rp4PJ0i2sr1c,Wr. Ewikk batulumbang,-8.5229336,114.9918034,"Jl. Raya Denpasar - Gilimanuk No.2, Antap, Kec. Selemadeg, Kabupaten Tabanan, Bali 82162, Indonesia",https://maps.google.com/?cid=6318458115034022823,OPERATIONAL,,coffee_shop,"coffee_shop, cafe, food, store",,,
ChIJoRpPwrQz0i0R_YM4519laL8,Warung Ayu,-8.521529,114.99372,"FXHV+9F, Antap, Selemadeg, Tabanan Regency, Bali, Indonesia",https://maps.google.com/?cid=13792385321397683197,CLOSED_TEMPORARILY,,coffee_shop,"coffee_shop, cafe, food, store",,,
