id,name,latitude,longitude,address,url,status,phone,primary-type,types,rating,rating-count,price-level
ChIJ9zkfVKVd0S0R33RIBfI7Tkk,Ayam Betutu Bu Adi Cabang Gilimanuk,-8.2639145,114.48889249999999,"PFPQ+CHJ, Jl. Raya Denpasar - Gilimanuk, Melaya, Kec. Negara, Kabupaten Jembrana, Bali 82252, Indonesia",https://maps.google.com/?cid=5282225323608929503,OPERATIONAL,+62 853-3930-9944,restaurant,"restaurant, food",4.7,3,
ChIJXwEQ4_Jd0S0RlTSoNN5lIyw,Warung Kopi Bu Ira,-8.262465299999999,114.4885858,"PFQQ+2C8, Jl. Raya Denpasar - Gilimanuk, Gilimanuk, Kec. Melaya, Kabupaten Jembrana, Bali 82252, Indonesia",https://maps.google.com/?cid=3180497766894285973,OPERATIONAL,+62 852-3951-0166,cafe,"cafe, food",4,4,
ChIJjw35kBpd0S0RLHB2bXvW4SY,Bakso Muslim Jember pak Yo,-8.2632516,114.4885905,"PFPQ+MCW, Jl. Raya Denpasar - Gilimanuk, Gilimanuk, Kec. Negara, Kabupaten Jembrana, Bali 82252, Indonesia",https://maps.google.com/?cid=2801756268806959148,OPERATIONAL,+62 821-4463-5509,indonesian_restaurant,"indonesian_restaurant, restaurant, food",4,7,
ChIJzTrefgBd0S0RyqBVow-uRNg,"Klatakan, melaya",-8.260035,114.4878518,"Jl. Raya Denpasar - Gilimanuk, Melaya, Kec. Melaya, Kabupaten Jembrana, Bali, Indonesia",https://maps.google.com/?cid=15583771992796799178,OPERATIONAL,,hostel,"hostel, lodging",4,1,
ChIJH0sFlptd0S0RbdR8HvSL07w,Kedai Kuliner,-8.258043899999999,114.4866472,"PFRP+QMJ, Jl. Raya Denpasar - Gilimanuk, Melaya, Kec. Melaya, Kabupaten Jembrana, Bali 82252, Indonesia",https://maps.google.com/?cid=13606372779816178797,OPERATIONAL,+62 822-6625-2037,brunch_restaurant,"brunch_restaurant, restaurant, food",4,1,
ChIJg-zNXwpd0S0Rre9kxS_-GEs,Warung Makan Jawa Muslim,-8.2631406,114.488547,"PFPQ+PCV Timur pom bensin, Jl. Raya Denpasar - Gilimanuk, Melaya, Kec. Negara, Kabupaten Jembrana, Bali 82252, Indonesia",https://maps.google.com/?cid=5411354433414295469,OPERATIONAL,+62 813-3724-1200,restaurant,"restaurant, food",3.7,3,
ChIJG1sLVKVd0S0RVlgAHrBh3Dc,Bakso Super Jumbo,-8.2639947,114.4889245,"Melaya, Jembrana Regency, Bali, Indonesia",https://maps.google.com/?cid=4025199576007858262,OPERATIONAL,,indonesian_restaurant,"indonesian_restaurant, restaurant, food",5,1,
ChIJhXQ4WKVd0S0RfMMHx-0WrLE,WARUNG SRI REJEKI,-8.263540899999999,114.4887421,"Melaya, Jembrana Regency, Bali, Indonesia",https://maps.google.com/?cid=12802633051209712508,OPERATIONAL,,restaurant,"restaurant, food",,,
ChIJdQdbeK9d0S0R4s2wBTyBybg,Warung Muslim Bu Thoyibah,-8.261635799999999,114.4879776,"Melaya, Jembrana Regency, Bali, Indonesia",https://maps.google.com/?cid=13315315868091076066,OPERATIONAL,,restaurant,"restaurant, food",5,1,
ChIJyUgti_5d0S0R3K77YdxUmKc,Kedai Nasham,-8.2632322,114.48861749999999,"PFPQ+MCW, Jl. Raya Denpasar - Gilimanuk, Gilimanuk, Kec. Negara, Kabupaten Jembrana, Bali 82252, Indonesia",https://maps.google.com/?cid=12076495706307407580,OPERATIONAL,,coffee_shop,"coffee_shop, cafe, food, store",,,
ChIJuZvuepld0S0RImeHclheI7g,Family tour,-8.2579578,114.48638919999999,"Sumbersari, Kec. Melaya, Kabupaten Jembrana, Bali 82252, Indonesia",https://maps.google.com/?cid=13268552661135222562,OPERATIONAL,+62 852-3883-0884,tourist_attraction,tourist_attraction,5,3,
ChIJI1VUM6Rd0S0R_222gXvImbs,Jayax Putra Park Generation,-8.2577605,114.4903191,"tengah kelod,, PFRR+V4W, Melaya, Kec. Melaya, Kabupaten Jembrana, Bali 82252, Indonesia",https://maps.google.com/?cid=13518056189312003583,OPERATIONAL,+62 857-3746-2785,national_park,"national_park, park",3.8,8,
