id,name,latitude,longitude,address,url,status,phone,primary-type,types,rating,rating-count,price-level
ChIJ659na6vt0S0RCBCaqqyQcCQ,Mr.K PIZZA 'N' BURGER STATION,-8.1202898,115.32550959999999,"V8HG+V6J, Jl. Airsanih - Tejakula, Bondalem, Kec. Tejakula, Kabupaten Buleleng, Bali 81173, Indonesia",https://maps.google.com/?cid=2625757654027997192,OPERATIONAL,+62 819-1566-6510,hamburger_restaurant,"hamburger_restaurant, pizza_restaurant, american_restaurant, restaurant, food",4.8,8,
ChIJuRiH-gft0S0RVgWRnzc0gtw,Warung Mie Waras,-8.1197157,115.3231891,"V8JF+478, Jalan Airsanih, Bondalem, Kec. Tejakula, Kabupaten Buleleng, Bali 81173, Indonesia",https://maps.google.com/?cid=15889319848821458262,OPERATIONAL,+62 821-4749-8211,indonesian_restaurant,"indonesian_restaurant, restaurant, food",4.8,10,
ChIJ3ZkvVaft0S0RyDLtBeZQHz4,Paon Bali Pizza,-8.1204231,115.3255449,"Unnamed Road, V8HG+R6M, Bondalem, Kec. Tejakula, Kabupaten Buleleng, Bali 81173, Indonesia",https://maps.google.com/?cid=4476385503501693640,OPERATIONAL,+62 831-1558-5560,pizza_restaurant,"pizza_restaurant, restaurant, food",2.3,3,
ChIJk5vye2rt0S0Rb3iVIDg3oCY,Warung Pande Bawa Arta,-8.1201287,115.324735,"Jl. Airsanih - Tejakula, Bondalem, Kec. Tejakula, Kabupaten Buleleng, Bali 8113, Indonesia",https://maps.google.com/?cid=2783285283919329391,OPERATIONAL,+62 813-3802-2883,indonesian_restaurant,"indonesian_restaurant, restaurant, food",4.2,5,
ChIJHbIC92Xt0S0RC8t9YQ0kORU,Wijaya Motor & Mogy fried chicken,-8.1194885,115.32117760000001,"Bondalem, Tejakula, Buleleng Regency, Bali 81173, Indonesia",https://maps.google.com/?cid=1529293188357802763,OPERATIONAL,+62 823-4041-5261,car_wash,"car_wash, meal_takeaway, restaurant, food",4.6,5,
ChIJHeay3rPt0S0RCqYM5tAlDtw,Wr.Men ongkeg,-8.1189088,115.32026040000001,"Jl. Airsanih - Tejakula, Bondalem, Kec. Tejakula, Kabupaten Buleleng, Bali 81173, Indonesia",https://maps.google.com/?cid=15856652917161109002,OPERATIONAL,+62 821-4525-5511,indonesian_restaurant,"indonesian_restaurant, restaurant, food",,,
ChIJuYgHfZvt0S0R7PuIRixhDLM,Pondok selaung,-8.122119099999999,115.32116889999999,"V8HC+5F3, Bondalem, Tejakula, Buleleng Regency, Bali 81173, Indonesia",https://maps.google.com/?cid=12901793875299466220,OPERATIONAL,,lodging,lodging,5,1,
ChIJYRo81VDt0S0RxMJdvfMNU2Y,Warung Pojok,-8.120453099999999,115.3266604,"V8HG+RM7, Jl. Raya Singaraja - Amlapura, Bondalem, Kec. Tejakula, Kabupaten Buleleng, Bali 81173, Indonesia",https://maps.google.com/?cid=7373252355440886468,OPERATIONAL,+62 812-4650-1899,indonesian_restaurant,"indonesian_restaurant, restaurant, food",4.7,11,
ChIJQ_-eVfDt0S0RikqFNtC7xAY,Warung nasi kuning buk eni,-8.119862600000001,115.3232894,"V8JF+383, Bondalem, Tejakula, Buleleng Regency, Bali 81173, Indonesia",https://maps.google.com/?cid=487721162605152906,OPERATIONAL,+62 831-1961-8385,indonesian_restaurant,"indonesian_restaurant, restaurant, food",,,
ChIJK5z6eqDt0S0RBjChmYZdsLk,Warung Makan,-8.1201299,115.32473909999999,"V8HF+WVX, Jalan Airsanih, Bondalem, Kec. Tejakula, Kabupaten Buleleng, Bali 81173, Indonesia",https://maps.google.com/?cid=13380297325602222086,OPERATIONAL,+62 813-3802-2883,restaurant,"restaurant, food",5,1,
ChIJo1w3W9zt0S0RX9_SSPiOobk,made asih,-8.1199543,115.3236502,"V8JF+2H2, Jl. Airsanih - Tejakula, Bondalem, Kec. Tejakula, Kabupaten Buleleng, Bali 81173, Indonesia",https://maps.google.com/?cid=13376129565291896671,OPERATIONAL,,brunch_restaurant,"brunch_restaurant, restaurant, food",,,
ChIJ5TWAWP3s0S0RGSkiOHjPySs,Fast Food Restaurant,-8.1191705,115.32025320000001,"Bondalem, Tejakula, Buleleng Regency, Bali, Indonesia",https://maps.google.com/?cid=3155281129194531097,OPERATIONAL,,restaurant,"restaurant, food",,,
