id,name,latitude,longitude,address,url,status,phone,primary-type,types,rating,rating-count,price-level
ChIJe8bCMKk_0i0RK0l5PdNWXUA,Hotways Chicken Bali,-8.622647599999999,115.198607,"Jl. Cokroaminoto, Ubung Kaja, Kec. Denpasar Utara, Kota Denpasar, Bali 80115, Indonesia",https://maps.google.com/?cid=4637958656530925867,OPERATIONAL,+62 812-4628-8044,restaurant,"restaurant, food",4.3,284,
ChIJeUscbq4_0i0R1zZC0aTNOlc,Dunkin Donuts Cokroaminoto,-8.622948599999999,115.1987962,"Ubung Kaja, Denpasar Utara, Denpasar City, Bali 80115, Indonesia",https://maps.google.com/?cid=6285562337718056663,OPERATIONAL,,cafe,"cafe, food",4.3,210,
ChIJO7TPCrQ40i0R_mKI9oxZU14,Panties Pizza,-8.6226947,115.1986177,"Jl. Cokroaminoto, Ubung Kaja, Kec. Denpasar Utara, Kota Denpasar, Bali 80115, Indonesia",https://maps.google.com/?cid=6796874724598637310,OPERATIONAL,+62 812-4628-8044,pizza_restaurant,"pizza_restaurant, fast_food_restaurant, restaurant, food",4.4,1171,PRICE_LEVEL_MODERATE
ChIJaz2_LS4_0i0Rx7O_PakfCN0,Ina House Ubung,-8.620298199999999,115.1973852,"seberang Sekolah Mahatma Gandhi, Jl. Cokroaminoto No.325, Ubung Kaja, Kec. Denpasar Utara, Kota Denpasar, Bali 80115, Indonesia",https://maps.google.com/?cid=15927014893941666759,OPERATIONAL,+62 818-555-983,,lodging,4.2,43,
ChIJr4WMSyM_0i0R0wEMfnyAb0g,Salim Home Stay,-8.6181539,115.19452849999999,"95JV+PRJ, Jl. Gn. Galunggung, Bina Permai, Ubung Kaja, Kec. Denpasar Utara, Kota Denpasar, Bali 80116, Indonesia",https://maps.google.com/?cid=5219531765324710355,OPERATIONAL,+62 896-8551-5302,,lodging,4,4,
ChIJ4yIveC0_0i0RLr1L4Bd8oXA,Penginapan & Rumah Makan Namirah,-8.6207389,115.19173209999998,"Pasar Anyar, Batu Kandik, Jl. Cargo Permai No.140, Ubung Kaja, Kec. Denpasar Utara, Kota Denpasar, Bali 80114, Indonesia",https://maps.google.com/?cid=8115904445487496494,OPERATIONAL,+62 823-5959-1700,restaurant,"restaurant, food",3.8,292,
ChIJGTkPSTI_0i0RHVVpXrvn2m0,Warung Sido Mulyo Batu Malang,-8.6233468,115.1931681,"Jl. Raya Cargo No.150, Kelurahan Ubung, Denpasar Utara, Ubung Kaja, Kec. Denpasar Utara, Kota Denpasar, Bali 80116, Indonesia",https://maps.google.com/?cid=7915894086985930013,OPERATIONAL,+62 813-3895-4130,restaurant,"restaurant, food",4.4,105,
ChIJvaZ0-UM_0i0R98hqkrFaQrs,Depot Wira,-8.6214541,115.19868869999999,"Gg. Ratna No.2A, Dusun Mertagangga, Ubung Kaja, Kec. Denpasar Utara, Kota Denpasar, Bali 80116, Indonesia",https://maps.google.com/?cid=13493447152267610359,OPERATIONAL,+62 851-0046-1001,chinese_restaurant,"chinese_restaurant, restaurant, food",4.4,246,PRICE_LEVEL_MODERATE
ChIJfbfqLss_0i0RwUfHkkPAcgo,Soto ayam Lamongan cak kun,-8.6214543,115.1980864,"Ubung Kaja, Denpasar Utara, Denpasar City, Bali 80115, Indonesia",https://maps.google.com/?cid=752875484182169537,OPERATIONAL,,indonesian_restaurant,"indonesian_restaurant, restaurant, food",4.3,62,PRICE_LEVEL_INEXPENSIVE
ChIJQdT9pA8_0i0RbxAmh0mI23k,Es Teh Indonesia Cokroaminoto,-8.6182506,115.1960602,"95JW+MCV, Jl. Cokroaminoto, Ubung Kaja, Kec. Denpasar Utara, Kota Denpasar, Bali 80115, Indonesia",https://maps.google.com/?cid=8780761747870322799,OPERATIONAL,,coffee_shop,"coffee_shop, cafe, food, store",4.4,45,
ChIJZzTMUgI_0i0RKF9NHq2bSqM,Aura Bali Trans,-8.624719100000002,115.19662319999999,"95GW+4J9, Gg. Mertasari II, Ubung Kaja, Kec. Denpasar Utara, Kota Denpasar, Bali 80115, Indonesia",https://maps.google.com/?cid=11766388144298876712,OPERATIONAL,,car_rental,car_rental,4.9,8,
ChIJT9RfQTA_0i0RSppRZbaMpZo,Warung Zaenah Cokro,-8.6223765,115.1987824,"Jl. Cokroaminoto No.362, Ubung Kaja, Kec. Denpasar Utara, Kota Denpasar, Bali 80115, Indonesia",https://maps.google.com/?cid=11143467568009943626,OPERATIONAL,+62 361 421599,restaurant,"breakfast_restaurant, restaurant, food",4.3,154,PRICE_LEVEL_INEXPENSIVE
ChIJVVY0RzA_0i0RmRp711BLtcc,Babi Guling Pak Sandi,-8.6223156,115.1983702,"Jl. Cokroaminoto No.315, Ubung Kaja, Kec. Denpasar Utara, Kota Denpasar, Bali 80115, Indonesia",https://maps.google.com/?cid=14390490994916924057,OPERATIONAL,+62 819-9906-9272,indonesian_restaurant,"indonesian_restaurant, restaurant, food",4.6,54,
ChIJofxXSJE_0i0RVgi7MWgc530,Warung Nang Cik,-8.620144999999999,115.19394740000001,"Jl. Bina Kesuma II No.4, Ubung Kaja, Kec. Denpasar Utara, Kota Denpasar, Bali 80116, Indonesia",https://maps.google.com/?cid=9072251208197670998,OPERATIONAL,+62 812-2674-3503,restaurant,"restaurant, food",4.9,14,
ChIJt3UP1S8_0i0RtjrEhqWQxyQ,G Kitchen Bali,-8.620664099999999,115.1980579,"Jl. Cokroaminoto No.380, Ubung Kaja, Kec. Denpasar Utara, Kota Denpasar, Bali 80115, Indonesia",https://maps.google.com/?cid=2650245946335836854,OPERATIONAL,+62 821-4420-8928,restaurant,"restaurant, food",4.8,93,
ChIJjXdIH98_0i0RUAlYZ0Nje28,CV.JAYA UTAMA TRANS,-8.6188703,115.1951068,"JALAN COKROAMINOTO GG.MIRAH BALI.77X DENPASAR UTARA UBUNG KAJA, Gg. Mirah Bali No.77x, paling ujung, pagar hitam, Kota Denpasar, Bali 80111, Indonesia",https://maps.google.com/?cid=8033123501493193040,OPERATIONAL,+62 897-0222-860,car_rental,car_rental,3.5,11,
ChIJsa66aAA_0i0RMWxJwJQV7Ls,ACK Cokroaminoto,-8.6186502,115.19664759999999,"Jl. Cokroaminoto No.400A, Ubung Kaja, Kec. Denpasar Utara, Kota Denpasar, Bali 80116, Indonesia",https://maps.google.com/?cid=13541221908221619249,OPERATIONAL,,restaurant,"restaurant, food",3.5,20,
ChIJr9QrD84_0i0RZPpB2q4robY,AW Martabak,-8.618838,115.19648799999999,"Ubung Kaja, Denpasar Utara, Denpasar City, Bali 80115, Indonesia",https://maps.google.com/?cid=13159847616139360868,OPERATIONAL,+62 896-0278-6755,restaurant,"restaurant, food",4.6,19,
ChIJi7cH7d0_0i0RxT8SBQTH4tQ,Molly Kost,-8.6253273,115.19561100000001,"Gg. Mukuh Sari No.5X, Ubung Kaja, Kec. Denpasar Utara, Kota Denpasar, Bali 80115, Indonesia",https://maps.google.com/?cid=15340042100856209349,OPERATIONAL,,extended_stay_hotel,"extended_stay_hotel, hotel, lodging",4.4,5,
ChIJlbqR7r8_0i0RpxtVSTwwV7Y,Ayam Bakar Mbak Holip,-8.619093699999999,115.19695730000001,"Jl. Raya Denpasar - Gilimanuk No.394, Ubung Kaja, Kec. Denpasar Utara, Kota Denpasar, Bali 80115, Indonesia",https://maps.google.com/?cid=13139023473363196839,OPERATIONAL,+62 819-3463-6366,restaurant,"restaurant, food",4.6,23,
