id,name,latitude,longitude,address,url,status,phone,primary-type,types,rating,rating-count,price-level
ChIJVVVVVaVj0S0Rpj5B5CMZqoE,Gili Kembang Cottages,-8.3140208,114.6549185,"JL Ling Arum Tmr, Negara, MMP3+9XV, Batuagung, Kec. Jembrana, Kabupaten Jembrana, Bali 82252, Indonesia",https://maps.google.com/?cid=9343308018877546150,OPERATIONAL,+62 365 61141,hotel,"hotel, lodging",4,2,
ChIJ16MV4BFj0S0R0fFCIOhxq_Q,Umah Dedari,-8.3184648,114.6572611,"MMJ4+JW6, Batuagung, Jembrana, Jembrana Regency, Bali 82218, Indonesia",https://maps.google.com/?cid=17630310408059548113,OPERATIONAL,,coffee_shop,"coffee_shop, cafe, store, food",5,1,
ChIJOZ6NZABj0S0REK_lvkYUqh8,Home gio,-8.318249999999999,114.6571425,"MMJ4+JW6, Batuagung, Negara, Jembrana Regency, Bali 82218, Indonesia",https://maps.google.com/?cid=2281658455299567376,OPERATIONAL,,historical_landmark,historical_landmark,,,
ChIJ-RpxjvJj0S0RtjYIjqQC9v0,Kedai D'ABIN'K,-8.3149657,114.65196279999999,"Jln.batuagung,Banjar palungan batu, MMP2+2Q8, Batuagung, Kec. Jembrana, Kabupaten Jembrana, Bali, Indonesia",https://maps.google.com/?cid=18299817041647384246,OPERATIONAL,,coffee_shop,"coffee_shop, cafe, store, food",5,2,
ChIJcajORQBj0S0Rq6HffhIixew,Home stay,-8.3185232,114.6571159,"Banjar palingan batu No.14, Batuagung, Kec. Jembrana, Kabupaten Jembrana, Bali 82218, Indonesia",https://maps.google.com/?cid=17061080226196332971,OPERATIONAL,,night_club,night_club,4,1,
