id,name,latitude,longitude,address,url,status,phone,primary-type,types,rating,rating-count,price-level
ChIJn7V73Bw70i0R7F0_k8aOqFc,Alam Sari Property,-8.522478099999999,115.14497149999998,"Jl. Ciung Wanara, Banjar Anyar, Kec. Kediri, Kabupaten Tabanan, Bali 82123, Indonesia",https://maps.google.com/?cid=6316455460912193004,OPERATIONAL,+62 851-0090-9286,restaurant,"restaurant, food, general_contractor",4.4,14,
ChIJSerzGwc70i0RSts-KwUyuPM,Leonk Colada,-8.522416699999999,115.14777279999998,"Unnamed Road, F4HX+24J, Banjar Anyar, Kec. Kediri, Kabupaten Tabanan, Bali 82123, Indonesia",https://maps.google.com/?cid=17561841744713014090,OPERATIONAL,,indonesian_restaurant,"indonesian_restaurant, restaurant, food",5,2,
ChIJ85OgdeM70i0Rzp3qY_EZ38I,Jero Dewa Mangku Gede Suatri.,-8.5177943,115.1464381,"Jl. Ciung Wanara No.18, Banjar Anyar, Kec. Kediri, Kabupaten Tabanan, Bali 82123, Indonesia",https://maps.google.com/?cid=14041970687718628814,OPERATIONAL,,private_guest_room,"private_guest_room, lodging",,,
ChIJIZCmThs70i0RnXtPN3vA2VI,Villa Daoud,-8.522874500000002,115.14868899999999,"Unnamed Road, Banjar Anyar, Kediri, Tabanan Regency, Bali 82123, Indonesia",https://maps.google.com/?cid=5970014416497769373,OPERATIONAL,+62 858-1371-3722,hotel,"hotel, lodging",4.4,7,
ChIJ57YTSwA70i0RgiQqQXooezI,Warung Pande Jadi Desa,-8.5216055,115.14743279999999,"F4HW+9X3, Jl. Raya Desa Jadi, Banjar Anyar, Kec. Kediri, Kabupaten Tabanan, Bali 82123, Indonesia",https://maps.google.com/?cid=3637545629576209538,OPERATIONAL,,meal_takeaway,"meal_takeaway, restaurant, food",5,2,
ChIJedYwXQA70i0RD4OHZ5BX2aw,RUMAH.KITA,-8.522364999999999,115.1445713,"Griya multijadi exclusive 3 No.5, jadi babakan, Banjar Anyar, Kec. Kediri, Kabupaten Tabanan, Bali 82123, Indonesia",https://maps.google.com/?cid=12455082522193658639,OPERATIONAL,,private_guest_room,"private_guest_room, lodging",,,
