id,name,latitude,longitude,address,url,status,phone,primary-type,types,rating,rating-count,price-level
ChIJt4Y9OUSH0S0R9_nU1xQ-BPU,Acala Naturecho,-8.2754773,115.02227669999999,"Jalan Ume Dese, Desa, Bengkel, Kec. Busung Biu, Kabupaten Buleleng, Bali 81154, Indonesia",https://maps.google.com/?cid=17655304698440514039,OPERATIONAL,,hotel,"hotel, lodging, restaurant, food",5,12,
ChIJJcUZNW-H0S0RjDDPJdQzV64,Uma Desa Ricefield Trekking,-8.2745562,115.0248639,"Jl. Desa Bengkel, Umejero, Kec. Busung Biu, Kabupaten Buleleng, Bali 81152, Indonesia",https://maps.google.com/?cid=12562566671833706636,OPERATIONAL,,hiking_area,"hiking_area, park",5,4,
ChIJV4l13P6H0S0RclPhrxKQNis,Rumah Makan Sederhana,-8.2772098,115.02508700000001,"P2FG+428, Bengkel, Busung Biu, Buleleng Regency, Bali 81154, Indonesia",https://maps.google.com/?cid=3113834602307867506,OPERATIONAL,+62 813-3765-0759,indonesian_restaurant,"indonesian_restaurant, restaurant, food",4.3,18,PRICE_LEVEL_MODERATE
ChIJ66XFcFiH0S0RiYpPjVjc0PI,warung bakso bali,-8.2771712,115.02508679999998,"P2FG+42P, Bengkel, Busung Biu, Buleleng Regency, Bali 81154, Indonesia",https://maps.google.com/?cid=17496726825220409993,OPERATIONAL,,indonesian_restaurant,"indonesian_restaurant, restaurant, food",5,8,
ChIJVzj9BACH0S0RqNBXD4s0Z0Y,seb waterfall,-8.2796123,115.0247278,"P2CF+5V5, Bengkel, Busung Biu, Buleleng Regency, Bali, Indonesia",https://maps.google.com/?cid=5073081277118664872,OPERATIONAL,,tourist_attraction,tourist_attraction,5,3,
ChIJ1x3WVwCH0S0RISQv2dca0U4,Pangkalan sate with view,-8.274705899999999,115.02486999999999,"P2GF+JWF, Bengkel, Busung Biu, Buleleng Regency, Bali 81152, Indonesia",https://maps.google.com/?cid=5679350119454942241,OPERATIONAL,,indonesian_restaurant,"indonesian_restaurant, restaurant, food",,,
ChIJk5XocACH0S0RYB7ZEV-x7LA,Bengkel Rice terrace view spot,-8.2729796,115.0221841,"P2GC+RV3, Bengkel, Busung Biu, Buleleng Regency, Bali 81152, Indonesia",https://maps.google.com/?cid=12748759667058482784,OPERATIONAL,,park,park,,,
