id,name,latitude,longitude,address,url,status,phone,primary-type,types,rating,rating-count,price-level
ChIJ188PgMU50i0RY2v6OLQv510,Kurnia Seafood Bali,-8.606901299999999,115.10897279999998,"Jl. By Pass Tanah Lot No.Ds, Beraban, Kec. Kediri, Kabupaten Tabanan, Bali 82121, Indonesia",https://maps.google.com/?cid=6766429416244013923,OPERATIONAL,+62 821-4326-5758,seafood_restaurant,"seafood_restaurant, market, restaurant, food",4.5,3364,PRICE_LEVEL_MODERATE
ChIJGVRzZcU50i0RGX1addIb6aE,Starbucks,-8.6067279,115.10790949999998,"Kampoeng Lot Lt. 1, Tabanan, Jl. By Pass Tanah Lot No.10, Beraban, Kec. Kediri, Kabupaten Tabanan, Bali 82121, Indonesia",https://maps.google.com/?cid=11666886900405927193,OPERATIONAL,+62 361 4790680,coffee_shop,"coffee_shop, cafe, food, store",4.4,439,PRICE_LEVEL_MODERATE
ChIJAYEoTvQ50i0RC-t5yUomgVQ,Aryma Guest House Canggu Lot,-8.6067354,115.10451349999998,"Beraban, Kediri, Tabanan Regency, Bali 82121, Indonesia",https://maps.google.com/?cid=6089190273831267083,OPERATIONAL,+62 812-4620-111,hotel,"hotel, guest_house, lodging",4.8,18,
ChIJhVnOmSc50i0RMVkilknYaeo,Kurnia Indian Resto,-8.606737599999999,115.10946479999998,"Jl. By Pass Tanah Lot No.Ds, Beraban, Kec. Kediri, Kabupaten Tabanan, Bali 82121, Indonesia",https://maps.google.com/?cid=16891269687992801585,OPERATIONAL,+62 813-3855-5758,indian_restaurant,"indian_restaurant, restaurant, food",4.9,166,
ChIJB2Ljp9w50i0R96NP3sIlgaM,Warung Babi Guling Men Liong,-8.6021292,115.10514260000001,"94X4+43R, Jl. Tanah Lot, Beraban, Kec. Kediri, Kabupaten Tabanan, Bali 82121, Indonesia",https://maps.google.com/?cid=11781739619061572599,OPERATIONAL,+62 812-3716-7090,indonesian_restaurant,"breakfast_restaurant, indonesian_restaurant, restaurant, food",4.4,184,
ChIJnZQXH9s50i0R-8MCc2sIUBY,SHIDO WARUNG,-8.6043944,115.1042819,"94W3+6PV, Jl. Tanah Lot, Beraban, Kec. Kediri, Kabupaten Tabanan, Bali 82121, Indonesia",https://maps.google.com/?cid=1607794324555351035,OPERATIONAL,+62 812-4681-2618,restaurant,"indonesian_restaurant, restaurant, food",4.8,93,
ChIJ90gcrkU50i0R9ZY5Voyfmqc,Kost Sandi Yasa,-8.6054686,115.1013093,"94V2+RG7, Gg Jepun III Jl. Tanah Lot, Beraban, Kec. Kediri, Kabupaten Tabanan, Bali 82121, Indonesia",https://maps.google.com/?cid=12077140775838258933,OPERATIONAL,,private_guest_room,"private_guest_room, lodging",,,
ChIJYZK1XNs50i0RIFS_qavYP0k,Bakso Mas Aldo,-8.6027355,115.10470090000001,"94W3+WV4, Jl. Tanah Lot, Beraban, Kec. Kediri, Kabupaten Tabanan, Bali 82121, Indonesia",https://maps.google.com/?cid=5278175520100406304,OPERATIONAL,+62 813-3774-4588,indonesian_restaurant,"indonesian_restaurant, restaurant, food",4.4,364,PRICE_LEVEL_INEXPENSIVE
ChIJvddO1q450i0RRh7-7kbd1gU,Prana Healing,-8.6060283,115.1089581,"Gang Prana Healing, Jl. By Pass Tanah Lot No.16, Beraban, Kec. Kediri, Kabupaten Tabanan, Bali 80351, Indonesia",https://maps.google.com/?cid=420766911932800582,OPERATIONAL,+62 878-6012-0011,guest_house,"guest_house, lodging",5,1,
ChIJr2x-c1I50i0R09DU4OSCzPc,ACK Beraban,-8.605393,115.10656329999998,"Jl. By Pass Tanah Lot No.13, Beraban, Kec. Kediri, Kabupaten Tabanan, Bali 80351, Indonesia",https://maps.google.com/?cid=17855790542153371859,OPERATIONAL,+62 877-3132-1513,fast_food_restaurant,"fast_food_restaurant, restaurant, food",4.1,26,
ChIJI4C7Fic50i0RU15McDsDoHo,Love Story,-8.6011581,115.1042204,"94X3+HJ5, Jl. Pantai Kedungu, Beraban, Kec. Kediri, Kabupaten Tabanan, Bali 81122, Indonesia",https://maps.google.com/?cid=8836066022722920019,OPERATIONAL,,bar,bar,4.2,5,
ChIJ8cus1dA50i0RcRA0e1ulR4s,DFC TANAH LOT,-8.606084899999999,115.1029951,"94V3+H59, Jl. Tanah Lot, Beraban, Kec. Kediri, Kabupaten Tabanan, Bali 82121, Indonesia",https://maps.google.com/?cid=10036172106946056305,OPERATIONAL,+62 812-3910-5624,restaurant,"restaurant, food",4.2,51,
ChIJ-RHwgnc50i0RzR0lFuR0mDk,Bali trip,-8.606634699999999,115.1091405,"Jl. By Pass Tanah Lot No.16, Beraban, Kec. Kediri, Kabupaten Tabanan, Bali 82121, Indonesia",https://maps.google.com/?cid=4150195579594808781,OPERATIONAL,,restaurant,"restaurant, food",5,5,
ChIJXzk3dzU40i0RnMDSAElMGx4,Bakso Moro Seneng,-8.6049382,115.1059515,"94W4+29G, Jl. By Pass Tanah Lot, Beraban, Kec. Kediri, Kabupaten Tabanan, Bali 81212, Indonesia",https://maps.google.com/?cid=2169411521939161244,OPERATIONAL,+62 853-3909-5822,indonesian_restaurant,"indonesian_restaurant, restaurant, food",3.7,18,
ChIJ_Zd21No50i0RodOrqcD2CNU,Warung Jawa Arema,-8.604876400000002,115.10565359999998,"Beraban, Kediri, Tabanan Regency, Bali, Indonesia",https://maps.google.com/?cid=15350790637233099681,OPERATIONAL,,restaurant,"restaurant, food",,,
ChIJWexMXyk50i0RBrHGNQpUSZk,Hello drink and toast Bali,-8.602323199999999,115.10494720000001,"Jl. Tanah Lot, Beraban, Kec. Kediri, Bali, 82121, Indonesia",https://maps.google.com/?cid=11045451963931472134,OPERATIONAL,+62 815-8866-749,cafe,"cafe, food",3.5,8,
ChIJldh_tME50i0RINr1d_MVObs,Suka Fried Chicken,-8.606351499999999,115.1078213,"Beraban, Kediri, Tabanan Regency, Bali 82121, Indonesia",https://maps.google.com/?cid=13490838294198868512,OPERATIONAL,+62 877-6279-4153,meal_takeaway,"meal_takeaway, restaurant, food",4,1,
ChIJD7x-49o50i0RZGhIF7_zYJA,Warung Makan Kang Malen,-8.6050886,115.10382450000002,"94V3+XG8, Jl. Tanah Lot, Beraban, Kec. Kediri, Kabupaten Tabanan, Bali 82121, Indonesia",https://maps.google.com/?cid=10403583141280770148,OPERATIONAL,+62 857-9207-6309,restaurant,"restaurant, food, store",4.4,24,
ChIJZT_FdK450i0RllBlHPho4FM,Santika House,-8.608767499999999,115.1046434,"94R3+FVR, Jl. Sinjuana Timur, Beraban, Kec. Kediri, Kabupaten Tabanan, Bali 82121, Indonesia",https://maps.google.com/?cid=6043946114768785558,OPERATIONAL,,private_guest_room,"private_guest_room, lodging",5,1,
ChIJvaYs4Fo50i0Re1mKKiMFWDk,Babi Guling Sam sam Nang Ableng,-8.6015595,115.10560409999998,"Pasar Tradisional Tanah Lot, Jl. Tanah Lot, Beraban, Kec. Kediri, Kabupaten Tabanan, Bali 82121, Indonesia",https://maps.google.com/?cid=4132058306708134267,OPERATIONAL,+62 813-5302-3633,indonesian_restaurant,"indonesian_restaurant, restaurant, food",5,1,
