id,name,latitude,longitude,address,url,status,phone,primary-type,types,rating,rating-count,price-level
ChIJCwVuL0Uf0i0R6HQ90Afvouo,Cicada Luxury Resort Ubud,-8.389594599999999,115.29628399999999,"Jl. Raya Bilukan, Sebatu, Kec. Tegallalang, Kabupaten Gianyar, Bali 80561, Indonesia",https://maps.google.com/?cid=16907338767939761384,OPERATIONAL,+62 361 8989999,hotel,"hotel, lodging",4.9,106,
ChIJt4Rh3rsf0i0RRzYhkWVhqu8,Lumbung Jaya Guest House,-8.3884509,115.2971505,"Jl. Raya Bilukan No.25, Sebatu, Kec. Tegallalang, Kabupaten Gianyar, Bali 80561, Indonesia",https://maps.google.com/?cid=17269722809960052295,OPERATIONAL,+62 877-6137-1727,guest_house,"guest_house, lodging",4.6,35,
ChIJ3fuJP6Yf0i0RF-RjhB7bKrQ,DaLa Warung,-8.388330999999999,115.29749539999999,"Jl. Raya Bilukan No.95, Sebatu, Kec. Tegallalang, Kabupaten Gianyar, Bali 80561, Indonesia",https://maps.google.com/?cid=12982429799965516823,OPERATIONAL,,restaurant,"restaurant, food",4.8,39,
ChIJ5ywom6Af0i0RDmT8-1NBjTM,Tangelo Bali,-8.3897293,115.29636370000001,"Jl. Raya Bilukan, Sebatu, Kec. Tegallalang, Kabupaten Gianyar, Bali 80561, Indonesia",https://maps.google.com/?cid=3714697096616240142,OPERATIONAL,+62 823-4180-5895,restaurant,"restaurant, food",5,102,
ChIJ_U2gOl0f0i0RmbmTv5YEIEM,Balai Banjar Bonjaka,-8.3841421,115.29491069999999,"J78V+8XV, Jl. Raya Bonjaka, Sebatu, Kec. Tegallalang, Kabupaten Gianyar, Bali 80561, Indonesia",https://maps.google.com/?cid=4836871045301647769,OPERATIONAL,,museum,museum,4.2,14,
ChIJIes3nUMf0i0RrUJzjvb5S04,Babi Guling Ibu Ramia,-8.386263099999999,115.2986731,"Sebatu, Tegallalang, Gianyar Regency, Bali, Indonesia",https://maps.google.com/?cid=5641877795558867629,OPERATIONAL,,restaurant,"restaurant, food",5,6,
ChIJ74cI8BQf0i0R4tzhROqBDvU,Teka house,-8.3894438,115.29684189999999,"J76W+6PG, Jl. Raya Bilukan, Sebatu, Kec. Tegallalang, Kabupaten Gianyar, Bali 80561, Indonesia",https://maps.google.com/?cid=17658194032144276706,OPERATIONAL,,private_guest_room,"private_guest_room, lodging",2,1,
ChIJl-H00ncf0i0RUVKbkvNZ0cE,Warung Lalapan Jawa,-8.3865939,115.29838339999999,"Jl. Raya Bilukan, Sebatu, Kec. Tegallalang, Kabupaten Gianyar, Bali 80561, Indonesia",https://maps.google.com/?cid=13966042822124196433,OPERATIONAL,+62 819-1560-7248,restaurant,"restaurant, food",5,2,
ChIJ5yEhNtQf0i0Rr6uplYZy5F0,Tukad Melingkuh,-8.3872523,115.2920874,"J77R+6QF, Sebatu, Tegallalang, Gianyar Regency, Bali 80561, Indonesia",https://maps.google.com/?cid=6765658462579436463,OPERATIONAL,,private_guest_room,"private_guest_room, lodging",5,1,
ChIJ-T1Tf0Mf0i0R9uz7cZ7LqH4,Warung Makan Ikan Iaut,-8.3866265,115.29854449999999,"Sebatu, Tegallalang, Gianyar Regency, Bali, Indonesia",https://maps.google.com/?cid=9126768526243917046,OPERATIONAL,,restaurant,"restaurant, food",4.5,2,
ChIJqXE2CHwf0i0RgzToQ0RRvIA,PT cidada international,-8.3896342,115.29637559999998,"Sebatu No 86, Sebatu, Kec. Tegallalang, Kabupaten Gianyar, Bali 80561, Indonesia",https://maps.google.com/?cid=9276378686115296387,OPERATIONAL,,hotel,"hotel, lodging",,,
ChIJDeppyVof0i0RPXTPcJGK-Hg,Kebon Talo,-8.3907102,115.29517759999997,"Jalan Raya Praya, J75W+P37, Tegallalang, Sebatu, Kec. Gianyar, Kabupaten Gianyar, Bali 80561, Indonesia",https://maps.google.com/?cid=8716869436043129917,OPERATIONAL,+62 819-0705-5505,park,park,4.2,17,
ChIJf9_wKPUf0i0Rqwz4uOuagb8,Warung makan sari Nadi,-8.3830484,115.29481980000001,"J78V+QWW, Sebatu, Tegallalang, Gianyar Regency, Bali 80561, Indonesia",https://maps.google.com/?cid=13799481070451166379,OPERATIONAL,+62 813-3864-4707,indonesian_restaurant,"indonesian_restaurant, restaurant, food",,,
ChIJXfT5C7kf0i0RH0rdTIWXEFk,Pondok Sudormo,-8.3844168,115.29857499999999,"J78X+6CP, Sebatu, Tegallalang, Gianyar Regency, Bali, Indonesia",https://maps.google.com/?cid=6417796067778972191,CLOSED_TEMPORARILY,,bar,bar,,,
ChIJyVIpJodCJ4wRCbIONuN3MHA,Ubud best driver,-8.384501199999999,115.2994518,"Jasan, Sebatu, Kec. Tegallalang, Kabupaten Gianyar, Bali 80561, Indonesia",https://maps.google.com/?cid=8084093148878254601,OPERATIONAL,+62 831-1515-0016,travel_agency,"car_rental, travel_agency",5,75,
