id,name,latitude,longitude,address,url,status,phone,primary-type,types,rating,rating-count,price-level
ChIJaXR2vWE-0i0REuTCAcj9fzE,Griya Bun Sari,-8.5837808,115.2385468,"Jl. Delima no 2 Marge, Let, Jl. Uma Bun, Angantaka, Kec. Abiansemal, Kabupaten Badung, Bali 80352, Indonesia",https://maps.google.com/?cid=3566848465365558290,OPERATIONAL,+62 817-4754-898,hotel,"hotel, lodging",4.7,118,
ChIJfQOaqd4_0i0Rwn8oN4_UrXk,Tebu Coffee & Eatery,-8.5825635,115.2339669,"Let, Banjar Jalan Marga, C68M+XHG, Angantaka, Kec. Abiansemal, Kabupaten Badung, Bali 80352, Indonesia",https://maps.google.com/?cid=8767897761131036610,CLOSED_TEMPORARILY,+62 813-3876-9871,restaurant,"restaurant, food",4.7,30,
ChIJoYaAUHI_0i0R5aDCynAGdFg,Kedai raden_coffe&food_kersa,-8.5820619,115.2343491,"Unnamed Road, Angantaka, Kec. Abiansemal, Kabupaten Badung, Bali 80352, Indonesia",https://maps.google.com/?cid=6373726454143951077,OPERATIONAL,,cafe,"cafe, food",5,3,
ChIJ-T_5pPU_0i0RNMI_9JJKi_I,Geria bun bed & paint art gallery,-8.5839081,115.2385777,"Jalan Marge Let Jl. Uma Bun, Br.puseh, Angantaka, Kec. Abiansemal, Kabupaten Badung, Bali 80352, Indonesia",https://maps.google.com/?cid=17477144773964841524,OPERATIONAL,+62 817-4754-898,,lodging,5,1,
ChIJq-n5TIg-0i0RgGEeX_ZS9so,Warung Bu Arya,-8.580335,115.2343458,"Angantaka, Abiansemal, Badung Regency, Bali, Indonesia",https://maps.google.com/?cid=14624968058043523456,OPERATIONAL,,restaurant,"restaurant, food",,,
ChIJ8TV55ZY_0i0RibDePPxL2jE,Warung Lalapan Bu Risky,-8.584498,115.24003300000001,"Jl. Raya Angantaka No.9, Angantaka, Kec. Abiansemal, Kabupaten Badung, Bali 80352, Indonesia",https://maps.google.com/?cid=3592267199506460809,OPERATIONAL,+62 813-3870-9468,restaurant,"restaurant, food",5,1,
ChIJVY4ElG0_0i0Rzuoip0kxcVQ,Warung makan tipat cantok dan rujak buk pande,-8.581875499999999,115.2343458,"Unnamed Road, Angantaka, Kec. Abiansemal, Kabupaten Badung, Bali 80352, Indonesia",https://maps.google.com/?cid=6084698763960707790,OPERATIONAL,+62 859-5532-3222,brunch_restaurant,"brunch_restaurant, restaurant, food",5,1,
ChIJaXUEcwA_0i0RHJg8JZWJ42I,KOS PUTIH 08,-8.582156,115.23581999999999,"Jl margelet gang nyuh gading No.8, Angantaka, Kec. Abiansemal, Kabupaten Badung, Bali, Indonesia",https://maps.google.com/?cid=7125690309098117148,OPERATIONAL,,hostel,"hostel, lodging",5,1,
ChIJ94NU-mI-0i0RQYhiVHJ38WM,LALAPAN GUNG ADI,-8.579717,115.23873900000001,"C6CQ+4F9, Jl. Raya Angantaka - Sibang Gede, Angantaka, Kec. Abiansemal, Kabupaten Badung, Bali 80352, Indonesia",https://maps.google.com/?cid=7201668612067854401,OPERATIONAL,+62 818-0533-8249,restaurant,"restaurant, food",4.8,12,
ChIJH6ieRAU_0i0RN5HWN1rND-E,Warung SCTV,-8.5798337,115.23646899999999,"Jl. Raya Angantaka, Sibang Gede, Kec. Abiansemal, Kabupaten Badung, Bali 80352, Indonesia",https://maps.google.com/?cid=16217406570552004919,OPERATIONAL,+62 812-3669-2035,restaurant,"restaurant, food",5,3,
ChIJqVsqi2c_0i0RMJ50tm-X3bM,Mie Ayam Bakso Solo Pak Oscar,-8.578821999999999,115.23898469999999,"Jl. Raya Angantaka No.17, Angantaka, Kec. Abiansemal, Kabupaten Badung, Bali 80352, Indonesia",https://maps.google.com/?cid=12960681808700415536,OPERATIONAL,+62 822-4715-8414,indonesian_restaurant,"indonesian_restaurant, restaurant, food",4,1,
ChIJz-vRXog-0i0R9ssS1YyIooI,Warung Jawa,-8.579834,115.2335859,"C6CM+3C8, Jl. Banjar Sibang V A, Angantaka, Kec. Abiansemal, Kabupaten Badung, Bali 80352, Indonesia",https://maps.google.com/?cid=9413236309609335798,OPERATIONAL,+62 817-4717-682,indonesian_restaurant,"indonesian_restaurant, restaurant, food",5,2,
ChIJQfFU0cI_0i0RF2ljx1mviAk,Angkringan Dimsum KIRANA,-8.5788605,115.23882900000001,"C6CQ+FG4, Jl. Raya Angantaka, Angantaka, Kec. Abiansemal, Kabupaten Badung, Bali 80352, Indonesia",https://maps.google.com/?cid=686991743306131735,OPERATIONAL,+62 819-9942-2657,restaurant,"restaurant, food",5,4,
ChIJv172vuc_0i0Rmqe5FtJ0u7k,Warung Bu Mangku Angantaka,-8.579792300000001,115.2343327,"Jl. Raya Angantaka - Sibang Gede No.28A, Angantaka, Kec. Abiansemal, Kabupaten Badung, Bali 80352, Indonesia",https://maps.google.com/?cid=13383419163334780826,OPERATIONAL,+62 878-5852-2940,coffee_shop,"coffee_shop, cafe, store, food",5,1,
ChIJcUrDB2g_0i0RwT56zZIkeSQ,Yan Bar Warung,-8.5796421,115.2351814,"C6CP+43V, Angantaka, Abiansemal, Badung Regency, Bali 80352, Indonesia",https://maps.google.com/?cid=2628172070478560961,OPERATIONAL,,restaurant,"restaurant, food",4.8,4,
ChIJR63-ahk_0i0RdiirQTZ7geg,WARUNG SUPER GAROS,-8.579775399999999,115.2346147,"Jl. Raya Angantaka - Sibang Gede No.28a, Angantaka, Kec. Abiansemal, Kabupaten Badung, Bali 80352, Indonesia",https://maps.google.com/?cid=16753807561755142262,OPERATIONAL,+62 819-9918-5025,restaurant,"restaurant, food",5,7,
ChIJ9ZqPbzA_0i0Rx0MpylYbzns,Lalapan Jawa Bu Nur,-8.5797177,115.2389572,"C6CQ+4H8, Jl. Raya Angantaka - Sibang Gede, Sibang Gede, Kec. Abiansemal, Kabupaten Badung, Bali, Indonesia",https://maps.google.com/?cid=8921097971440370631,CLOSED_TEMPORARILY,,restaurant,"restaurant, food",,,
ChIJh-FVAIk_0i0RsnvgpAsNK7o,Mes PT.SGT,-8.5811875,115.23418749999999,"C69M+GMJ, Angantaka, Abiansemal, Badung Regency, Bali 80352, Indonesia",https://maps.google.com/?cid=13414830258715130802,OPERATIONAL,+62 838-0820-0238,hostel,"hostel, lodging",5,1,
ChIJqR8O3mI-0i0R6uonjoGvRQU,Wonogiri,-8.5788377,115.2389798,"C6CQ+FH9, Jl. Raya Angantaka, Angantaka, Kec. Abiansemal, Kabupaten Badung, Bali 80352, Indonesia",https://maps.google.com/?cid=379902714553297642,OPERATIONAL,,restaurant,"restaurant, food",3,1,
ChIJp8xqc3c_0i0RtGas5-y4JVY,Kedai Teh Poci,-8.579635399999999,115.2389795,"C6CQ+4HX, Jl. Raya Angantaka, Angantaka, Kec. Abiansemal, Kabupaten Badung, Bali 80352, Indonesia",https://maps.google.com/?cid=6207570989038724788,CLOSED_TEMPORARILY,+62 857-3788-4669,cafe,"cafe, food",,,
