id,name,latitude,longitude,address,url,status,phone,primary-type,types,rating,rating-count,price-level
ChIJJQLNgu1E0i0Rz5sm5qaV9EI,Mövenpick Resort & Spa Jimbaran Bali,-8.785719,115.1637539,"Jimbaran Bali, Jl. Wanagiri No.1, Jimbaran, Kec. Kuta Sel., Kabupaten Badung, Bali 80362, Indonesia",https://maps.google.com/?cid=4824645644879043535,OPERATIONAL,+62 361 4725777,hotel,"hotel, lodging",4.7,6183,
ChIJR6qrtoxE0i0RaPwIk5V3VO4,Le Méridien Bali Jimbaran,-8.781780099999999,115.1655883,"Jl. Bukit Permai, Jimbaran, Kec. Kuta Sel., Kabupaten Badung, Bali 80361, Indonesia",https://maps.google.com/?cid=17173482763371215976,OPERATIONAL,+62 361 8466888,hotel,"hotel, wedding_venue, event_venue, lodging",4.4,1805,
ChIJvbLamO1E0i0R51MpPQg8Ft8,Samasta Lifestyle Village,-8.785419400000002,115.16463059999998,"Jl. Wanagiri No.1, Jimbaran, Kec. Kuta Sel., Kabupaten Badung, Bali 80364, Indonesia",https://maps.google.com/?cid=16075101926029087719,OPERATIONAL,+62 361 4468600,shopping_mall,"shopping_mall, amusement_center, cafe, clothing_store, restaurant, food, store",4.6,3562,
ChIJZ-o5W-1E0i0RCQsScozYFMU,WAHAHA Pork Ribs - Jimbaran,-8.785731799999999,115.16408129999998,"Jl. Wanagiri, Jimbaran, Kec. Kuta Sel., Kabupaten Badung, Bali 80361, Indonesia",https://maps.google.com/?cid=14201213622726822665,OPERATIONAL,+62 877-8407-2794,indonesian_restaurant,"indonesian_restaurant, restaurant, food",4.5,1784,PRICE_LEVEL_MODERATE
ChIJU9lEefFE0i0R4WgI44iZFqY,Sundara,-8.7828819,115.1617691,"Bay, Jimbaran, Kec. Kuta Sel., Kabupaten Badung, Bali 80361, Indonesia",https://maps.google.com/?cid=11967921872987252961,OPERATIONAL,+62 361 708333,restaurant,"brunch_restaurant, seafood_restaurant, barbecue_restaurant, night_club, bar, restaurant, food",4.6,1133,PRICE_LEVEL_EXPENSIVE
ChIJy8VI38BF0i0RXreUTfT1aSU,L'Osteria Pizza e Cucina Jimbaran,-8.7837017,115.1662949,"Jl. Raya Uluwatu, Jimbaran, Kec. Kuta Sel., Kabupaten Badung, Bali 80361, Indonesia",https://maps.google.com/?cid=2695956281580369758,OPERATIONAL,+62 821-4668-5990,italian_restaurant,"italian_restaurant, restaurant, food",4.7,618,
ChIJDzuIRvNE0i0RNPSsY4ufjKY,Kekeluargaan Pandan Sari Cafe,-8.7811489,115.16418519999999,"Jl. Bukit Permai, Jimbaran, Kec. Kuta Sel., Kabupaten Badung, Bali 80361, Indonesia",https://maps.google.com/?cid=12001142528057078836,OPERATIONAL,+62 813-3711-2390,seafood_restaurant,"seafood_restaurant, restaurant, food",4.5,934,PRICE_LEVEL_MODERATE
ChIJtVkxXPJE0i0RZ18IINzAQJY,Karma Jimbaran,-8.783019699999999,115.1619029,"Jl. Bukit Permai, Jimbaran, Kec. Kuta Sel., Kabupaten Badung, Bali 80362, Indonesia",https://maps.google.com/?cid=10826865555861430119,OPERATIONAL,+62 361 708800,resort_hotel,"resort_hotel, hotel, lodging",4.4,1012,
ChIJgwLORo5E0i0RJpigzUPi0HQ,Warung Mami Ikan Bakar,-8.785744,115.16735159999998,"Jl. Uluwatu II No.30X, Jimbaran, Kec. Kuta Sel., Kabupaten Badung, Bali 80361, Indonesia",https://maps.google.com/?cid=8417476484395997222,OPERATIONAL,+62 812-3620-051,indonesian_restaurant,"seafood_restaurant, indonesian_restaurant, restaurant, food",4.5,1603,PRICE_LEVEL_INEXPENSIVE
ChIJjfcX44xE0i0RKDLVmDWuGn0,Starbucks Jimbaran Arcade,-8.782406199999999,115.1672893,"6598+2WM, Jl. Raya Uluwatu, Jimbaran, Kec. Kuta Sel., Kabupaten Badung, Bali 80361, Indonesia",https://maps.google.com/?cid=9014709149356077608,OPERATIONAL,+62 800 7827282,coffee_shop,"coffee_shop, cafe, food, store",4.5,1059,PRICE_LEVEL_MODERATE
ChIJIeFw_Y1E0i0RjFc-OGw6yLw,iiga Warung,-8.7881717,115.16464239999999,"Jalan Raya Uluwatu I, Jimbaran, Kec. Kuta Sel., Kabupaten Badung, Bali 80361, Indonesia",https://maps.google.com/?cid=13603186910947071884,OPERATIONAL,+62 812-3978-359,barbecue_restaurant,"barbecue_restaurant, restaurant, food",4.2,2317,PRICE_LEVEL_MODERATE
ChIJK1FpE_NE0i0R1p2PhQy5Nz8,Jimbaran Beach Club,-8.7817145,115.1631605,"Jl. Pantai Muaya, Jimbaran, Kuta Selatan, Jl. Wanagiri No.1, Jimbaran, Kec. Kuta Sel., Kabupaten Badung, Bali 80361, Indonesia",https://maps.google.com/?cid=4555313011540073942,OPERATIONAL,+62 361 709959,seafood_restaurant,"seafood_restaurant, breakfast_restaurant, restaurant, food",4.2,1232,PRICE_LEVEL_MODERATE
ChIJ6dNR1oxE0i0R89iN_ykfEkY,"La Brasserie"" by Melting wok",-8.782339799999999,115.16575170000002,"Jl. Bukit Permai No.8, Jimbaran, Kec. Kuta Sel., Kabupaten Badung, Bali 80361, Indonesia",https://maps.google.com/?cid=5049132397477353715,OPERATIONAL,+62 812-3950-0044,french_restaurant,"french_restaurant, restaurant, food",4.8,955,PRICE_LEVEL_MODERATE
ChIJQ6CRO41E0i0RQfF-LET4bqY,"Kupu Kupu Jimbaran Hotel, Beach Club and Spa by L'Occitane",-8.7833307,115.1664405,"6588+JFW, Jl. Raya Uluwatu, Jimbaran, Kec. Kuta Sel., Kabupaten Badung, Bali 80361, Indonesia",https://maps.google.com/?cid=11992795829422190913,OPERATIONAL,+62 822-6648-9843,hotel,"hotel, lodging",4.2,436,
ChIJ9yHDbI1F0i0RjPElDC2FG_w,KING'S CRAB RESTAURANT Jimbaran-Uluwatu,-8.7895024,115.1638804,"Jl. Uluwatu I Bukit No.201, Jimbaran, Kec. Kuta Sel., Kabupaten Badung, Bali 80361, Indonesia",https://maps.google.com/?cid=18166259950452863372,OPERATIONAL,+62 815-5888-8333,seafood_restaurant,"seafood_restaurant, restaurant, food",4,156,
ChIJcxsfV-1E0i0Rb50oIXJuqn0,Mapo Galmaegi,-8.785409000000001,115.1647507,"Jl. Wanagiri No.1, Jimbaran, Kec. Kuta Sel., Kabupaten Badung, Bali 80361, Indonesia",https://maps.google.com/?cid=9055171437243440495,OPERATIONAL,+62 361 4725849,korean_restaurant,"korean_restaurant, barbecue_restaurant, restaurant, food",4.4,369,
ChIJeQrVRfNE0i0RVnrWc2ncyRM,Intan Sari Cafe,-8.7811685,115.1643219,"Jl. Bukit Permai No.5 C, Jimbaran, Kec. Kuta Sel., Kabupaten Badung, Bali 80361, Indonesia",https://maps.google.com/?cid=1425913102512585302,OPERATIONAL,+62 361 705205,seafood_restaurant,"seafood_restaurant, indonesian_restaurant, restaurant, food",4.4,684,
ChIJwe7BjZJE0i0RSEKFHMTrwBA,Kalimas Residence,-8.7858695,115.16705979999999,"6578+HXJ, Jl. Uluwatu II No.01, Jimbaran, Kec. Kuta Sel., Kabupaten Badung, Bali 80361, Indonesia",https://maps.google.com/?cid=1207223927659905608,OPERATIONAL,+62 813-3865-3510,hotel,"hotel, lodging",4.2,49,
ChIJgwvlfXFR0i0R2eH7EcN2B8M,HoCiak Restoran Bali,-8.786171399999999,115.16795769999999,"Jl. Uluwatu II, Jimbaran, Kec. Kuta Sel., Kabupaten Badung, Bali 80361, Indonesia",https://maps.google.com/?cid=14053331742425342425,OPERATIONAL,+62 817-394-959,restaurant,"restaurant, food",4.4,184,
ChIJgYPgYH1F0i0RFWdKiQaH3jI,SANDPIPER BALI,-8.7840303,115.16611309999999,"Jl. Raya Uluwatu No.111x, Jimbaran, Kec. Kuta Sel., Kabupaten Badung, Bali 80361, Indonesia",https://maps.google.com/?cid=3665515608869070613,OPERATIONAL,+62 813-9946-4272,restaurant,"restaurant, coffee_shop, cafe, vegan_restaurant, vegetarian_restaurant, breakfast_restaurant, food, store",4.9,404,
