id,name,latitude,longitude,address,url,status,phone,primary-type,types,rating,rating-count,price-level
ChIJL8KHQZE50i0RSewcijxzY8I,Villa Dukuh,-8.5894637,115.12481340000001,"Nyambu, Kediri, Tabanan Regency, Bali 82121, Indonesia",https://maps.google.com/?cid=14007165969904757833,OPERATIONAL,+62 813-1107-8135,lodging,lodging,3.9,17,
ChIJdyyoL0c50i0RtsZo9IIRUyk,Ngopi di kebun,-8.5867752,115.1232119,"Pandak Gede, Kediri, Tabanan Regency, Bali 82121, Indonesia",https://maps.google.com/?cid=2977743032765957814,OPERATIONAL,+62 812-3916-7634,coffee_shop,"coffee_shop, cafe, food, store",4.7,59,
ChIJ2T6j1VI50i0Rh9pTHPpTwCM,Puri Agung Batan Ancak,-8.5926177,115.12143809999999,"Jl. Tanah Lot No.81, Pandak Gede, Kec. Kediri, Kabupaten Tabanan, Bali 82121, Indonesia",https://maps.google.com/?cid=2576151320538110599,OPERATIONAL,,museum,museum,5,2,
ChIJ5zM2L5I50i0Ry2S1dZluYZI,Lavana Coffee Roastery,-8.5876185,115.12325369999999,"Jl. Tanah Lot, Pandak Gede, Kec. Kediri, Kabupaten Tabanan, Bali 82121, Indonesia",https://maps.google.com/?cid=10547833407662286027,OPERATIONAL,+62 812-1781-2390,coffee_shop,"coffee_shop, cafe, food, store",4.6,16,
ChIJZ8AiwpE50i0RLj_-fUVrnJo,Kari Kost 2,-8.5864124,115.12546800000001,"Unnamed Road, C47G+C5P, Pandak Gede, Kec. Kediri, Kabupaten Tabanan, Bali 82121, Indonesia",https://maps.google.com/?cid=11140897524418494254,OPERATIONAL,+62 813-3842-0147,private_guest_room,"private_guest_room, lodging",4.3,8,
ChIJqUTjbZY50i0RMjbrDjM5hno,GAE Luwih Rental,-8.5918644,115.12010029999999,"Pandak Gede, Kediri, Tabanan Regency, Bali 82121, Indonesia",https://maps.google.com/?cid=8828807010962847282,OPERATIONAL,+62 813-5300-9193,car_rental,car_rental,5,5,
ChIJhVhU95E50i0R4v1LAhDHLQc,ACK Pandak Gede,-8.586205099999999,115.1241243,"Jl. Tanah Lot No.17, Pandak Gede, Kec. Kediri, Kabupaten Tabanan, Bali 82121, Indonesia",https://maps.google.com/?cid=517288403789413858,OPERATIONAL,+62 823-4063-7850,fast_food_restaurant,"fast_food_restaurant, restaurant, food",4,77,
ChIJ29Qwuew50i0RR-_ohLS6RBc,Home Tasyaa,-8.5891328,115.12590240000002,"C46G+89R, Banjar dukuh, Nyambu, Kec. Kediri, Kabupaten Tabanan, Bali 82121, Indonesia",https://maps.google.com/?cid=1676670245775404871,OPERATIONAL,,hotel,"hotel, lodging",,,
ChIJg5KSM1450i0RpoIb8aCSFyg,Taman Kolam Pancing Banjar Tamansari,-8.59299,115.1239863,"C44F+RH5, Pandak Gede, Kediri, Tabanan Regency, Bali 82121, Indonesia",https://maps.google.com/?cid=2888938905918997158,OPERATIONAL,+62 812-3798-6196,park,park,4.8,21,
ChIJLY4C-aU50i0RLWnZehByhXM,Warung Restu Ibu,-8.5898224,115.1225657,"Jl. Tanah Lot No.56, Pandak Gede, Kec. Kediri, Kabupaten Tabanan, Bali 82121, Indonesia",https://maps.google.com/?cid=8324184901370341677,OPERATIONAL,,indonesian_restaurant,"indonesian_restaurant, restaurant, food",4.9,7,
ChIJHwaKgko50i0Rc_yO-bwT9rE,Bakso Mercon Pandak Gede,-8.586399100000001,115.12378779999999,"C47F+CGV, Jl. Tanah Lot, Pandak Gede, Kec. Kediri, Kabupaten Tabanan, Bali 82121, Indonesia",https://maps.google.com/?cid=12823458691345742963,OPERATIONAL,,indonesian_restaurant,"indonesian_restaurant, restaurant, food",5,1,
ChIJkcXAtZU50i0RhSjNZwvJ--4,Warung Buk Dian,-8.5935652,115.1221,"Gg. Melati No.13, Pandak Gede, Kec. Kediri, Kabupaten Tabanan, Bali 82121, Indonesia",https://maps.google.com/?cid=17220578651004545157,OPERATIONAL,,cafe,"cafe, food",4.5,8,
ChIJzT_2l4450i0Rh79vlsDnSQY,Jualan Belut Goreng Bu Dewi,-8.5919119,115.12033989999999,"C45C+64P, Pandak Gede, Kediri, Tabanan Regency, Bali 82121, Indonesia",https://maps.google.com/?cid=453148051871088519,OPERATIONAL,+62 815-5839-7202,indonesian_restaurant,"indonesian_restaurant, restaurant, food",,,
ChIJZc1lAgA50i0RSf1dox-zBpQ,Saren Kangin Puri Agung Batan Ancak,-8.5931451,115.12166619999998,"Gg. Kamboja No.11, Pandak Gede, Kec. Kediri, Kabupaten Tabanan, Bali 82121, Indonesia",https://maps.google.com/?cid=10666409715939802441,OPERATIONAL,,historical_landmark,historical_landmark,,,
ChIJa8QxXJQ50i0Rg88KxRJFgeM,Warung Nasi Bu Dayu,-8.592353,115.1210419,"C45C+3C3, Pasar Jl. Tanah Lot, Pandak Gede, Kec. Kediri, Kabupaten Tabanan, Bali 82121, Indonesia",https://maps.google.com/?cid=16393460065522864003,OPERATIONAL,+62 878-6001-0053,indonesian_restaurant,"indonesian_restaurant, restaurant, food",4.7,6,
ChIJvR2jJpI50i0RCpjx_17evLA,Warung Muslim Madura,-8.5872934,115.12335049999999,"C47F+38Q, Jl. Tanah Lot, Pandak Gede, Kec. Kediri, Kabupaten Tabanan, Bali 82121, Indonesia",https://maps.google.com/?cid=12735298345899235338,OPERATIONAL,+62 853-3302-2647,indonesian_restaurant,"indonesian_restaurant, restaurant, food",3,1,
ChIJTdGUhws50i0R1YXA-lfjlhY,Packing Grill,-8.587915299999999,115.11946990000001,"Jl. Dedela Nata No.Desa, Pandak Gede, Kec. Kediri, Kabupaten Tabanan, Bali 82121, Indonesia",https://maps.google.com/?cid=1627738282349594069,OPERATIONAL,+62 877-6660-0251,tourist_attraction,tourist_attraction,5,1,
ChIJ0YhvK5I50i0Rg8j_Y4hzuYw,Lalapan Fajar Indah,-8.5880348,115.1233851,"C46F+Q9J, Jl. Tanah Lot, Pandak Gede, Kec. Kediri, Kabupaten Tabanan, Bali 82121, Indonesia",https://maps.google.com/?cid=10140263065631836291,CLOSED_TEMPORARILY,+62 813-5332-8937,restaurant,"restaurant, food",,,
ChIJozyIO7Y50i0RQVvT8R2EJKc,AR BOBA,-8.5898691,115.12254829999998,"Jl. Tanah Lot No.56, Pandak Gede, Kec. Kediri, Kabupaten Tabanan, Bali 82121, Indonesia",https://maps.google.com/?cid=12043896567641627457,OPERATIONAL,+62 815-2967-1950,bar,bar,5,1,
ChIJB1VtDhE50i0RXWM-cqIKAFo,Cemal cemil 10k,-8.5902277,115.12217949999999,"Jl. Tanah Lot No.58, Pandak Gede, Kec. Kediri, Kabupaten Tabanan, Bali 82121, Indonesia",https://maps.google.com/?cid=6485195156231185245,OPERATIONAL,+62 878-3318-1300,cafe,"cafe, food",,,
