id,name,latitude,longitude,address,url,status,phone,primary-type,types,rating,rating-count,price-level
ChIJhYcRNbw_0i0RRmm3NCPxct8,Warung be genyol bu yeyen,-8.581438000000002,115.20452420000001,"Jl. Tanah Putih No.32, Darmasaba, Kec. Abiansemal, Kabupaten Badung, Bali 80352, Indonesia",https://maps.google.com/?cid=16101196751313529158,OPERATIONAL,+62 896-9547-6228,restaurant,"restaurant, food",4.3,579,PRICE_LEVEL_INEXPENSIVE
ChIJf9CNPyw_0i0RtXU9IbyKjeE,Warung Simbar Menjangan,-8.5839573,115.2043384,"Jl. Tanah Putih, Darmasaba, Kec. Abiansemal, Kabupaten Badung, Bali 80352, Indonesia",https://maps.google.com/?cid=16252799170866148789,OPERATIONAL,+62 819-9988-8387,restaurant,"restaurant, food",4.4,204,PRICE_LEVEL_MODERATE
ChIJ39aJJs4_0i0RwP3TQEbn_Jk,Sioul Coffee Bali,-8.5855403,115.19873079999998,"Jl. Raya Lukluk - Darmasaba, Darmasaba, Kec. Abiansemal, Kabupaten Badung, Bali 80116, Indonesia",https://maps.google.com/?cid=11095997870855421376,OPERATIONAL,+62 813-3761-0540,coffee_shop,"coffee_shop, cafe, food, store",4.7,129,
ChIJ0T02oDQ_0i0RsvSsukUc6Ws,New Lestari - Musik & Karaoke,-8.586137899999999,115.1999259,"C57X+GXV, Darmasaba, Abiansemal, Badung Regency, Bali 80351, Indonesia",https://maps.google.com/?cid=7775777317442090162,OPERATIONAL,,bar,"night_club, bar",3.4,5,
ChIJ0-4rG_g_0i0RN47VFRS2m2w,Babi Guling Nanang,-8.5853883,115.1977702,"C57X+V44, Jl. Raya Darmasaba, Darmasaba, Kec. Abiansemal, Kabupaten Badung, Bali 80351, Indonesia",https://maps.google.com/?cid=7826048974868287031,OPERATIONAL,+62 858-5730-4557,restaurant,"restaurant, food",4.8,16,
ChIJ_U8rrVM_0i0RUM_RVLlg3qc,Warung nasi genyol bu zeya,-8.5819216,115.2041039,"Jl. Tanah Putih, Darmasaba, Kec. Abiansemal, Kabupaten Badung, Bali 80352, Indonesia",https://maps.google.com/?cid=12096211998271983440,OPERATIONAL,+62 853-3300-5641,indonesian_restaurant,"indonesian_restaurant, restaurant, food",4.5,24,
ChIJjVkRZ94_0i0R-0Qs97MGRAw,Jogging Track Tegeh Aban,-8.583078,115.20133249999999,"Jl. Tegeh Aban, Darmasaba, Kec. Abiansemal, Kabupaten Badung, Bali 80351, Indonesia",https://maps.google.com/?cid=883838796887246075,OPERATIONAL,,hiking_area,"hiking_area, park",4.7,3,
ChIJ109N5AY_0i0RSl0MT-hWR1E,Warung pandan Sari ikan bakar kas jimbaran,-8.585850299999999,115.1990323,"Jl. Raya Lukluk - Darmasaba, Lukluk, Kec. Mengwi, Kabupaten Badung, Bali 80351, Indonesia",https://maps.google.com/?cid=5856745396177231178,OPERATIONAL,+62 858-4755-4002,indonesian_restaurant,"indonesian_restaurant, restaurant, food",3.9,29,
ChIJtSbK9Hw_0i0ROYz2Yn3TXK0,Warung rujak bali buk indah 1,-8.5805884,115.20415339999998,"Jl. Tanah Putih, Darmasaba, Kec. Abiansemal, Kabupaten Badung, Bali 80352, Indonesia",https://maps.google.com/?cid=12492092001903610937,OPERATIONAL,+62 818-0556-6070,bar,bar,4.3,36,
ChIJLdbQ73A_0i0RvuRV-OAD3UE,Warung Bu dila,-8.585848799999999,115.199038,"C57X+MJ7, Darmasaba, Abiansemal, Badung Regency, Bali 80351, Indonesia",https://maps.google.com/?cid=4745953847092307134,OPERATIONAL,,restaurant,"restaurant, food",5,3,
ChIJl_cJqjQ_0i0Rih0yJ_SpRSk,Ewi'na Boba,-8.5802678,115.19652949999998,"C59W+VJR, Lukluk, Mengwi, Badung Regency, Bali 80351, Indonesia",https://maps.google.com/?cid=2973969995042790794,OPERATIONAL,,coffee_shop,"coffee_shop, cafe, food, store",4.5,4,
ChIJscvAN7c-0i0RYH32Qu3w3TE,Masakan Sederhana,-8.5859794,115.1992048,"Jl. Raya Darmasaba No.56, Lukluk, Kec. Mengwi, Kabupaten Badung, Bali 80351, Indonesia",https://maps.google.com/?cid=3593292979532889440,OPERATIONAL,+62 812-3628-1643,indonesian_restaurant,"indonesian_restaurant, restaurant, food",4.7,6,
ChIJYX7vNrc-0i0RM8Yj3it6xUs,Warung Jawa,-8.5858903,115.1990465,"Darmasaba, Abiansemal, Badung Regency, Bali, Indonesia",https://maps.google.com/?cid=5459904452085663283,OPERATIONAL,,indonesian_restaurant,"indonesian_restaurant, restaurant, food",,,
ChIJN8jmRQ4_0i0RT_S9nu9kf10,Warung sarwa,-8.585911,115.1993621,"C57X+JPG, Jl. Raya Lukluk - Darmasaba, Lukluk, Kec. Mengwi, Kabupaten Badung, Bali 80351, Indonesia",https://maps.google.com/?cid=6737214547892761679,OPERATIONAL,+62 821-4543-3469,indonesian_restaurant,"indonesian_restaurant, restaurant, food",5,2,
ChIJzYe_7wQ_0i0RLTHKrLsP1q0,Kenanga cafe n barr,-8.586137299999999,115.19923709999999,"Jl. Raya Lukluk - Darmasaba No.89, Darmasaba, Kec. Abiansemal, Kabupaten Badung, Bali 80351, Indonesia",https://maps.google.com/?cid=12526216712309846317,OPERATIONAL,,cafe,"cafe, food",,,
ChIJB-bCuPA_0i0R1qj3H79k80U,Wr. Kenanga 87,-8.586004299999999,115.1990486,"C57X+GGQ, Sading, Mengwi, Badung Regency, Bali 80352, Indonesia",https://maps.google.com/?cid=5040483179995572438,OPERATIONAL,,bar,bar,5,1,
ChIJcXHXvPQ_0i0RFUlWKQwuDl8,Warung Pondok Bambu Banyuwangi,-8.586195199999999,115.2002057,"Jl. Raya Darmasaba, Darmasaba, Kec. Abiansemal, Kabupaten Badung, Bali 80352, Indonesia",https://maps.google.com/?cid=6849462713045109013,OPERATIONAL,+62 878-5682-6313,restaurant,"restaurant, food",5,1,
ChIJWaWhrNI_0i0RtXZoR2oMn34,Akringan Poetjoeng,-8.5858844,115.1985751,"Jl. Raya Darmasaba No.99, Darmasaba, Kec. Abiansemal, Kabupaten Badung, Bali 80351, Indonesia",https://maps.google.com/?cid=9124025020680009397,OPERATIONAL,+62 858-2633-7749,restaurant,"restaurant, food",5,1,
ChIJNUwKW7c-0i0RmULx3n8G--Q,Warung Bu Sri Surabaya,-8.5862263,115.20020860000001,"Darmasaba, Abiansemal, Badung Regency, Bali, Indonesia",https://maps.google.com/?cid=16499788806072910489,OPERATIONAL,,restaurant,"restaurant, food",,,
ChIJURJWKrc-0i0RsaxXcbmyV84,Wr Putu 2,-8.585697099999999,115.1979792,"C57X+P5H, Sading, Mengwi, Badung Regency, Bali 80351, Indonesia",https://maps.google.com/?cid=14868549204327247025,OPERATIONAL,+62 851-0097-0330,restaurant,"restaurant, food",4.4,7,
