id,name,latitude,longitude,address,url,status,phone,primary-type,types,rating,rating-count,price-level
ChIJ9UiWCXpz0i0RseH1rL51cA0,Deep Roots Dive & Yoga Resort,-8.6906409,115.5131856,"Deep Roots Dive & Yoga Resort Dusun Pendem, Desa PED, Banjar Bodong, Nusa Penida, Ped, Kec. Nusa Penida, Kabupaten Klungkung, Bali 80771, Indonesia",https://maps.google.com/?cid=968403381690687921,OPERATIONAL,+62 811-3877-0033,resort_hotel,"resort_hotel, hotel, lodging",5,154,
ChIJJ2-ASoJz0i0R8FowKSHKsQ0,The Terrace,-8.690594599999999,115.51322619999999,"Dusun Pendem, Banjar Bodong, Ped, Kec. Nusa Penida, Kabupaten Klungkung, Bali 80771, Indonesia",https://maps.google.com/?cid=986792037144615664,OPERATIONAL,+62 811-3877-0011,restaurant,"restaurant, cafe, bar, food",4.6,90,
ChIJkY05rTly0i0RJ8OCIGh3cPc,Sebrang Hill Bungalow,-8.6928905,115.5066433,"Jalan Raya Adegan, Ped, Kec. Nusa Penida, Kabupaten Klungkung, Bali 80771, Indonesia",https://maps.google.com/?cid=17829882213865538343,OPERATIONAL,+62 812-3900-1489,hotel,"hotel, lodging",4.9,385,
ChIJ0Q7vZj1z0i0RHYxlJTkCUZw,The Pancor Jungle Resort,-8.689778,115.51260719999999,"8G67+32Q, Jl, Ped, Kec. Nusa Penida, Kabupaten Klungkung, Bali 80771, Indonesia",https://maps.google.com/?cid=11263786587494124573,OPERATIONAL,,hotel,"hotel, lodging",4.4,37,
ChIJIwnlf9dz0i0RSrMrtBLpwXY,Penida yurt,-8.693928,115.5064348,"Ped, Nusa Penida, Klungkung Regency, Bali 80771, Indonesia",https://maps.google.com/?cid=8557377033522099018,OPERATIONAL,+62 812-4667-3474,bed_and_breakfast,"bed_and_breakfast, lodging",4.5,39,
ChIJOZBIvUdy0i0RE4nEijF-r4Q,Tanah Penida Bungalows,-8.693970199999999,115.5061646,"Br. Adegan Kangin, Dusun Adegan, Ped, Kec. Nusa Penida, Kabupaten Klungkung, Bali 80771, Indonesia",https://maps.google.com/?cid=9560999285177485587,OPERATIONAL,+62 813-1566-8876,cottage,"cottage, lodging",4.9,31,
ChIJRVntpzFz0i0RjJJMb1h-x1k,Summer Nook,-8.6900741,115.5124955,"Banjar Pendem, Kec. Nusa Penida, Kabupaten Klungkung, Bali 80771, Indonesia",https://maps.google.com/?cid=6469278308030517900,OPERATIONAL,,private_guest_room,"private_guest_room, hotel, lodging",,,
ChIJKZkGf6hz0i0RGbo6rBnIavA,Rent hotel & kitchen,-8.6907464,115.51350959999999,"8G57+PC2, Banjar Pendem, Ped, Kec. Nusa Penida, Kabupaten Klungkung, Bali, Indonesia",https://maps.google.com/?cid=17323878929223301657,OPERATIONAL,,,lodging,5,1,
