id,name,latitude,longitude,address,url,status,phone,primary-type,types,rating,rating-count,price-level
ChIJ2WpzZI490i0RGmi5VjFaAGY,Ayung Rafting,-8.5535237,115.2487654,"Br, C6WX+HGR, Jl. Raya Silakarang Singapadu Kaler, Singapadu Kaler, Sukawati, Gianyar Regency, Bali 80582, Indonesia",https://maps.google.com/?cid=7349973759823538202,OPERATIONAL,+62 819-3634-5445,tourist_attraction,tourist_attraction,5,3,
ChIJhWdzGLc90i0R6VVwyBOmlU8,OYO 2607 Men Bebas Residence,-8.5526023,115.24314549999998,"Jl Tauman Jl. Raya Samu No.9, Singapadu Kaler, Kec. Sukawati, Kabupaten Gianyar, Bali 80352, Indonesia",https://maps.google.com/?cid=5734672304423589353,OPERATIONAL,+62 21 29707601,hotel,"hotel, lodging",5,3,
ChIJA6L7prM90i0RkUfKlRbT_RY,VANABI Warung Sate Bali,-8.5481968,115.24660039999999,"Singapadu Kaler, Sukawati, Gianyar Regency, Bali 80582, Indonesia",https://maps.google.com/?cid=1656712331898013585,OPERATIONAL,+62 821-4645-9288,indonesian_restaurant,"indonesian_restaurant, restaurant, food",4.6,182,PRICE_LEVEL_INEXPENSIVE
ChIJN4dy6dU90i0R7y4R5QMrOvQ,Men Bebas Homestay,-8.552543199999999,115.24321189999999,"Unnamed Road, C6WV+X7P, Singapadu Kaler, Kec. Sukawati, Kabupaten Gianyar, Bali 80352, Indonesia",https://maps.google.com/?cid=17598425789631639279,OPERATIONAL,+62 813-3879-3141,lodging,lodging,4.9,8,
ChIJrTLkgQo90i0RaOHXekEjsKQ,Kost Mulia Sari,-8.547911,115.24690319999999,"jalan raya samu singapadu ubud, F62W+RQJ, Singapadu Kaler, Kec. Sukawati, Kabupaten Gianyar, Bali 80571, Indonesia",https://maps.google.com/?cid=11867023782262071656,OPERATIONAL,+62 819-9905-2177,,lodging,4.8,5,
ChIJP-I0v5c90i0RPqr1gSTleGA,Panoramic View of Menik House,-8.5473406,115.24520659999999,"Jl. Raya Br. Tunon, Singapadu Kaler, Kecamatan Ubud, Kabupaten Gianyar, Bali 80571, Indonesia",https://maps.google.com/?cid=6951557969808304702,OPERATIONAL,+62 821-4494-8688,motel,"motel, lodging",4.7,3,
ChIJxcCxaxo90i0Rmt9rdNwL4lw,Dewi Rental,-8.5481067,115.24623809999999,"Jl. Raya Samu, Singakerta, Kec. Sukawati, Kabupaten Gianyar, Bali, Indonesia",https://maps.google.com/?cid=6692925037699915674,OPERATIONAL,+62 822-1016-4464,car_rental,car_rental,5,6,
ChIJ2-FcxLk90i0Rj3tTtI57Bvw,Carikopi,-8.5484265,115.24513130000001,"Jl. Raya Samu No.50, Singapadu Kaler, Kec. Sukawati, Kabupaten Gianyar, Bali 80582, Indonesia",https://maps.google.com/?cid=18160338400259046287,OPERATIONAL,+62 819-9998-6798,coffee_shop,"coffee_shop, cafe, food, store",3,1,
ChIJ21sJ6o890i0RAG4JeQTdFE4,dmcl ubud,-8.5506511,115.249952,"C6XX+PXP, Jl. Raya Kengetan, Singakerta, Kecamatan Ubud, Kabupaten Gianyar, Bali 80571, Indonesia",https://maps.google.com/?cid=5626364845772860928,OPERATIONAL,+62 813-3865-2632,extended_stay_hotel,"extended_stay_hotel, hotel, lodging",4,2,
ChIJ3eeE5YM90i0Rh6B5uI-rpcE,Belang Ne Bos,-8.5531126,115.24559599999999,"C6WW+Q65, Singapadu Kaler, Sukawati, Gianyar Regency, Bali 80582, Indonesia",https://maps.google.com/?cid=13953747654241001607,OPERATIONAL,,bar,bar,5,3,
ChIJGdc663E90i0RIp4o3WyM_Z4,Desak Indrasari W House,-8.551344199999999,115.2420442,"Jalan Tempekan Tauman Sisi, Banjar samu, Singapadu Kaler, Kec. Sukawati, Kabupaten Gianyar, Bali 80352, Indonesia",https://maps.google.com/?cid=11456467426295193122,OPERATIONAL,+62 819-1620-1008,hotel,"hotel, lodging",4.9,7,
ChIJkR0_vcE90i0RV5u8WX4FCaU,Babi Guling Payangan,-8.550624299999999,115.25043869999999,"C7X2+Q54, Singapadu Kaler, Sukawati, Gianyar Regency, Bali 80571, Indonesia",https://maps.google.com/?cid=11892042331278056279,OPERATIONAL,,restaurant,"restaurant, food",4.1,10,
ChIJ2YQTMHU90i0RHbyrdeHfoMQ,"Handicraft Bali Balinese handicrafts Terracottapot & Furniture Kayu,Handicraft by The Morgan Art Dealer",-8.547934099999999,115.2464806,"Singapadu, Jl. Raya Samu, Singapadu Kaler, Kec. Sukawati, Kabupaten Gianyar, Bali 80582, Indonesia",https://maps.google.com/?cid=14168570587142405149,OPERATIONAL,+62 812-8695-5889,museum,museum,5,3,
ChIJecUi4PI90i0Rq-eLEP3gm8U,Paondejuna99,-8.5539305,115.2438392,"Belang, Singapadu Kaler, Kec. Sukawati, Kabupaten Gianyar, Bali 80582, Indonesia",https://maps.google.com/?cid=14239222024370907051,OPERATIONAL,+62 878-4315-9577,restaurant,"restaurant, food",,,
ChIJid2KqUk90i0R6gHU9sDQlJg,NASI GORENG JAKARTA,-8.5480047,115.2456433,"F62W+R7G, Jl. Raya Samu, Singapadu Kaler, Kec. Sukawati, Kabupaten Gianyar, Bali 80582, Indonesia",https://maps.google.com/?cid=10994642117511610858,OPERATIONAL,,restaurant,"restaurant, food",4.2,6,
ChIJYfWPyro90i0RF1Kmsb7bPg4,R.M Fares Masakan Padang,-8.5479302,115.2463156,"F62W+RGG, Singapadu Kaler, Sukawati, Gianyar Regency, Bali 80582, Indonesia",https://maps.google.com/?cid=1026499377157788183,OPERATIONAL,,indonesian_restaurant,"indonesian_restaurant, restaurant, food",,,
ChIJxV5TnSQ90i0R2mOrVWfcWMs,Jero Anyar Samu,-8.549158,115.24215000000001,"F62R+FHG, Singapadu Kaler, Sukawati, Gianyar Regency, Bali 80352, Indonesia",https://maps.google.com/?cid=14652703724026946522,OPERATIONAL,,park,park,5,2,
ChIJmfjGNcg90i0R9rWvVC8KeRs,Warung Dede,-8.547996099999999,115.2455213,"Jl. Raya Samu, Singapadu Kaler, Kec. Sukawati, Kabupaten Gianyar, Bali 80582, Indonesia",https://maps.google.com/?cid=1979624709606585846,OPERATIONAL,+62 877-6161-6260,restaurant,"restaurant, food",5,3,
ChIJe3EvU1090i0RlffVsUKJeEI,Ambara's Home stay,-8.551643799999999,115.24206819999999,"Singapadu Kaler, Sukawati, Gianyar Regency, Bali 80352, Indonesia",https://maps.google.com/?cid=4789729123252959125,OPERATIONAL,,lodging,lodging,4.3,6,
ChIJ8cit11Y90i0R5fB-rExv9so,Warung Ibu Gio,-8.5476269,115.2481142,"F62X+X65, Jl. Raya Samu, Singapadu Kaler, Kec. Sukawati, Kabupaten Gianyar, Bali 80571, Indonesia",https://maps.google.com/?cid=14624999215034462437,CLOSED_TEMPORARILY,,coffee_shop,"coffee_shop, cafe, food, store",,,
