id,name,latitude,longitude,address,url,status,phone,primary-type,types,rating,rating-count,price-level
ChIJB_ifidb50S0RLJ-aiavpSK4,Pondok prajana,-8.236874799999999,115.49050179999999,"QF7R+762, Ban, Kubu, Karangasem Regency, Bali 80853, Indonesia",https://maps.google.com/?cid=12558544483879919404,OPERATIONAL,+62 813-3993-1090,,lodging,,,
ChIJgwELXtf50S0Rl0VfFpp6mZ0,PONDOK REOD LUPUS BALI,-8.2373998,115.4887176,"QF7Q+2FW, Ban, Kubu, Karangasem Regency, Bali 80853, Indonesia",https://maps.google.com/?cid=11356242737610311063,OPERATIONAL,,,lodging,,,
ChIJlVrc1r350S0RnrMCOCin9TY,Pondok Tama Family,-8.2372485,115.49004310000001,"Ban, Kubu, Karangasem Regency, Bali 80853, Indonesia",https://maps.google.com/?cid=3960255238522450846,OPERATIONAL,+62 821-4595-3632,,lodging,,,
ChIJDaAjMAr50S0R3xnfK4sk4xM,Pondok Degus Devandra,-8.2373549,115.48863839999999,"QF7Q+3F2, Ban, Kubu, Karangasem Regency, Bali 80853, Indonesia",https://maps.google.com/?cid=1433029286589045215,OPERATIONAL,,,lodging,,,
ChIJRXtrZwD50S0RTlBzNCPu_aI,Pondok murtisampi,-8.236556,115.48673500000001,"QF7Q+F45, Ban, Kubu, Karangasem Regency, Bali 80853, Indonesia",https://maps.google.com/?cid=11744805238223360078,OPERATIONAL,,,lodging,,,
ChIJf-K4z0P50S0RU98Zyun5H7w,Pondok deklandak,-8.235049199999999,115.49395679999999,"QF7V+WHH, Ban, Kubu, Karangasem Regency, Bali 80853, Indonesia",https://maps.google.com/?cid=13555828185921871699,OPERATIONAL,,camping_cabin,"camping_cabin, lodging",,,
ChIJ83VCwYr50S0RrhF6wf5l6eA,Pondok weriadi,-8.235472900000001,115.49429479999998,"QF7V+RP7, Ban, Kubu, Karangasem Regency, Bali 80853, Indonesia",https://maps.google.com/?cid=16206596878911541678,OPERATIONAL,+62 812-4650-8942,,lodging,2,1,
