id,name,latitude,longitude,address,url,status,phone,primary-type,types,rating,rating-count,price-level
ChIJQ3zLyUop0i0R4g4slspZomY,KUBU TEPI SAWAH,-8.412106,115.03692889999999,"H2QP+5Q3, Jl. Antosari Pupuan, Belimbing, Kec. Pupuan, Kabupaten Tabanan, Bali 82163, Indonesia",https://maps.google.com/?cid=7395572264733511394,OPERATIONAL,+62 813-5307-4123,hostel,"hostel, lodging",4.8,30,
ChIJz3iwAREp0i0R9YY95sQUnfY,Ranggon d'tukad,-8.4103317,115.0329802,"Jl. Antosari Pupuan, Sanda, Kec. Pupuan, Kabupaten Tabanan, Bali 82163, Indonesia",https://maps.google.com/?cid=17770382540582782709,OPERATIONAL,,tourist_attraction,tourist_attraction,4.3,8,
ChIJAQAAADQp0i0RperqbJDDZpo,Warung Makan Belimbing,-8.4104005,115.0329055,"Jalan Raya Antosari, Desa, Belimbing, Kec. Pupuan, Kabupaten Tabanan, Bali 82163, Indonesia",https://maps.google.com/?cid=11125794954535430821,OPERATIONAL,+62 857-3879-8489,indonesian_restaurant,"indonesian_restaurant, restaurant, food",4,21,PRICE_LEVEL_INEXPENSIVE
ChIJjf_ysqYp0i0RZsnvljPGqXU,WARUNG DE MOYO,-8.4126006,115.03711990000001,"Unnamed Road, H2PP+XR5, Belimbing, Kec. Pupuan, Kabupaten Tabanan, Bali 82163, Indonesia",https://maps.google.com/?cid=8478525698379598182,OPERATIONAL,+62 857-3722-7182,cafe,"cafe, food",4.8,25,
ChIJ81X8vBop0i0Rbs4ALCcu0p8,Wr bali aghe belimbing,-8.412078,115.03692810000001,"Jl. Antosari Pupuan No.16, Belimbing, Kec. Pupuan, Kabupaten Tabanan, Bali 82163, Indonesia",https://maps.google.com/?cid=11516317942916632174,CLOSED_TEMPORARILY,,indonesian_restaurant,"indonesian_restaurant, restaurant, food",,,
ChIJSTKyHwAp0i0RGHf18VEyw3s,DP 10,-8.4124689,115.0370908,"H2PP+XR5, Belimbing, Pupuan, Tabanan Regency, Bali 82163, Indonesia",https://maps.google.com/?cid=8918027014656849688,OPERATIONAL,,park,park,,,
