id,name,latitude,longitude,address,url,status,phone,primary-type,types,rating,rating-count,price-level
ChIJGwOjmMU70i0RHiOZ04P-8bY,Aris Hotel Tabanan,-8.5605352,115.15454640000002,"Jl. Raya Denpasar - Gilimanuk, Abian Tuwung, Kec. Kediri, Kabupaten Tabanan, Bali 82121, Indonesia",https://maps.google.com/?cid=13182597426434351902,OPERATIONAL,+62 361 9315113,hotel,"hotel, lodging",4,185,
ChIJPQfS3cs70i0RMnHM8miJfCI,Warung Kita Dewi Sri,-8.5601071,115.15179730000001,"JL. Ahmad Yani, Abian Tuwung, Kediri, Abian Tuwung, Kec. Tabanan, Kabupaten Tabanan, Bali 82121, Indonesia",https://maps.google.com/?cid=2485012178244759858,OPERATIONAL,+62 361 9315478,indonesian_restaurant,"indonesian_restaurant, restaurant, food",4.3,643,PRICE_LEVEL_MODERATE
ChIJI4SG0J070i0RCfuuLZkFxIM,Ayam Goreng Asli Prambanan Abiantuwung Tabanan,-8.5600513,115.1516418,"Jl. Ahmad Yani No.8, Abian Tuwung, Kec. Kediri, Kabupaten Tabanan, Bali 82121, Indonesia",https://maps.google.com/?cid=9494720069858425609,OPERATIONAL,+62 878-6181-4074,restaurant,"meal_takeaway, restaurant, food",3.9,41,
ChIJB5L2cWI70i0Rs6ymgiK6TmE,KOST KAPLING RAYA 1,-8.55567,115.15183890000002,"Unnamed Road, Abian Tuwung, Kec. Kediri, Kabupaten Tabanan, Bali 82121, Indonesia",https://maps.google.com/?cid=7011746327246056627,OPERATIONAL,+62 817-7045-3082,hotel,"hotel, lodging",4.5,17,
ChIJDzndL2Y70i0RU5i_caYOkyY,Puri Agung Abiantuwung,-8.5587989,115.14779560000001,"Abian Tuwung, Kediri, Tabanan Regency, Bali 82121, Indonesia",https://maps.google.com/?cid=2779581503053469779,OPERATIONAL,+62 812-3675-4514,historical_landmark,"historical_landmark, museum",4.9,22,
ChIJo0wzeas70i0RlAkTeY99RIQ,Warung Toyo Arum Banyuwangi,-8.559728699999999,115.1515315,"C5R2+4J3, Abian Tuwung, Kediri, Tabanan Regency, Bali 82121, Indonesia",https://maps.google.com/?cid=9530880766587898260,OPERATIONAL,,restaurant,"restaurant, food",4.4,197,
ChIJNxHjvA070i0RPt_VCJs_Kp0,LALAPAN SURAMADU,-8.5596073,115.15090699999999,"Jl. Ahmad Yani No.8, Abian Tuwung, Kec. Kediri, Kabupaten Tabanan, Bali 82121, Indonesia",https://maps.google.com/?cid=11324934148077248318,OPERATIONAL,,restaurant,"restaurant, food",,,
ChIJez_Me8870i0RFLW84BvkdG0,Orissa Bakery,-8.560577499999999,115.1530315,"Jl. Ahmad Yani No.15, Abian Tuwung, Kec. Kediri, Kabupaten Tabanan, Bali 82121, Indonesia",https://maps.google.com/?cid=7887179655818294548,OPERATIONAL,+62 813-3938-4468,pizza_restaurant,"pizza_restaurant, restaurant, food",3.6,19,
ChIJr2qVd8U70i0R94W5qoB267Y,Warung Kawi ᬯᬭᬸᬂᬓᬯᬶ᭟,-8.560859299999999,115.1541708,"Jl. Ahmad Yani No.23, Abian Tuwung, Kec. Kediri, Kabupaten Tabanan, Bali 82122, Indonesia",https://maps.google.com/?cid=13180759029422065143,OPERATIONAL,+62 821-4447-1214,indonesian_restaurant,"breakfast_restaurant, indonesian_restaurant, restaurant, food",4.3,38,PRICE_LEVEL_INEXPENSIVE
ChIJAT0ng-E70i0RKefnETt9slU,KOST PAK AGUNG,-8.5578679,115.1520446,"Jl. Ahmad Yani IV No.00, Banjar Pasekan, Abian Tuwung, Kec. Kediri, Kabupaten Tabanan, Bali 82121, Indonesia",https://maps.google.com/?cid=6175135731735324457,OPERATIONAL,,,lodging,5,1,
ChIJMWQvfs870i0RkBFinyC-R3M,Warung Babi Guling,-8.5606597,115.1532732,"C5Q3+P8J, Jl. Ahmad Yani, Abian Tuwung, Kec. Kediri, Kabupaten Tabanan, Bali 82121, Indonesia",https://maps.google.com/?cid=8306817085030404496,OPERATIONAL,+62 361 813497,indonesian_restaurant,"indonesian_restaurant, restaurant, food",5,2,
ChIJ4Wx6RC070i0RQWgXZTM7UZY,Aditya Paksi Bali,-8.5582108,115.14784519999999,"C4RX+P49, Jl. Raya Denpasar - Gilimanuk, Abian Tuwung, Kec. Kediri, Kabupaten Tabanan, Bali 82121, Indonesia",https://maps.google.com/?cid=10831503670728157249,OPERATIONAL,+62 853-3831-2212,park,park,5,1,
ChIJmQEtdsU70i0RA34ipmWnqgQ,Wr Kawi - Batu Malang,-8.560752899999999,115.15427319999998,"Abian Tuwung, Kediri, Tabanan Regency, Bali, Indonesia",https://maps.google.com/?cid=336265177213337091,OPERATIONAL,,restaurant,"restaurant, food",5,1,
ChIJLW9Zwss70i0RGK7WupF6_8w,Bakso Monster,-8.5574288,115.14645589999999,"C4VW+2HG, Jl. Raya Denpasar - Gilimanuk, Abian Tuwung, Kec. Kediri, Kabupaten Tabanan, Bali 82121, Indonesia",https://maps.google.com/?cid=14771660069121994264,OPERATIONAL,+62 813-3749-5946,indonesian_restaurant,"indonesian_restaurant, restaurant, food",3.9,109,
ChIJ1cYcs3w70i0Rt26aX5Cd_I8,Warung Lalapan KADEK AYAM BAKAR BARBEQUE,-8.559748299999999,115.15076370000001,"Jl. Raya Denpasar - Gilimanuk No.131, Abian Tuwung, Kec. Kediri, Kabupaten Tabanan, Bali 82121, Indonesia",https://maps.google.com/?cid=10375340884959588023,OPERATIONAL,+62 877-4575-8391,restaurant,"restaurant, food",4.9,10,
ChIJScQBEc870i0RO1d-pkkh_1I,Warung Jawa Muslim Mbak Nur,-8.5601706,115.15130839999999,"Jl. Raya Denpasar - Gilimanuk, Abian Tuwung, Kec. Kediri, Kabupaten Tabanan, Bali 82121, Indonesia",https://maps.google.com/?cid=5980535430380934971,OPERATIONAL,+62 821-4690-3412,indonesian_restaurant,"indonesian_restaurant, restaurant, food",4.8,12,
ChIJf0ViWM070i0RMQFsjwx-1S8,"SUKA Fried Chicken, Mie & SUKA Kopi",-8.5586618,115.1482234,"C4RX+G7Q, Abian Tuwung, Kediri, Tabanan Regency, Bali 82121, Indonesia",https://maps.google.com/?cid=3446799682232910129,OPERATIONAL,+62 878-6137-2244,restaurant,"restaurant, meal_takeaway, food",4.5,17,
ChIJx2nB53U70i0RKcDCfuy_Wqs,Chickentime Tabanan,-8.5593018,115.14989810000002,"Jl. Ahmad Yani No.18a, Abian Tuwung, Kec. Kediri, Kabupaten Tabanan, Bali 82121, Indonesia",https://maps.google.com/?cid=12347392350849515561,OPERATIONAL,+62 813-3704-6032,chinese_restaurant,"chinese_restaurant, restaurant, food",4.8,4,
ChIJ22RERAs70i0RJPDEuLxS8KU,Wr.buk cantik,-8.5571707,115.15122210000001,"Br. Pasekan, C5V2+4FQ, Jl. A.Yani VI, Abian Tuwung, Kec. Kediri, Kabupaten Tabanan, Bali 82121, Indonesia",https://maps.google.com/?cid=11957147981175910436,OPERATIONAL,,restaurant,"restaurant, food",4.5,4,
ChIJX9tLUzs70i0RVzRHyT32N6o,WARUNG NASI BE GENYOL MAK OCHIN,-8.560080000000001,115.14799299999999,"Jl. A.Yani III Gang. III No.5, Abian Tuwung, Kelod, Kabupaten Tabanan, Bali 82121, Indonesia",https://maps.google.com/?cid=12265542855397160023,OPERATIONAL,+62 857-3872-3909,indonesian_restaurant,"indonesian_restaurant, restaurant, food",5,2,
