id,name,latitude,longitude,address,url,status,phone,primary-type,types,rating,rating-count,price-level
ChIJFZYTUC0W0i0Rzd8-kY8H0vI,Pura Samuan Tiga,-8.523841,115.294948,"Jl. Pura Samuan Tiga, Bedulu, Kec. Blahbatuh, Kabupaten Gianyar, Bali 50581, Indonesia",https://maps.google.com/?cid=17497055815486332877,OPERATIONAL,,hindu_temple,"hindu_temple, tourist_attraction, place_of_worship",4.8,824,
ChIJz4NDnU890i0RbI8TMeMNWfM,Temple Yeh Pulu,-8.5300627,115.293087,"Jalan Yeh Pulu Blahbatuh, Bedulu, Kec. Gianyar, Kabupaten Gianyar, Bali 80581, Indonesia",https://maps.google.com/?cid=17535061893575839596,OPERATIONAL,,hindu_temple,"hindu_temple, tourist_attraction, place_of_worship",4.2,259,
ChIJQSXUwy0W0i0RK8T64VwrsdU,Sairam House,-8.527371,115.29383689999999,"F7FV+3G4, Bedulu, Blahbatuh, Gianyar Regency, Bali 80581, Indonesia",https://maps.google.com/?cid=15398136278884729899,OPERATIONAL,+62 812-3605-059,hotel,"hotel, lodging",4.7,62,
ChIJ16DgK-oX0i0Rp3MPCxNSumE,Bakmie Dua Dua,-8.5274158,115.29175210000001,"Jl. Yeh Pulu Banjar Lebah A No.22, Bedulu, Kec. Blahbatuh, Kabupaten Gianyar, Bali 80571, Indonesia",https://maps.google.com/?cid=7042031209090610087,OPERATIONAL,+62 812-9404-5355,restaurant,"restaurant, food",4.5,83,
ChIJ11jHtWkX0i0RvKGzlIwmQpY,DIKA Rental & RJM Motor,-8.529094599999999,115.29615019999999,"Jl. Raya Semebaung Jl. Raya Wanayu No.16, Bedulu, Kec. Blahbatuh, Kabupaten Gianyar, Bali 80581, Indonesia",https://maps.google.com/?cid=10827258839384170940,OPERATIONAL,+62 819-3609-9535,,car_rental,4.9,49,
ChIJWw4uXi4W0i0RG78OZcdh_Vo,Yeh Pulu Cafe,-8.529698300000002,115.29297740000001,"F7CV+45G Br. Batulumbang, Jl. Yeh Pulu, Bedulu, Kec. Blahbatuh, Kabupaten Gianyar, Bali 80581, Indonesia",https://maps.google.com/?cid=6556504141543161627,OPERATIONAL,+62 812-3660-278,restaurant,"restaurant, cafe, food",4.7,116,PRICE_LEVEL_INEXPENSIVE
ChIJQ-TgiC4W0i0Rc6FGZKIQjVs,Ketut Sadia Homestay,-8.529446199999999,115.292251,"Bedulu, Blahbatuh, Gianyar Regency, Bali 80581, Indonesia",https://maps.google.com/?cid=6596947318820741491,OPERATIONAL,+62 813-5331-3373,hotel,"hotel, lodging",4.3,9,
ChIJSz1vcKkX0i0R2oQDZ1gVl3U,Bedulu goa gajah,-8.5259453,115.2930219,"F7FV+J6C, Jl. Raya Bedulu, Bedulu, Kec. Blahbatuh, Kabupaten Gianyar, Bali 80581, Indonesia",https://maps.google.com/?cid=8473264693350466778,OPERATIONAL,,indonesian_restaurant,"indonesian_restaurant, restaurant, food",3,1,
ChIJKZ3RNVcX0i0RJ-fhNZmFmKc,Wisata Bintang Hotel ( WBH ),-8.5252859,115.29300350000001,"Jl. Bikes Only, Bedulu, Kec. Blahbatuh, Kabupaten Gianyar, Bali 80586, Indonesia",https://maps.google.com/?cid=12076549293874472743,OPERATIONAL,+62 831-1437-2476,hotel,"hotel, lodging",4.8,5,
ChIJD1gUSWEX0i0RbmoNHnkSMb8,Fortuna Guest House,-8.5264895,115.2948271,"F7FV+CW4, Bedulu, Blahbatuh, Gianyar Regency, Bali 80581, Indonesia",https://maps.google.com/?cid=13776813046507596398,OPERATIONAL,+62 812-3947-501,lodging,lodging,4.3,11,
ChIJG8-ZWNIX0i0RYD1BVQY0nQk,Warung Makan Pak Bull Reborn,-8.5292084,115.2973599,"F7CW+8W9, Jl. Raya Wanayu, Bedulu, Kec. Blahbatuh, Kabupaten Gianyar, Bali 80581, Indonesia",https://maps.google.com/?cid=692767119489711456,OPERATIONAL,+62 819-9974-3733,restaurant,"restaurant, food",4.8,30,
ChIJ1W6VPeIX0i0Rn-JcP1ZCaQ0,ACK Fried Chicken New Bedulu,-8.5261832,115.29449269999999,"Jl. Raya Bedulu, Bedulu, Kec. Blahbatuh, Kabupaten Gianyar, Bali 80581, Indonesia",https://maps.google.com/?cid=966376533245354655,OPERATIONAL,+62 813-3977-0021,fast_food_restaurant,"fast_food_restaurant, restaurant, food",4,24,
ChIJmV69c0sX0i0R-L71mNxB7TI,Jess Geprek,-8.5259511,115.29189529999998,"F7FR+JQ6, Jl. Raya Bedulu, Bedulu, Kec. Blahbatuh, Kabupaten Gianyar, Bali 80581, Indonesia",https://maps.google.com/?cid=3669661687091674872,OPERATIONAL,,indonesian_restaurant,"indonesian_restaurant, restaurant, food",4.2,24,
ChIJL980_ywW0i0RdAUlcVDQy2Y,Deking Batik Class.,-8.5263027,115.29265199999998,"F7FV+F3C, Jl. Raya Bedulu, Bedulu, Kec. Blahbatuh, Kabupaten Gianyar, Bali 80581, Indonesia",https://maps.google.com/?cid=7407243056055125364,OPERATIONAL,+62 813-3878-4892,,tourist_attraction,4.6,42,
ChIJHzHkOSgX0i0RCJ4zSfFZvP8,Yeh Pulu Guesthouse,-8.5302937,115.29317689999999,"Br. Batulumbang, Jl. Yeh Pulu, Bedulu, Kec. Blahbatuh, Kabupaten Gianyar, Bali 80581, Indonesia",https://maps.google.com/?cid=18427702668143336968,OPERATIONAL,+62 822-3778-6286,private_guest_room,"private_guest_room, lodging",5,7,
ChIJXQgmBrcX0i0R-PqCaGEzQvk,Kost Bpk. Ida Bagus Putu Jaya,-8.5263783,115.29982000000001,"F7FX+CWW, Bedulu, Blahbatuh, Gianyar Regency, Bali 80581, Indonesia",https://maps.google.com/?cid=17960974757365218040,OPERATIONAL,,,lodging,5,3,
ChIJW8Kq3LMX0i0RGq07BeW9-L0,Kubu reod,-8.527943300000002,115.2995351,"F7CX+RRF, Jl. Banjar Tiapi, MAS, Kecamatan Ubud, Kabupaten Gianyar, Bali 80571, Indonesia",https://maps.google.com/?cid=13688899858725580058,OPERATIONAL,,park,park,,,
ChIJhzlkIV8X0i0RBGefjy4JYs8,Oka house,-8.528597999999999,115.292529,"F7CR+HXG, Bedulu, Blahbatuh, Gianyar Regency, Bali 80581, Indonesia",https://maps.google.com/?cid=14943516609151461124,OPERATIONAL,,park,park,,,
ChIJVa2r-jEW0i0RAmvPyGFojVo,Pistop.co,-8.5288268,115.2965312,"Br wanayu, Bedulu, Kec. Blahbatuh, Kabupaten Gianyar, Bali 80581, Indonesia",https://maps.google.com/?cid=6524986204319869698,OPERATIONAL,+62 857-3735-4946,restaurant,"restaurant, food",3.9,33,
ChIJgY1spREX0i0RmYTyEefopdM,Warung Anna,-8.5246522,115.2937428,"Br. Margabingung, Bedulu, Kec. Blahbatuh, Kabupaten Gianyar, Bali 80581, Indonesia",https://maps.google.com/?cid=15250851792296248473,OPERATIONAL,+62 819-1610-7419,restaurant,"restaurant, food",5,4,
