id,name,latitude,longitude,address,url,status,phone,primary-type,types,rating,rating-count,price-level
ChIJFZPwl2EZ0i0RZB2FDPGHr2A,Giriya Gede Apuan,-8.4778386,115.3298703,"G8CH+VW9, Jl. Desa Apuan, Apuan, Kec. Susut, Kabupaten Bangli, Bali 80661, Indonesia",https://maps.google.com/?cid=6966936617932365156,OPERATIONAL,,museum,museum,,,
ChIJ07OThhwX0i0RWsb85WIsKQk,Dajan Bukit,-8.4833191,115.33326299999997,"G88M+M8C Candri Manik, Jl. Pura Sari Jl. Pucak Sari, Abuan, Kec. Susut, Kabupaten Bangli, Bali 80661, Indonesia",https://maps.google.com/?cid=660107623663453786,OPERATIONAL,,park,park,5,2,
ChIJu_LnHHoZ0i0Rf-HA38Z6WTY,"Griya Anyar, Apuan, Susut, Bangli",-8.478819999999999,115.3291488,"G8CH+FMC, Apuan, Susut, Bangli Regency, Bali 80661, Indonesia",https://maps.google.com/?cid=3916296345551430015,OPERATIONAL,,lodging,lodging,,,
ChIJa8IgBi4Z0i0Rc2e6D9BCkoo,Puri taman residace,-8.4782084,115.333491,"G8CM+P99, Abuan, Susut, Bangli Regency, Bali 80661, Indonesia",https://maps.google.com/?cid=9985116785218316147,OPERATIONAL,,hotel,"hotel, lodging",,,
ChIJSezaSZAX0i0RFsAk8LfX1cI,Bucu mati,-8.482533199999999,115.32974859999999,"Jl. Desa Apuan No.81, Apuan, Kec. Susut, Kabupaten Bangli, Bali 80661, Indonesia",https://maps.google.com/?cid=14039364598405316630,OPERATIONAL,,restaurant,"restaurant, food",5,1,
ChIJzzNVT4AX0i0RU2svGrAZDLs,Balai Peyadnyan Apuan Kelod,-8.482441399999999,115.3293158,"G89H+2PG, Jl. Desa Apuan, Apuan, Kec. Susut, Kabupaten Bangli, Bali 80661, Indonesia",https://maps.google.com/?cid=13478176028957305683,OPERATIONAL,+62 857-9255-7979,night_club,night_club,,,
ChIJQWVz3ioY0i0R_giCJonLeLM,Warung Makan Babi Guling Buba,-8.4783317,115.3298523,"G8CH+MW9, Jl. Desa Apuan, Apuan, Kec. Susut, Kabupaten Bangli, Bali 80661, Indonesia",https://maps.google.com/?cid=12932310119911393534,OPERATIONAL,,restaurant,"restaurant, food",,,
ChIJJxEuU7MZ0i0RuDgSXvVJ4w4,Warung Makan Sari Muja,-8.479229199999999,115.3339462,"G8CM+8H4, Jl. Raya Serokadan, Abuan, Kec. Susut, Kabupaten Bangli, Bali 80661, Indonesia",https://maps.google.com/?cid=1072782454438377656,OPERATIONAL,+62 831-1539-9792,restaurant,"restaurant, food",4,1,
ChIJ19eNS0AZ0i0RpOD58LMzKzM,Pak Umum,-8.4797046,115.3303474,"G8CJ+449, Apuan, Susut, Bangli Regency, Bali 80661, Indonesia",https://maps.google.com/?cid=3687097567867953316,OPERATIONAL,+62 821-4714-7538,,lodging,5,3,
ChIJU-nAiQgX0i0RGZDGTkmr-SE,Jik Ketut sudiawan,-8.481154,115.32884500000002,"G89H+HF8, Apuan, Susut, Bangli Regency, Bali 80661, Indonesia",https://maps.google.com/?cid=2448176203795173401,OPERATIONAL,,hotel,"hotel, lodging",,,
ChIJ53CvMn4Z0i0Rp5cgLdRvoxE,Angga Homestay,-8.477152499999999,115.33456149999998,"G8FM+4RM, Abuan, Susut, Bangli Regency, Bali 80661, Indonesia",https://maps.google.com/?cid=1270982476929472423,OPERATIONAL,,private_guest_room,"private_guest_room, lodging",,,
ChIJE3eaMgAZ0i0RvTgYF8RKG8U,Rumah bangli,-8.4792924,115.32917800000001,"G8CH+FMC, Apuan, Susut, Bangli Regency, Bali 80661, Indonesia",https://maps.google.com/?cid=14203028055904499901,OPERATIONAL,,hostel,"hostel, lodging",,,
ChIJ6zL58EkZ0i0RaIVKaa85a-c,Rumah I Wayan Rika,-8.477839399999999,115.3343974,"G8CM+QQP, Jl. Raya Serokadan, Abuan, Kec. Susut, Kabupaten Bangli, Bali 80661, Indonesia",https://maps.google.com/?cid=16675485470817944936,CLOSED_TEMPORARILY,,indonesian_restaurant,"indonesian_restaurant, restaurant, food",,,
ChIJtWSGsXsZ0i0RaQegWkfEvJw,Rumah Pakyan KoKo,-8.4771852,115.3341087,"G8FM+4JH, Jl. Raya Serokadan, Abuan, Kec. Susut, Kabupaten Bangli, Bali 80661, Indonesia",https://maps.google.com/?cid=11294117776280520553,CLOSED_TEMPORARILY,,night_club,night_club,,,
