id,name,latitude,longitude,address,url,status,phone,primary-type,types,rating,rating-count,price-level
ChIJAzxT71kf0i0RdZJCraQLT14,Lembah Bidadari,-8.3925533,115.28803660000001,"Sangaji, Taro, Kec. Tegallalang, Kabupaten Gianyar, Bali 80561, Indonesia",https://maps.google.com/?cid=6795663164634731125,OPERATIONAL,,tourist_attraction,tourist_attraction,4.2,193,
ChIJJXMTb1Ef0i0RwkAB9cRGjIM,Dukuh Sebatu Villa,-8.3978623,115.29160119999999,"Sebatu, Tegallalang, Gianyar Regency, Bali 80561, Indonesia",https://maps.google.com/?cid=9479029127446085826,OPERATIONAL,+62 812-3830-8083,,lodging,4.4,34,
ChIJk37CG-kf0i0R0qX2t0iUHP8,Umah Galang,-8.3949277,115.29240649999998,"Jl. Raya Pujung Kaja No.95, Sebatu, Kec. Tegallalang, Kabupaten Gianyar, Bali 80561, Indonesia",https://maps.google.com/?cid=18382730819064473042,CLOSED_TEMPORARILY,+62 813-3811-6636,lodging,lodging,4.7,6,
ChIJtUiEW1Af0i0R0rWIncoFm0s,Waroeng Makan,-8.3939374,115.293172,"Jalan Raya Bilukan, J74V+C7F, Sebatu, Tegalalang, Sebatu, Kec. Tegallalang, Kabupaten Gianyar, Bali 80561, Indonesia",https://maps.google.com/?cid=5447954542019261906,OPERATIONAL,+62 833-2852-147,fast_food_restaurant,"fast_food_restaurant, restaurant, food",4.7,14,
ChIJwWUSwT8f0i0RPeddMBlRUdk,Masakan Padang Aura minang,-8.3971865,115.29066479999999,"Jl. Raya Pujung Kaja No.10, Sebatu, Kec. Tegallalang, Kabupaten Gianyar, Bali 80561, Indonesia",https://maps.google.com/?cid=15659386547971417917,OPERATIONAL,+62 823-5903-9439,indonesian_restaurant,"indonesian_restaurant, restaurant, food",5,3,
ChIJFcKSF1Ef0i0RwJI0TiZPS1I,Warung Sate Madura,-8.3956612,115.2912649,"J73R+PGJ, Jl. Raya Bilukan, Sebatu, Kec. Tegallalang, Kabupaten Gianyar, Bali 80561, Indonesia",https://maps.google.com/?cid=5929920360302809792,OPERATIONAL,+62 877-6114-6780,indonesian_restaurant,"indonesian_restaurant, restaurant, food",4.4,16,
ChIJzZf-kQEf0i0RfRFJ66CA4nc,Dukuh Sebatu,-8.3972988,115.2915595,"Jl. Raya Pujung Kaja No.10, Sebatu, Kec. Tegallalang, Kabupaten Gianyar, Bali 80561, Indonesia",https://maps.google.com/?cid=8638608463880589693,OPERATIONAL,+62 813-3809-9561,tourist_attraction,tourist_attraction,5,2,
ChIJ_YyTLy0f0i0RCqCt0m0Qr4Y,Настоящие рисовые терассы,-8.3965979,115.2919221,"J73R+4JC, Sebatu, Tegallalang, Gianyar Regency, Bali 80561, Indonesia",https://maps.google.com/?cid=9704993785878781962,OPERATIONAL,,hiking_area,"hiking_area, park",,,
ChIJeZE7WlAf0i0RS62Vzgp9Oho,Wr. Lalapan Barokah Jawa Timur,-8.394421399999999,115.29260339999998,"Jl. Raya Bilukan, Sebatu, Kec. Tegallalang, Kabupaten Gianyar, Bali 80561, Indonesia",https://maps.google.com/?cid=1889960479004405067,OPERATIONAL,+62 858-0721-9589,indonesian_restaurant,"indonesian_restaurant, restaurant, food",4.3,4,
ChIJ31KYSgAf0i0RmqsUOSPtMU0,Warung Balung Babi,-8.3968251,115.2907261,"J73R+68R, Jl. Raya Pujung Kaja, Sebatu, Kec. Tegallalang, Kabupaten Gianyar, Bali 80561, Indonesia",https://maps.google.com/?cid=5562487750316567450,OPERATIONAL,,indonesian_restaurant,"indonesian_restaurant, restaurant, food",5,1,
ChIJLSTwY1Ef0i0RS2B-kBrDnYA,Warung Kopi We Malih,-8.3971818,115.29151639999999,"J73R+4JC, Sebatu, Tegallalang, Gianyar Regency, Bali 80561, Indonesia",https://maps.google.com/?cid=9267778127059116107,OPERATIONAL,+86 878 6221 8439,cafe,"cafe, coffee_shop, store, food",3.8,8,
ChIJXXEMztAf0i0RrFRNTRy4XtY,WR dipaon padang bali,-8.3936794,115.29432539999999,"J74V+GPG, Sebatu, Tegallalang, Gianyar Regency, Bali 80561, Indonesia",https://maps.google.com/?cid=15446986203622888620,OPERATIONAL,+62 877-6005-2000,restaurant,"restaurant, food",4.5,4,
ChIJp55v0FAf0i0REcCeY4fb3a4,Puri B Lux,-8.3945171,115.290376,"J74R+55R, Sebatu, Tegallalang, Gianyar Regency, Bali 80561, Indonesia",https://maps.google.com/?cid=12600468706990931985,OPERATIONAL,,hotel,"hotel, lodging",5,2,
ChIJ45czGFEf0i0RArOjER1jkXI,Wr. Muslim Bakso Urat,-8.3955627,115.2913344,"J73R+QGG, Jl. Raya Bilukan, Sebatu, Kec. Tegallalang, Kabupaten Gianyar, Bali 80561, Indonesia",https://maps.google.com/?cid=8255488568447972098,OPERATIONAL,+62 877-6114-6780,fast_food_restaurant,"fast_food_restaurant, indonesian_restaurant, restaurant, food",,,
ChIJ2cNoWFAf0i0RqZ96jUEhGoM,Warung Makan Kesawa,-8.394145199999999,115.29272279999999,"Sebatu, Tegallalang, Gianyar Regency, Bali, Indonesia",https://maps.google.com/?cid=9446899733793251241,OPERATIONAL,+62 857-3740-7525,restaurant,"restaurant, food",,,
ChIJa4vf_VAf0i0RRdnHcdq6GC8,Warung LUNA -Juicy Fresh,-8.394833,115.292277,"J74R+3W6, Jl. Raya Bilukan, Sebatu, Kec. Tegallalang, Kabupaten Gianyar, Bali 80561, Indonesia",https://maps.google.com/?cid=3393667766598228293,OPERATIONAL,+62 812-4662-222,cafe,"cafe, food",4,1,
ChIJ_zPq1hAf0i0RiPaiJUPi1f0,Tegal Tebungkling,-8.3942334,115.29075630000001,"Sebatu, Tegallalang, Gianyar Regency, Bali 80561, Indonesia",https://maps.google.com/?cid=18290774239657260680,OPERATIONAL,+62 852-3719-0035,cottage,"cottage, lodging",,,
ChIJsxPjXkEf0i0Rmne4H4esPdY,Posko Sudama,-8.395508,115.29256679999997,"J73V+Q2W, Sebatu, Tegallalang, Gianyar Regency, Bali, Indonesia",https://maps.google.com/?cid=15437684794048673690,CLOSED_TEMPORARILY,,bar,bar,,,
ChIJMx9HqIkf0i0R4b3Kzdzw8sg,Warung makan nangkembar,-8.3946988,115.29268939999999,"Jl. Raya Bilukan, Sebatu, Kec. Tegallalang, Kabupaten Gianyar, Bali 80561, Indonesia",https://maps.google.com/?cid=14479900583085653473,OPERATIONAL,+62 877-6175-5049,indonesian_restaurant,"indonesian_restaurant, restaurant, food",,,
ChIJLZ2vfJ8f0i0RgSCA7Tn7ICw,warung makan srisika,-8.3925159,115.2944108,"Jl. Raya Bilukan No.25, Sebatu, Kec. Tegallalang, Kabupaten Gianyar, Bali 80561, Indonesia",https://maps.google.com/?cid=3179817563139874945,OPERATIONAL,+62 817-3830-7681,bar,bar,,,
