id,name,latitude,longitude,address,url,status,phone,primary-type,types,rating,rating-count,price-level
ChIJUdasj5cl0i0RIHOg9a1dc00,The Valley Batukaru,-8.4448708,115.11546670000001,"Tegallinggah, Penebel, Tabanan Regency, Bali 82152, Indonesia",https://maps.google.com/?cid=5580907364973835040,OPERATIONAL,+62 361 9090738,park,park,4.9,14,
ChIJi4kqK5ol0i0RD3gCcxPz_es,Pokdakan Lele Mandiri Banyupinaruh,-8.447339,115.1115365,"H436+3J7, Banjar Kelembang Kaja, Rejasa, Kec. Penebel, Kabupaten Tabanan, Bali 82152, Indonesia",https://maps.google.com/?cid=17005015032880330767,OPERATIONAL,+62 852-3881-1552,park,park,4.3,16,
ChIJ19VTnBsl0i0R9sgfXCCiOCw,Warung Gurun Adi,-8.4481298,115.1118491,"jln Br, H426+PPX, Kelembang, Rejasa, Kec. Penebel, Kabupaten Tabanan, Bali 82152, Indonesia",https://maps.google.com/?cid=3186474996232866038,OPERATIONAL,+62 813-3777-9180,restaurant,"restaurant, food",5,1,
ChIJBS1udJgl0i0RxxuIRbb2VHE,Warung MeWah,-8.446088999999999,115.11744979999999,"Tegallinggah, Penebel, Tabanan Regency, Bali 82152, Indonesia",https://maps.google.com/?cid=8166423287040580551,OPERATIONAL,+62 853-3848-7900,restaurant,"restaurant, food",4.5,19,
ChIJR8R0dgAl0i0R0pTKJYIt4ak,Carik mg,-8.4458761,115.11663139999999,"H438+JMR, Tegallinggah, Penebel, Tabanan Regency, Bali, Indonesia",https://maps.google.com/?cid=12241115299172750546,OPERATIONAL,,park,park,,,
ChIJ-7oGQegl0i0RtwZEnQaNgdA,Mohome,-8.452288400000002,115.11173830000001,"G4X6+3M, Rejasa, Penebel, Tabanan Regency, Bali, Indonesia",https://maps.google.com/?cid=15024444891432486583,OPERATIONAL,,tourist_attraction,tourist_attraction,,,
ChIJAwtGDscl0i0RcORyGK_-Z9I,Rumah trendy,-8.4455149,115.11646119999999,"H438+QHW, Tegallinggah, Penebel, Tabanan Regency, Bali 82152, Indonesia",https://maps.google.com/?cid=15161366698548978800,OPERATIONAL,,hostel,"hostel, lodging",5,1,
ChIJh_8EUzMl0i0RupTeCZD4ufA,Kau bulu,-8.445643,115.11714330000001,"H438+PVR, Tegallinggah, Penebel, Tabanan Regency, Bali, Indonesia",https://maps.google.com/?cid=17346168737318737082,OPERATIONAL,,hotel,"hotel, lodging",5,3,
