id,name,latitude,longitude,address,url,status,phone,primary-type,types,rating,rating-count,price-level
ChIJG23PZCUh0i0RWYW_l8idk7o,Alam Baru Camp Bali,-8.3776137,115.256903,"Pondok Sidem, Banjar Penginyahan, Puhu, Payangan, Gianyar Regency, Bali 80572, Indonesia",https://maps.google.com/?cid=13444262797495993689,OPERATIONAL,+62 813-3181-8919,campground,"campground, park, lodging",4.8,45,
ChIJ33C9dA8h0i0RDZBT7gT7IOc,Warung Alam Baru,-8.3776425,115.2570024,"ALAM BARU CAMP BALI, Pondok Sidem, Banjar Penginyahan, J7C4+WRR, Puhu, Payangan, Gianyar Regency, Bali 80572, Indonesia",https://maps.google.com/?cid=16654587420612988941,OPERATIONAL,+62 821-4441-0337,coffee_shop,"coffee_shop, cafe, food, store",5,1,
ChIJiRFKYwAh0i0RO5rZAf0xnxw,SELASIH LAND,-8.3797555,115.25433559999999,"J7C3+3PW, Puhu, Payangan, Gianyar Regency, Bali, Indonesia",https://maps.google.com/?cid=2062422117086501435,OPERATIONAL,,camping_cabin,"camping_cabin, lodging",,,
ChIJ961A3YAh0i0Rcz_NYwLzm7M,Sidem 23,-8.3778017,115.25672709999999,"J7C4+VMH, Puhu, Payangan, Gianyar Regency, Bali 80572, Indonesia",https://maps.google.com/?cid=12942205145769131891,OPERATIONAL,,hiking_area,"hiking_area, park",,,
ChIJQ5od_UUh0i0RQ5KQq1VS4qw,Rumah,-8.3798626,115.25798929999999,"J795+V5, Puhu, Payangan, Gianyar Regency, Bali, Indonesia",https://maps.google.com/?cid=12457610047164289603,OPERATIONAL,,hostel,"hostel, lodging",,,
