id,name,latitude,longitude,address,url,status,phone,primary-type,types,rating,rating-count,price-level
ChIJYThXiPKb0S0RhbMD-Ml08EY,Danu Bali Car Rental 2,-8.14208,115.0759803,"perumahan griya panji asri, Jl. Anggrek blok d2, Panji, Kec. Sukasada, Kabupaten Buleleng, Bali 81161, Indonesia",https://maps.google.com/?cid=5111713987863753605,OPERATIONAL,+62 878-6625-8226,car_rental,car_rental,4.7,15,
ChIJQw70gqOb0S0RHFXCjSZuRX4,Perumahan 99 Batupulu,-8.1456407,115.0744288,"V33F+PQV, Panji Anom, Sukasada, Buleleng Regency, Bali 81119, Indonesia",https://maps.google.com/?cid=9098799734038091036,OPERATIONAL,,lodging,lodging,4.8,4,
ChIJX5rn79eb0S0RLjFHvWcARbc,Gede Sandy,-8.144225,115.0759005,"V34G+892, Panji, Sukasada, Buleleng Regency, Bali 81119, Indonesia",https://maps.google.com/?cid=13205961927891038510,OPERATIONAL,+62 857-3864-7851,private_guest_room,"private_guest_room, lodging",,,
ChIJu05TA0Wb0S0RtgSKXmwFn5o,Bakso VEGA,-8.146913,115.0737017,"V33F+6FP, Panji Anom, Sukasada, Buleleng Regency, Bali 81119, Indonesia",https://maps.google.com/?cid=11141629966138606774,OPERATIONAL,+62 852-3848-5006,indonesian_restaurant,"indonesian_restaurant, restaurant, food",5,2,
ChIJ9R-aYrKb0S0RdBa0MIn98ow,BAKSO DIANA,-8.1463051,115.07384730000001,"V33F+FGH, Jl. Panji Anom, Panji, Kec. Sukasada, Kabupaten Buleleng, Bali 81119, Indonesia",https://maps.google.com/?cid=10156458875343345268,OPERATIONAL,+62 877-6261-5044,indonesian_restaurant,"indonesian_restaurant, restaurant, food",4.5,2,
ChIJyTEbEe-b0S0RGCDeQ6W1Qbo,Catering Sari Dewi,-8.145101499999999,115.07160879999999,"V33C+XJ5, Panji Anom, Sukasada, Buleleng Regency, Bali 81119, Indonesia",https://maps.google.com/?cid=13421208085953650712,CLOSED_TEMPORARILY,,restaurant,"restaurant, food",,,
ChIJyQUpNwCb0S0RJsCzlv27kIY,marguna home,-8.143300300000002,115.0703777,"V34C+M5C, Panji Anom, Sukasada, Buleleng Regency, Bali 81119, Indonesia",https://maps.google.com/?cid=9696456695558160422,OPERATIONAL,,restaurant,"restaurant, food",,,
