id,name,latitude,longitude,address,url,status,phone,primary-type,types,rating,rating-count,price-level
ChIJuZbOUdoj0i0RbdKi7te66gE,sariartha kopi bali,-8.4142908,115.22207,"Jl.I Gst Ngurah rai desa No.br, Pangsan, Kec. Petang, Kabupaten Badung, Bali 80353, Indonesia",https://maps.google.com/?cid=138128175172604525,OPERATIONAL,+62 851-0044-9387,coffee_shop,"coffee_shop, cafe, store, food",4.7,27,PRICE_LEVEL_INEXPENSIVE
ChIJIdVt9ccj0i0RfpqK1wot6UE,Warung Nasi Jero Tirta,-8.418607399999999,115.2226666,"H6JF+H33, Jl. I.GST. NGR Rai, Getasan, Kec. Petang, Kabupaten Badung, Bali 80353, Indonesia",https://maps.google.com/?cid=4749376806628006526,OPERATIONAL,+62 815-2928-4088,indonesian_restaurant,"indonesian_restaurant, restaurant, food",3.3,9,
ChIJW-gjJdoj0i0RtNFI73Uu5iQ,GEPENG FARM,-8.4157415,115.2264118,"H6MF+JR8, Jl. Puputan Badung, Pangsan, Kec. Petang, Kabupaten Badung, Bali 80353, Indonesia",https://maps.google.com/?cid=2658863714069434804,OPERATIONAL,,tourist_attraction,tourist_attraction,5,1,
ChIJkR9Uilsj0i0RlyiUXmYjkRM,Warung Makan Sate Dhe Guss,-8.4208945,115.22291399999997,"Jl. I.GST. NGR Rai Br. Ubud, Desa No.70, Getasan, Kec. Petang, Kabupaten Badung, Bali 80353, Indonesia",https://maps.google.com/?cid=1409947080924080279,OPERATIONAL,+62 812-4618-4812,indonesian_restaurant,"indonesian_restaurant, restaurant, food",4.3,6,
ChIJL8xs5FQj0i0RTfYg4OlorTU,Abbisa Cake & POM Kids,-8.4162786,115.22318449999999,"Jl. Ciung Wanara No.6, Pangsan, Kec. Petang, Kabupaten Badung, Bali 80353, Indonesia",https://maps.google.com/?cid=3867863008678049357,CLOSED_TEMPORARILY,+62 822-3661-1699,restaurant,"restaurant, food",,,
ChIJ_8mDIRwj0i0RmtWDcwzglEY,Warung bukde,-8.420797499999999,115.22289669999999,"Jl. I.GST. NGR Rai, Getasan, Kec. Petang, Kabupaten Badung, Bali 80353, Indonesia",https://maps.google.com/?cid=5085936223290381722,OPERATIONAL,+62 819-4975-2545,indonesian_restaurant,"indonesian_restaurant, restaurant, food",5,1,
ChIJPTthhcwj0i0RGFEVbyuitrQ,Bola Pelangi,-8.414259999999999,115.2235618,"H6PF+7CV, Jl. Puputan Badung, Pangsan, Kec. Petang, Kabupaten Badung, Bali 80353, Indonesia",https://maps.google.com/?cid=13021773680019329304,CLOSED_TEMPORARILY,,lodging,lodging,,,
ChIJM8OdcAAj0i0RwSgmgucn3xo,Pacung shady house,-8.4139196,115.2240817,"H6PF+CJP Br Kasianan, Pangsan, Kec. Petang, Kabupaten Badung, Bali, Indonesia",https://maps.google.com/?cid=1936310240067070145,OPERATIONAL,,private_guest_room,"private_guest_room, lodging",5,1,
