id,name,latitude,longitude,address,url,status,phone,primary-type,types,rating,rating-count,price-level
ChIJNz-efFFy0i0RlOhVXzPzyCg,Penida Colada Beach Bar,-8.6756741,115.5117485,"Jl. Ped-Buyuk, Ped, Kec. Nusa Penida, Kabupaten Klungkung, Bali 80771, Indonesia",https://maps.google.com/?cid=2938866158827595924,OPERATIONAL,,restaurant,"restaurant, brunch_restaurant, cafe, seafood_restaurant, bar, event_venue, food",4.5,3121,PRICE_LEVEL_MODERATE
ChIJpU9zVGVz0i0RGx-5sM8KW20,Coco Penida Restaurant & Bar,-8.6761235,115.5132366,"Jalan Ped - Buyuk, Ped, Kec. Nusa Penida, Kabupaten Klungkung, Bali 80771, Indonesia",https://maps.google.com/?cid=7879903860154244891,OPERATIONAL,+62 878-6147-8222,restaurant,"restaurant, food",4.7,1791,PRICE_LEVEL_MODERATE
ChIJP08IhXxz0i0R1TTRnCa0ReI,Singabu Sand Beach,-8.674287099999999,115.50792360000001,"Ped, Nusa Penida, Klungkung Regency, Bali 80771, Indonesia",https://maps.google.com/?cid=16304636103897461973,OPERATIONAL,+62 813-5386-6285,restaurant,"restaurant, food",4.7,538,PRICE_LEVEL_MODERATE
ChIJ4079BnBz0i0RsiEr-sq97-U,Next Level Cafe,-8.675406299999999,115.510882,"Bodong Nusa penida, Ped, Kec. Nusa Penida, Kabupaten Klungkung, Bali 80771, Indonesia",https://maps.google.com/?cid=16568670233597518258,OPERATIONAL,+62 853-3780-8027,restaurant,"cafe, restaurant, food",4.8,540,PRICE_LEVEL_INEXPENSIVE
ChIJ8whoT2Jz0i0RM5bTIPurohk,Sushi island,-8.6751805,115.50984520000002,"8GF5+VXR, Jalan, Buyuk, Ped, Kec. Nusa Penida, Kabupaten Klungkung, Bali 80771, Indonesia",https://maps.google.com/?cid=1847227892251203123,OPERATIONAL,,sushi_restaurant,"sushi_restaurant, japanese_restaurant, restaurant, food",4.8,629,
ChIJzZOOnlxz0i0RvrJCiHewYss,Warung beach,-8.675788599999999,115.51205940000001,"8GF6+MRM, Jalan, Buyuk, Ped, Kec. Nusa Penida, Kabupaten Klungkung, Bali 80771, Indonesia",https://maps.google.com/?cid=14655470164850684606,OPERATIONAL,+62 853-3348-2485,restaurant,"restaurant, food",4.9,339,
ChIJUeYv4n5z0i0RktbRJY1q8Xg,NOMÉ BEACH CLUB & Restaurant Nusa Penida,-8.6745168,115.50877030000001,"Jl. Ped Desa Tanah Bias, Ped, Kec. Nusa Penida, Kabupaten Klungkung, Bali, Indonesia",https://maps.google.com/?cid=8714863908396062354,OPERATIONAL,+62 812-3107-5031,restaurant,"restaurant, swimming_pool, coffee_shop, cafe, night_club, bar, store, sports_complex, food",4.4,307,
ChIJ186arV9y0i0RCN_bJfIPZz8,Ring Sameton Resort Hotel,-8.6777871,115.5138026,"Jalan Raya Ped-Buyuk, Br. Bodong, Ped,, Nusa Penida Island, Ped, Kec. Nusa Penida, Kabupaten Klungkung, Bali 80771, Indonesia",https://maps.google.com/?cid=4568637879682326280,OPERATIONAL,+62 366 5581521,hotel,"hotel, lodging, restaurant, food",4.3,246,
ChIJQ_VElA5z0i0Remz6db0D_60,Tishe Yoga & Body Movement Studio & Cafe,-8.6753748,115.5073025,"8GF6+J4J, Ped, Nusa Penida, Klungkung Regency, Bali 80771, Indonesia",https://maps.google.com/?cid=12537743999885798522,OPERATIONAL,+62 878-4384-5974,fitness_center,"cafe, fitness_center, gym, sports_complex, food, health",5,83,
ChIJmZ8TIbZz0i0R9BHxqwU2pAA,Warung Camole,-8.6740965,115.50721430000002,"8GG4+9V8, Ped, Nusa Penida, Klungkung Regency, Bali 80771, Indonesia",https://maps.google.com/?cid=46221294167986676,OPERATIONAL,+62 831-1434-2408,restaurant,"restaurant, food",4.8,122,
ChIJPaXQb1Fy0i0R4cGmgPiCAPA,Penida Minang beach,-8.676385,115.51401729999999,"Ped, Nusa Penida, Klungkung Regency, Bali 80771, Indonesia",https://maps.google.com/?cid=17293966572924617185,OPERATIONAL,+62 813-3926-2115,seafood_restaurant,"seafood_restaurant, cafe, bar, restaurant, food",4.3,455,PRICE_LEVEL_INEXPENSIVE
ChIJuwzwFlFy0i0RBiAJjiwvRr8,Warung Pondok,-8.6760425,115.5127854,"8GF7+H4M, Ped, Nusa Penida, Klungkung Regency, Bali 80771, Indonesia",https://maps.google.com/?cid=13782755578022010886,OPERATIONAL,+62 813-5355-6061,seafood_restaurant,"seafood_restaurant, restaurant, food",4.3,163,
ChIJ0w6gq0Bz0i0RyZdIFrPfFiY,VnS Beachfront Guesthouse,-8.6757914,115.51231119999998,"Jl. Ped - Buyuk, Ped, Nusa Penida, Kabupaten Klungkung, Bali 80771, Indonesia",https://maps.google.com/?cid=2744626983194892233,OPERATIONAL,+62 812-8077-0316,,lodging,4.9,28,
ChIJ49821tpz0i0RoC18OIn1X24,Timbul Jaya Snorkeling,-8.6735864,115.5066333,"Ped, Nusa Penida, Klungkung Regency, Bali 80771, Indonesia",https://maps.google.com/?cid=7953345436666572192,OPERATIONAL,+62 878-6008-7860,tourist_attraction,tourist_attraction,3,27,
ChIJBxZfzZBz0i0Ri96izK2NDEU,La Plage Apartments Nusa Penida,-8.674999,115.509819,"Ped, Nusa Penida, Klungkung Regency, Bali 80771, Indonesia",https://maps.google.com/?cid=4975507465939639947,OPERATIONAL,+62 851-8394-5908,hotel,"hotel, lodging",4.8,13,
ChIJq62IeLdz0i0Rmbcu4TUyJ-s,"d’ Nusa Beach Club and Resto, Nusa Penida",-8.674705000000001,115.50939049999998,"Jalan Raya Ped, Desa Kelurahan Ped, Kec. Nusa Penida Kab. Klungkung, Ped, Kec. Nusa Penida, Bali, 80771, Indonesia",https://maps.google.com/?cid=16944567329997371289,OPERATIONAL,+62 811-3961-6852,restaurant,"restaurant, food",4.8,30,
ChIJJ0HDv1By0i0RaRPi0f0gOhw,Pura Dalem Bungkut ᬧᬸᬭ ᬤᬮᭂᬫ᭄ ᬩᬸᬂᬓᬸᬢ᭄,-8.675903,115.51026259999999,"8GF6+J4J, Ped, Nusa Penida, Klungkung Regency, Bali 80771, Indonesia",https://maps.google.com/?cid=2033974456231269225,OPERATIONAL,,hindu_temple,"hindu_temple, tourist_attraction, place_of_worship",4.9,43,
ChIJq2bNsFBy0i0Rrg4kKDuC8io,Rumah Makan Hasna Fried Chicken (HFC).,-8.6754523,115.50997319999998,"8GF5+RX9, Jalan, Buyuk, Ped, Kec. Nusa Penida, Kabupaten Klungkung, Bali 80771, Indonesia",https://maps.google.com/?cid=3094679084545085102,OPERATIONAL,+62 822-4782-9727,meal_takeaway,"meal_takeaway, restaurant, food",4.7,20,
ChIJUfUz0ppz0i0R4tu8x0-4DKg,Bali 362,-8.6762991,115.5138868,"8GF7+FHJ, Ped, Nusa Penida, Klungkung Regency, Bali 80771, Indonesia",https://maps.google.com/?cid=12109256150885391330,OPERATIONAL,+62 823-4129-7746,restaurant,"restaurant, food",5,1,
ChIJQQWGQMdz0i0RsRNHiQAebQg,Pescador - Bar & Eatery,-8.6755474,115.5116303,"Unnamed Road, 8GF6+QMJ, Ped, Nusa Penida, Klungkung Regency, Bali 80771, Indonesia",https://maps.google.com/?cid=607174512416854961,OPERATIONAL,+62 811-396-300,bar,bar,,,
