id,name,latitude,longitude,address,url,status,phone,primary-type,types,rating,rating-count,price-level
ChIJ178SqP4i0i0RymfdwzHeAow,Alila Ubud,-8.461849899999999,115.24059820000001,"Desa, Melinggih Kelod, Kec. Payangan, Kabupaten Gianyar, Bali 80572, Indonesia",https://maps.google.com/?cid=10088870420584163274,OPERATIONAL,+62 361 975963,hotel,"hotel, lodging",4.6,1279,
ChIJ83EweXRA0i0Ro_k2qv-KaZs,Bali Pertiwi Adventure,-8.465838399999999,115.23798199999999,"Jl. Dewi Saraswati No.2, Bongkasa Pertiwi, Kec. Abiansemal, Kabupaten Badung, Bali 80352, Indonesia",https://maps.google.com/?cid=11198634779110472099,OPERATIONAL,+62 813-3859-7825,,"tourist_attraction, sports_complex, athletic_field, travel_agency",4.7,769,
ChIJuYpc-dIi0i0RF-jKNyBBnWA,Puri Wulandari A Boutique Resort & Spa,-8.4658567,115.2428703,"Jl. Raya Kedewatan, Banjar Tanggayuda, Kedewatan, Kecamatan Ubud, Kabupaten Gianyar, Bali 80571, Indonesia",https://maps.google.com/?cid=6961792205615458327,OPERATIONAL,+62 361 980252,resort_hotel,"resort_hotel, hotel, lodging",4.6,519,
ChIJ48VMY50j0i0Rq_OtpDIwFLg,Be Bali Hut Farm Stay,-8.4626243,115.24293270000001,"Jl. Taman Sari Banjar Tanggayuda No.72, Kedewatan, Kecamatan Ubud, Kabupaten Gianyar, Bali 80571, Indonesia",https://maps.google.com/?cid=13264279796582314923,OPERATIONAL,+62 821-4497-3797,private_guest_room,"private_guest_room, lodging",4.9,80,
ChIJ-6ipN9Ii0i0RBLBo3kAnv-M,Plantation Restaurant,-8.4618304,115.23999119999999,"Desa, Melinggih Kelod, Kec. Payangan, Kabupaten Gianyar, Bali 80572, Indonesia",https://maps.google.com/?cid=16410878726724169732,OPERATIONAL,+62 361 975963,restaurant,"restaurant, indonesian_restaurant, food",4.4,82,
ChIJ9ZeHYuYi0i0R39sdDTBq94U,"Be Bali Stay, House For Rent",-8.4641551,115.24306969999999,"Jalan Taman Sari, G6PV+86P, Banjar Tanggayuda, Kedewatan, Ubud, Kedewatan, Kecamatan Ubud, Kabupaten Gianyar, Bali 80571, Indonesia",https://maps.google.com/?cid=9653301080902982623,OPERATIONAL,+62 812-3608-079,lodging,lodging,4.8,52,
ChIJSchfHnMj0i0RBqu0NBxKmzA,"Bebalilodge, One Bedroom Private Villa",-8.4642578,115.2430728,"Jalan Taman Sari Tanggayuda, G6PV+76W, Kedewatan, Ubud, Gianyar Regency, Bali 80571, Indonesia",https://maps.google.com/?cid=3502474620214487814,OPERATIONAL,+62 878-6040-0839,hotel,"hotel, lodging",5,6,
ChIJY7kQNN4i0i0RSFWZp5TGb8M,Candra Loka Villas,-8.4676832,115.23919769999999,"Karang Dalem, Jl. Dewi Gangga No.1, Bongkasa Pertiwi, Kec. Abiansemal, Kabupaten Badung, Bali 80352, Indonesia",https://maps.google.com/?cid=14082692901580133704,OPERATIONAL,+62 852-3758-3122,hotel,"hotel, lodging",5,11,
ChIJ_aMCcSIj0i0RG69TE-_oDOk,Cabana Lounge,-8.4619472,115.24045299999999,"Inside Alila Ubud, Melinggih Kelod, Kec. Payangan, Kabupaten Gianyar, Bali 80572, Indonesia",https://maps.google.com/?cid=16793053224076816155,OPERATIONAL,+62 361 975963,restaurant,"restaurant, food",4.8,23,
ChIJOxJwiLwj0i0R3weuiXY-IO0,Pramana Private House Rice Field view,-8.4632231,115.23709090000001,"Jl. Dewi Saraswati, Bongkasa Pertiwi, Kec. Abiansemal, Kabupaten Badung, Bali 80352, Indonesia",https://maps.google.com/?cid=17086725665080608735,OPERATIONAL,+62 877-0135-5544,,lodging,5,8,
ChIJXyMAtEQj0i0Rh6Ljp4sm7uo,Legong Terrace Restaurant,-8.465935900000002,115.24284399999998,"Jl. Raya Kedewatan, Banjar Tanggayuda, Kedewatan, Kecamatan Ubud, Kabupaten Gianyar, Bali 80571, Indonesia",https://maps.google.com/?cid=16928510430591296135,OPERATIONAL,+62 818-980-252,restaurant,"restaurant, food",5,2,
ChIJvfupWicj0i0Rs-jA1hmw_m4,Janger Restaurant,-8.466177499999999,115.2426739,"Jl. Raya Kedewatan, Banjar Tanggayuda, Kedewatan, Kecamatan Ubud, Kabupaten Gianyar, Bali 80571, Indonesia",https://maps.google.com/?cid=7998023613280217267,OPERATIONAL,+62 818-980-252,restaurant,"restaurant, food",5,20,
ChIJDd0FNN4i0i0RtMOw7dA28WM,Ulandari Homestay,-8.4675339,115.2396381,"Jl. Dewi Gangga Br. Karang Dalem No.1, Desa, Bongkasa Pertiwi, Kec. Abiansemal, Kabupaten Badung, Bali 80352, Indonesia",https://maps.google.com/?cid=7201597550111015860,OPERATIONAL,+62 857-3868-6840,hotel,"hotel, lodging",5,1,
ChIJR1CayIEj0i0RE4MgLCUYeWw,Finish Point Rejeki Ayung Rafting,-8.4607333,115.24240350000001,"G6QR+PX2, Jl. Taman Sari, 64KedewatanKecamatan, UbudKabupaten, Kabupaten Gianyar, Bali 80571, Indonesia",https://maps.google.com/?cid=7816305176211391251,CLOSED_TEMPORARILY,,tourist_attraction,tourist_attraction,,,
ChIJvTngjlQj0i0RLBtM233dj2U,Keanekaragaman Hayati - Jalak Bali,-8.4657575,115.2393053,"G6MQ+MPV, Bongkasa Pertiwi, Abiansemal, Badung Regency, Bali, Indonesia",https://maps.google.com/?cid=7318311452120193836,OPERATIONAL,,tourist_attraction,tourist_attraction,5,1,
ChIJt9OeXtUj0i0RxslJP2LJef0,Airy Ubud Dewi Saraswati Bali,-8.4634881,115.23745269999999,"G6PP+JX4, Jl. Dewi Saraswati, Banjar Karang Dalem I, Bongkasa Pertiwi, Kec. Abiansemal, Kabupaten Badung, Bali 80352, Indonesia",https://maps.google.com/?cid=18264851187583535558,OPERATIONAL,+62 804 111 2479,hotel,"hotel, lodging",,,
ChIJH8riPC4j0i0RsNpytlaVKBE,Jero Gede Karang Dalem I,-8.4666518,115.23926850000001,"Jl. Dewi Gangga No.1, Bongkasa Pertiwi, Kec. Abiansemal, Kabupaten Badung, Bali 80352, Indonesia",https://maps.google.com/?cid=1236402297373907632,OPERATIONAL,,tourist_attraction,tourist_attraction,5,7,
ChIJxb5_Nd4i0i0R6K3PN-e4Uao,"Mayor's Cozy Room, Bed and Breakfast",-8.4678077,115.23951909999998,"Br. Karang Dalem Jl. Dewi Gangga No.1, Bongkasa Pertiwi, Kec. Abiansemal, Kabupaten Badung, Bali 80352, Indonesia",https://maps.google.com/?cid=12272793762774625768,OPERATIONAL,+62 877-0979-1679,guest_house,"guest_house, lodging",4.9,7,
ChIJT8lgblAj0i0RrVBQa2Wwi-Y,AMARA GIRI UBUD VIEW,-8.4635071,115.2375936,"G6PQ+H2W, Jl. Dewi Saraswati, Bongkasa Pertiwi, Kec. Abiansemal, Kabupaten Badung, Bali 80352, Indonesia",https://maps.google.com/?cid=16612565600124817581,OPERATIONAL,+62 812-3930-379,lodging,lodging,5,2,
ChIJ6YfBIwAj0i0R1gltorcJhSg,Belisima guest gouse,-8.465186899999999,115.23835739999998,"Br. Karang Dalem Jl. Dewi Gangga No.1, Bongkasa Pertiwi, Kec. Abiansemal, Kabupaten Badung, Bali 80352, Indonesia",https://maps.google.com/?cid=2919750617728354774,OPERATIONAL,+62 823-4068-0420,private_guest_room,"private_guest_room, lodging",5,2,
