id,name,latitude,longitude,address,url,status,phone,primary-type,types,rating,rating-count,price-level
ChIJZ6Rn_6lB0i0RLvGnSIMqy6E,ALAS BANGKUWANG,-8.268168,114.9958418,"Pelapuan, Busung Biu, Buleleng Regency, Bali 80224, Indonesia",https://maps.google.com/?cid=11658458803726709038,OPERATIONAL,+62 818-343-833,tourist_attraction,tourist_attraction,4.9,13,
ChIJNeLnWHOH0S0R79fFTepClBE,Warung 88 Angkringan,-8.269017,115.00121659999998,"P2J2+9FW, Pelapuan, Busung Biu, Buleleng Regency, Bali 81152, Indonesia",https://maps.google.com/?cid=1266710969292543983,OPERATIONAL,+62 857-3746-0151,restaurant,"restaurant, food",5,3,
ChIJ1RHUJgiH0S0RJ4KYDpUfZEA,Warung Lia,-8.2691385,115.00313330000002,"P2J3+87R, Jl. Pelapuan, Kekeran, Kec. Busung Biu, Kabupaten Buleleng, Bali 81152, Indonesia",https://maps.google.com/?cid=4639868241153917479,OPERATIONAL,,restaurant,"restaurant, food",4.7,3,
ChIJExLgSo6H0S0RAPpjqSo09Ik,Tegal bonagung,-8.2698276,114.9994021,"PXJX+3Q6, Jl. Banjar Bonagung, Pelapuan, Kec. Busung Biu, Kabupaten Buleleng, Bali 81154, Indonesia",https://maps.google.com/?cid=9940627635348699648,OPERATIONAL,,park,park,,,
ChIJ-fNXdK-H0S0RoV91g7SivFY,Rumah Rangga,-8.268735999999999,115.0004593,"P2J2+G54, Pelapuan, Busung Biu, Buleleng Regency, Bali, Indonesia",https://maps.google.com/?cid=6250049279066726305,OPERATIONAL,,hotel,"hotel, lodging",,,
