id,name,latitude,longitude,address,url,status,phone,primary-type,types,rating,rating-count,price-level
ChIJF0wsvCkv0i0RwUQcLjljcIc,Rumah Dusun Eco Home Stay,-8.4055017,115.04682269999998,"Kebon Anyar, H2VW+QPW, Blimbing Village, Wanagiri, Kec. Selemadeg, Kabupaten Tabanan, Bali 82162, Indonesia",https://maps.google.com/?cid=9759409489749755073,OPERATIONAL,+62 813-3868-6999,private_guest_room,"private_guest_room, lodging",4.6,7,
ChIJ-7S3ft8p0i0REl8SNyXUD4w,Pondok ayu padma,-8.4076567,115.0450673,"H2RW+W2P, Wanagiri Kauh, Selemadeg, Tabanan Regency, Bali 82163, Indonesia",https://maps.google.com/?cid=10092518546263400210,OPERATIONAL,,,lodging,5,1,
ChIJHSHkTQAp0i0RrtJRCF7WkpI,Home Dek Uma,-8.4079827,115.04503840000001,"H2RW+R23, Wanagiri Kauh, Selemadeg, Tabanan Regency, Bali 82163, Indonesia",https://maps.google.com/?cid=10561739775492084398,OPERATIONAL,,,lodging,5,1,
ChIJswAPFwAp0i0Rp194O0z1Ass,PAK IRMAN,-8.412906399999999,115.0459337,"H2PW+VC2, Wanagiri Kauh, Selemadeg, Tabanan Regency, Bali 82162, Indonesia",https://maps.google.com/?cid=14628524247416856487,OPERATIONAL,,park,park,,,
ChIJJZsQUQAp0i0R5CsUzGaxzfc,Home bracik,-8.411807699999999,115.0436335,"H2QV+7FC, Wanagiri Kauh, Selemadeg, Tabanan Regency, Bali, Indonesia",https://maps.google.com/?cid=17856123152662539236,OPERATIONAL,,historical_landmark,historical_landmark,,,
ChIJkUzWLgAp0i0RVcXbTOFy66U,Kebun PANERA,-8.4069032,115.0444966,"H2VV+6QQ, Wanagiri Kauh, Selemadeg, Tabanan Regency, Bali, Indonesia",https://maps.google.com/?cid=11955775947767792981,OPERATIONAL,,park,park,,,
ChIJXbTBGKEp0i0RVMtbHsBICX4,Wr Buk Ayu Setia,-8.412993199999999,115.0459344,"H2PW+Q96, Wanagiri Kauh, Selemadeg, Tabanan Regency, Bali 82162, Indonesia",https://maps.google.com/?cid=9081870113549568852,OPERATIONAL,,coffee_shop,"coffee_shop, cafe, store, food",3.7,3,
ChIJd-zHnmgp0i0RRNiVAV8Ks7w,home sweet home vera,-8.4131314,115.0459706,"H2PW+Q96, Wanagiri Kauh, Selemadeg, Tabanan Regency, Bali 82162, Indonesia",https://maps.google.com/?cid=13597223103126427716,OPERATIONAL,,private_guest_room,"private_guest_room, lodging",,,
