id,name,latitude,longitude,address,url,status,phone,primary-type,types,rating,rating-count,price-level
ChIJkQcPcdAX0i0RWxeQDuHIt5A,Pura Penataran Sasih,-8.5139914,115.2931954,"F7PV+C74, Jalan Raya, Pejeng, Kec. Tampaksiring, Kabupaten Gianyar, Bali 80571, Indonesia",https://maps.google.com/?cid=10428024331137193819,OPERATIONAL,,hindu_temple,"hindu_temple, tourist_attraction, place_of_worship",4.7,518,
ChIJGcJKGsUX0i0R1a1ZEXC-X6M,Mahayoni villa,-8.5097572,115.297059,"Br panglan, Pejeng, Kec. Tampaksiring, Kabupaten Gianyar, Bali 80552, Indonesia",https://maps.google.com/?cid=11772337339506470357,OPERATIONAL,,hotel,"hotel, lodging",4.6,71,
ChIJH75tXtsX0i0RMTVSIjAp-k0,Sanga Suites Retreat and Villas,-8.5086145,115.2941963,"Pejeng, Tampaksiring, Gianyar Regency, Bali 80552, Indonesia",https://maps.google.com/?cid=5618848771809097009,OPERATIONAL,+62 857-3746-3970,,"bed_and_breakfast, hotel, guest_house, lodging",4.7,109,
ChIJi7xzCKQX0i0ReI1RSc98x4M,Sriwedari_plant,-8.5096466,115.29349020000001,"F7RV+49X Banjar Guliang, Pejeng, Kec. Tampaksiring, Kabupaten Gianyar, Bali 80552, Indonesia",https://maps.google.com/?cid=9495695569064136056,OPERATIONAL,,park,park,5,3,
ChIJKxQGcdAX0i0RbuPf2pLWzj0,Moon of Pejeng,-8.513725599999999,115.293615,"F7PV+GC5, Pejeng, Tampaksiring, Gianyar Regency, Bali 80552, Indonesia",https://maps.google.com/?cid=4453733007741674350,OPERATIONAL,,place_of_worship,"tourist_attraction, place_of_worship",3.9,10,
ChIJ-TSPftAX0i0RHhOazxTidWk,JFC (Jaya Fried Chicken) PEJENG,-8.5133988,115.2929202,"F7PV+J5V, Jl. Dr. Ir. Soekarno, Pejeng Kangin, Kec. Tampaksiring, Kabupaten Gianyar, Bali 80552, Indonesia",https://maps.google.com/?cid=7599228525267784478,OPERATIONAL,+62 822-4739-4906,meal_takeaway,"meal_takeaway, restaurant, food",3.8,37,
ChIJp1fE4M8X0i0ROpKSoY7xO2A,Kost Pekak Lugra,-8.5142217,115.2959935,"Unnamed Road, F7PW+899, Pejeng, Kec. Tampaksiring, Kabupaten Gianyar, Bali 80552, Indonesia",https://maps.google.com/?cid=6934401646165398074,OPERATIONAL,,hotel,"hotel, lodging",5,4,
ChIJk1yiXsUX0i0R5niLJeAGa3g,Air Terjun Apit Aungan Pejeng,-8.512856,115.29623419999999,"F7PW+VF5, Jl. Raya Pejeng Tampaksiring, Pejeng, Kec. Tampaksiring, Kabupaten Gianyar, Bali 80552, Indonesia",https://maps.google.com/?cid=8677036666831730918,OPERATIONAL,+62 812-3753-5678,tourist_attraction,tourist_attraction,4.2,60,
ChIJv3t4n8oX0i0RSK0mqmmqTUY,Warung sate kambing A3,-8.5121311,115.2931246,"Pejeng Tampak siring, Pejeng, Kec. Tampaksiring, Kabupaten Gianyar, Bali 80581, Indonesia",https://maps.google.com/?cid=5065892526664625480,OPERATIONAL,+62 812-2938-7177,indonesian_restaurant,"indonesian_restaurant, restaurant, food",4.9,7,
ChIJiZHv4OkX0i0R1FP6r-kKQkQ,Puri Agung Pejeng,-8.5125718,115.29247989999999,"F7QR+9R4, Jl. Raya Dr. Ir. Sukarno, Pejeng, Kec. Tampaksiring, Kabupaten Gianyar, Bali 80552, Indonesia",https://maps.google.com/?cid=4918505741838078932,OPERATIONAL,+62 821-4658-0238,tourist_attraction,tourist_attraction,5,1,
ChIJfRguDMwX0i0REsfBGxQ4flg,Kos GR,-8.5113504,115.29285879999999,"Jl. Raya Dr. Ir. Sukarno, Pejeng, Kec. Tampaksiring, Kabupaten Gianyar, Bali 80552, Indonesia",https://maps.google.com/?cid=6376595781419386642,CLOSED_TEMPORARILY,+62 858-7941-7438,hotel,"hotel, lodging",,,
ChIJkzNMedsX0i0R19GcTPbfveY,Hai Bali Cycling Tour,-8.508453,115.2930384,"Jl. DR. Ir. Soekarno, Pejeng, Kec. Tampaksiring, Kabupaten Gianyar, Bali 80552, Indonesia",https://maps.google.com/?cid=16626691648262033879,OPERATIONAL,+62 878-6006-6609,tourist_attraction,tourist_attraction,4.8,23,
ChIJgzDaFdsX0i0R7jCAG6dll6k,Villa Umah Cagaan,-8.50975,115.294,"Jalan. Banjar Cagaan, Desa Pejeng Bali, F7RV+4H5, Pejeng, Tampaksiring, Gianyar Regency, Bali, Indonesia",https://maps.google.com/?cid=12220347882288460014,OPERATIONAL,,hotel,"hotel, lodging",4.3,8,
ChIJJ-kxWbIX0i0RBjMW6eJ6MkI,Griya Tapa Loka Manuaba,-8.5128568,115.29485749999999,"F7PV+VW5, Pejeng, Tampaksiring, Gianyar Regency, Bali 80552, Indonesia",https://maps.google.com/?cid=4770010070330520326,OPERATIONAL,,private_guest_room,"private_guest_room, lodging",5,5,
ChIJe7ELEAYX0i0RqQoE0g9JGPE,Tulus Hati Restaurant,-8.5071719,115.29637910000001,"F7VW+4HJ, Pejeng, Tampaksiring, Gianyar Regency, Bali, Indonesia",https://maps.google.com/?cid=17372715894878505641,OPERATIONAL,+62 819-3626-4875,restaurant,"restaurant, food",,,
ChIJVwS6NUsX0i0RGC8DhnuqFRc,JHON KEBAB & BURGER PEJENG UBUD,-8.513263199999999,115.29294410000001,"F7PV+M5W, Jl. Raya Dr. Ir. Sukarno, Pejeng, Kec. Tampaksiring, Kabupaten Gianyar, Bali 80552, Indonesia",https://maps.google.com/?cid=1663423084889321240,OPERATIONAL,+62 899-3227-919,restaurant,"hamburger_restaurant, american_restaurant, restaurant, food",5,1,
ChIJZ7IJsSYX0i0RUK_tJ-AYq_A,DM Waroeng pejeng,-8.5125316,115.2931138,"F7PV+X6Q, Jl. Raya Dr. Ir. Sukarno, Pejeng, Kec. Tampaksiring, Kabupaten Gianyar, Bali 80552, Indonesia",https://maps.google.com/?cid=17341982141141856080,OPERATIONAL,+62 813-3773-1070,restaurant,"restaurant, food",4.4,5,
ChIJoZQrAPgX0i0R5LI-Ji6_sWg,Agung Jinggo,-8.5112752,115.29304139999998,"Banjar guliang, Pejeng, Kec. Tampaksiring, Kabupaten Gianyar, Bali 80552, Indonesia",https://maps.google.com/?cid=7544021055753335524,OPERATIONAL,+62 857-3801-5517,indonesian_restaurant,"indonesian_restaurant, restaurant, food",5,2,
ChIJD31dbtoX0i0ROtqhnF6e3dk,Bakso dan Mie Ayam Mas Pri,-8.5125599,115.29160300000001,"F7PR+XJH, Jl. Raya Dr. Ir. Sukarno, Pejeng, Kec. Tampaksiring, Kabupaten Gianyar, Bali 80552, Indonesia",https://maps.google.com/?cid=15698878005275384378,OPERATIONAL,,indonesian_restaurant,"indonesian_restaurant, restaurant, food",4.7,6,
ChIJf-M133oX0i0R0sI2CdY2A2Y,Jajan Satan,-8.5108899,115.29183979999998,"Unnamed Road, Pejeng, Kec. Tampaksiring, Kabupaten Gianyar, Bali 80552, Indonesia",https://maps.google.com/?cid=7350779309704266450,OPERATIONAL,+62 821-4617-3159,coffee_shop,"coffee_shop, cafe, food, store",5,14,
