id,name,latitude,longitude,address,url,status,phone,primary-type,types,rating,rating-count,price-level
ChIJn2el-3JB0i0RI7f-nqs85jw,Hongkong Garden Restaurant,-8.652585199999999,115.25312419999999,"Jl. Bypass Ngurah Rai Gg. Kertapura VIII No.8, Kesiman Kertalangu, Kec. Denpasar Tim., Kota Denpasar, Bali 80237, Indonesia",https://maps.google.com/?cid=4388261594723694371,OPERATIONAL,+62 361 462163,chinese_restaurant,"chinese_restaurant, restaurant, food",4.4,1963,PRICE_LEVEL_MODERATE
ChIJ7WHaLYBA0i0RbxH0LwXm8OE,Puri Nusa Indah Hotel,-8.650942,115.25004799999999,"Jl. Waribang No.99, Kesiman Petilan, Kec. Denpasar Tim., Kota Denpasar, Bali 80237, Indonesia",https://maps.google.com/?cid=16280765562898092399,OPERATIONAL,+62 811-3900-4999,hotel,"hotel, lodging",4.2,1629,
ChIJiZ-WDHFA0i0R4rL8BedUd7k,Barong Dance Uma Dewi,-8.654529499999999,115.2523671,"Jl. Waribang No.21, Kesiman Petilan, Kec. Denpasar Tim., Kota Denpasar, Bali 80237, Indonesia",https://maps.google.com/?cid=13364243770459861730,OPERATIONAL,+62 812-3866-672,tourist_attraction,tourist_attraction,4.4,1379,
ChIJuXyCF3FA0i0RYyhWUfY6Y00,KANG ZANGER BOKASHI FARM,-8.6540572,115.25190709999998,"Jl. Waribang No.27X, Kesiman, Kec. Denpasar Tim., Kota Denpasar, Bali 80237, Indonesia",https://maps.google.com/?cid=5576365593215772771,OPERATIONAL,+62 817-9755-345,restaurant,"restaurant, food",4.3,327,
ChIJ1VpxQ1hB0i0RFYpCIBNAbJ0,Sekopi.Bypass,-8.655147099999999,115.25374590000001,"JL. By Pass Ngurah Rai No.88B, Sanur Kaja, Denpasar Selatan, Kesiman, East Denpasar, Denpasar City, Bali 80237, Indonesia",https://maps.google.com/?cid=11343512012329224725,OPERATIONAL,+62 812-3717-1808,coffee_shop,"coffee_shop, cafe, food, store",4.7,282,
ChIJW76rDnFA0i0Rue0f4M1hnIc,Buana Mas Resto,-8.654686,115.2520748,"Jl. Waribang No.28x, Kesiman Petilan, Kec. Denpasar Tim., Kota Denpasar, Bali 80237, Indonesia",https://maps.google.com/?cid=9771792828343512505,OPERATIONAL,+62 821-4614-8090,restaurant,"restaurant, food",4.4,134,
ChIJ4VnBIx9B0i0RYJzNvJ5Ugi8,Umakami Resto,-8.6524694,115.2512777,"Jl. Waribang No.88a, Kesiman Petilan, Kec. Denpasar Tim., Kota Denpasar, Bali 80237, Indonesia",https://maps.google.com/?cid=3423391707504155744,OPERATIONAL,+62 821-4566-1456,restaurant,"restaurant, food",4.8,152,
ChIJheWpgE1B0i0R39WWGy5DQvE,Koolkost near Padang Galak Beach,-8.650827699999999,115.25330399999999,"Jl. Soka No.97, Kesiman Kertalangu, Kec. Denpasar Tim., Bali, 80237, Indonesia",https://maps.google.com/?cid=17384531376913962463,OPERATIONAL,+62 21 80629666,hotel,"hotel, lodging",4.6,16,
ChIJAfeKVHZA0i0RyTXCiQKj_1w,Pondok Wisata Intan Indah 2,-8.6497961,115.25133679999998,"Kesiman Kertalangu, East Denpasar, Denpasar City, Bali, Indonesia",https://maps.google.com/?cid=6701254001847055817,OPERATIONAL,,hotel,"hotel, lodging",4.6,7,
ChIJgdvvg3dA0i0R7TRBlQkITxE,Betutu Ibu Rai Kalam,-8.6499581,115.24861999999999,"Jl. Waribang No.22Y, Kesiman Petilan, Kec. Denpasar Tim., Kota Denpasar, Bali 80237, Indonesia",https://maps.google.com/?cid=1247224459056723181,OPERATIONAL,+62 877-5733-4372,restaurant,"restaurant, indonesian_restaurant, food",4.7,95,
ChIJQ-O8GXFA0i0RDaDEecCjHRY,Hare Krisna Vegetarian,-8.654237,115.2517124,"87W2+8M4, Jl. Waribang, Kesiman, Kec. Denpasar Tim., Kota Denpasar, Bali 80237, Indonesia",https://maps.google.com/?cid=1593609890231001101,OPERATIONAL,+62 852-3700-4909,vegetarian_restaurant,"vegetarian_restaurant, vegan_restaurant, indonesian_restaurant, restaurant, food",4.5,163,
ChIJZX32E3FA0i0R-aUHBxG43hM,Bokasi Farm (Pak Oles),-8.6540898,115.25233809999999,"Jl. Waribang No.27, Kesiman, Kec. Denpasar Tim., Kota Denpasar, Bali 80237, Indonesia",https://maps.google.com/?cid=1431784114822292985,OPERATIONAL,+62 815-5759-274,park,park,4.3,96,
ChIJB9mij3FA0i0R6Q-nmXjoTO8,Lawar Bali Kartika,-8.6555824,115.25373029999999,"Jalan By Pass I. Gusti Ngurah Rai, 87V3+QF9, Kesiman, Kec. Denpasar Tim., Kota Denpasar, Bali 80237, Indonesia",https://maps.google.com/?cid=17243412677966368745,OPERATIONAL,+62 852-3776-8048,indonesian_restaurant,"indonesian_restaurant, restaurant, food",4.4,388,PRICE_LEVEL_INEXPENSIVE
ChIJk5kl1ExB0i0RGuECcSrXWrs,Sekaa Barong Eka Budhi,-8.649361899999999,115.24764400000001,"Jl. Waribang No.11, Kesiman Petilan, Kec. Denpasar Tim., Kota Denpasar, Bali 80237, Indonesia",https://maps.google.com/?cid=13500339410281095450,OPERATIONAL,+62 361 224596,performing_arts_theater,"performing_arts_theater, event_venue",4.1,189,
ChIJyVLZgz9B0i0R3l31iUvftQ4,KOS KOSAN MELATI MESARI,-8.6525793,115.2473602,"Gg. Melati I No.4, Kesiman, Kec. Denpasar Tim., Kota Denpasar, Bali 80237, Indonesia",https://maps.google.com/?cid=1059998802845720030,OPERATIONAL,+62 812-3843-5584,,lodging,4.8,5,
ChIJSdCZ-3JB0i0R45_FyYyjbHw,Sanur Avenue Apartment Bali,-8.6513952,115.25428219999999,"Jl. Bypass Ngurah Rai No.198, Sanur Kaja, Denpasar Selatan, Kota Denpasar, Bali 80227, Indonesia",https://maps.google.com/?cid=8965720783263735779,OPERATIONAL,+62 852-3792-1115,hotel,"hotel, lodging",4.5,8,
ChIJDa30bnBA0i0RDnmypH2GgK8,BAKSO TETELAN,-8.656109599999999,115.2491127,"Jl. Sedap Malam No.97, Kesiman, Kec. Denpasar Tim., Kota Denpasar, Bali 80237, Indonesia",https://maps.google.com/?cid=12646255627848546574,OPERATIONAL,+62 859-3362-4447,indonesian_restaurant,"indonesian_restaurant, restaurant, food",4,4,
ChIJsfT3Z3pB0i0Rim4741vbUAc,Warung Pecel Nganjuk,-8.6524717,115.2545944,"87X3+2R9, Kesiman Kertalangu, East Denpasar, Denpasar City, Bali 80237, Indonesia",https://maps.google.com/?cid=527162344103177866,OPERATIONAL,+62 855-7743-564,indonesian_restaurant,"indonesian_restaurant, restaurant, food",4.8,39,
ChIJn8eED1pB0i0RIgTWWsUJVys,Griya Undagi 2,-8.6502704,115.2516189,"87X2+VJX, Kesiman Kertalangu, East Denpasar, Denpasar City, Bali 80237, Indonesia",https://maps.google.com/?cid=3122975609841910818,OPERATIONAL,,hotel,"hotel, lodging",4.7,6,
ChIJ-xt9owZB0i0RFdYMl6hLKIc,JFC Soka,-8.649749,115.25244939999999,"Jl. Soka No.82, Kesiman Kertalangu, Kec. Denpasar Tim., Kota Denpasar, Bali 80237, Indonesia",https://maps.google.com/?cid=9739117381649487381,OPERATIONAL,+62 811-3800-451,restaurant,"restaurant, food",4.5,64,
