id,name,latitude,longitude,address,url,status,phone,primary-type,types,rating,rating-count,price-level
ChIJGzhZ1FUF0i0R6UOA8iqfUDY,Tihingan Bundere,-8.430910899999999,115.55304520000001,"Unnamed Road, HH93+J6M, Bebandem, Karangasem Regency, Bali 80861, Indonesia",https://maps.google.com/?cid=3913803082990896105,OPERATIONAL,,park,park,4.5,4,
ChIJF0gWIZ0F0i0RNRFclwI8Fa0,Warung Asri Bakso Ayam,-8.4306317,115.55070830000001,"banjar dinas tihingan kauh kecamatan bebandem kabupaten karangasem propinsi bali, HH92+P7W, Bebandem, Kec. Bebandem, Kabupaten Karangasem, Bali 80861, Indonesia",https://maps.google.com/?cid=12471940724899451189,OPERATIONAL,+62 821-4675-4542,indonesian_restaurant,"indonesian_restaurant, restaurant, food",4.5,2,
ChIJyTZGzK0F0i0R9n23DxNM3Rw,Posko Nyuh Gading,-8.436715099999999,115.5499368,"HG7X+8X7, Jl. Kuncaragiri, Bebandem, Kec. Bebandem, Kabupaten Karangasem, Bali 80861, Indonesia",https://maps.google.com/?cid=2079902247666810358,OPERATIONAL,,,lodging,,,
ChIJhQaoJPsF0i0RS86_cWQZOIE,Warung Taman,-8.4370522,115.549323,"HG7X+4PC, Bebandem, Karangasem Regency, Bali 80861, Indonesia",https://maps.google.com/?cid=9311220148784320075,OPERATIONAL,,coffee_shop,"coffee_shop, cafe, food, store",,,
ChIJz3WeuroF0i0Rukech_RhV1o,D'ABIAN ROCK CITY,-8.4306353,115.5466583,"Br mumbul, Bebandem, Kec. Bebandem, Kabupaten Karangasem, Bali 80861, Indonesia",https://maps.google.com/?cid=6509779489262421946,OPERATIONAL,+62 852-3903-0330,,lodging,5,1,
ChIJCY11oT4F0i0R-S_w6SY7cd8,BEST GRILLED WHOLE CHICKEN,-8.437362499999999,115.5509443,"HH72+29P, Jl. Kuncaragiri, Bebandem, Kec. Bebandem, Kabupaten Karangasem, Bali 80861, Indonesia",https://maps.google.com/?cid=16100715181145862137,CLOSED_TEMPORARILY,,restaurant,"restaurant, food",,,
