id,name,latitude,longitude,address,url,status,phone,primary-type,types,rating,rating-count,price-level
ChIJqRWsj1NR0i0RZtuGook0tCQ,Pantai Nyang Nyang,-8.839163600000001,115.09341719999999,"Nyang Nyang Beach, Jl. Raya Uluwatu Pecatu, Pecatu, Kec. Kuta Sel., Kabupaten Badung, Bali, Indonesia",https://maps.google.com/?cid=2644796646915234662,OPERATIONAL,,tourist_attraction,tourist_attraction,4.7,188,
ChIJB023rKFa0i0RNWpXbHO5hNs,The Ulu Paragliding Site,-8.838602999999999,115.09705299999999,"536W+HR3, Pecatu, South Kuta, Badung Regency, Bali, Indonesia",https://maps.google.com/?cid=15817971696622070325,OPERATIONAL,+62 813-2014-2014,tourist_attraction,"tourist_attraction, sports_complex",4.6,114,
ChIJbW7bUZFa0i0RKEgIpf2s3r8,Bubble Hotel Bali,-8.8399795,115.09558140000001,"Jl. Batu Nunggalan No.11, Pecatu, Kec. Kuta Sel., Kabupaten Badung, Bali, Indonesia",https://maps.google.com/?cid=13825678111469488168,OPERATIONAL,+62 881-0384-74470,hotel,"hotel, campground, park, lodging",4,153,
ChIJg0o1pP5b0i0RGwcfDCgq4-Y,The Ulus Klumpu,-8.8381712,115.09719100000001,"Jl. Batu Nunggul, Pecatu, Kec. Kuta Sel., Kabupaten Badung, Bali 80362, Indonesia",https://maps.google.com/?cid=16637187799927162651,OPERATIONAL,,private_guest_room,"private_guest_room, lodging",4.8,120,
ChIJx6lEf6db0i0Rfqy6FPm2H0Q,Uluwatu Estate,-8.8385274,115.09887920000001,"Jl. Batu Nunggul Banjar Karang Boma, Pecatu, Uluwatu, Kabupaten Badung, Bali 80363, Indonesia",https://maps.google.com/?cid=4908843299768020094,OPERATIONAL,,hotel,"hotel, lodging",4.8,32,
ChIJJTEQ06FR0i0RHg__zMZCzHY,Utilis Bali Bar,-8.838740999999999,115.0931264,"Nyang-nyang Beach, Jl. Raya Uluwatu Pecatu, Pecatu, Kec. Kuta Sel., Kabupaten Badung, Bali 80362, Indonesia",https://maps.google.com/?cid=8560290413334695710,OPERATIONAL,+62 819-1647-2888,bar,"event_venue, bar, restaurant, food",4.6,15,
ChIJuWKArxBb0i0RnLHqzpXht10,Sea Sand Nyang-Nyang,-8.8395937,115.09499059999999,"Unnamed Road, 536V+5X9, Pecatu, South Kuta, Badung Regency, Bali, Indonesia",https://maps.google.com/?cid=6753114199803212188,OPERATIONAL,+62 857-3262-5696,restaurant,"restaurant, food",4.4,9,
ChIJCa_H26Ba0i0RkMoJBZyZEb4,Puri bali nyang nyang Resort,-8.8365644,115.09655599999999,"Pecatu, South Kuta, Badung Regency, Bali, Indonesia",https://maps.google.com/?cid=13695896837188864656,OPERATIONAL,,resort_hotel,"resort_hotel, hotel, lodging, restaurant, food",4.3,62,
ChIJU93Bk6Ba0i0Rwd4Gl4mPUs8,New morning cafe,-8.8374854,115.09523240000001,"537W+235 Puri bali nyang nyang Resort, Jl. Raya Uluwatu Pecatu, Pecatu, Kec. Kuta Sel., Kabupaten Badung, Bali, Indonesia",https://maps.google.com/?cid=14939160735048457921,OPERATIONAL,+62 858-2937-5196,cafe,"cafe, food",3.5,34,
ChIJoarCnaFa0i0RD47RUUS8rlc,The Sanctus Villa,-8.8386201,115.0991363,"Batu Nunggul Street, Nyang Nyang, Pecatu, Badung Regency, Bali 80364, Indonesia",https://maps.google.com/?cid=6318194328863870479,OPERATIONAL,+62 812-2031-686,hotel,"hotel, lodging",4.7,68,
ChIJ22j8OzdR0i0RDV1c4qLVxx0,nyan nyang beach,-8.839163600000001,115.09341719999999,"nyang nyang beach uluwatu, Pecatu, Kec. Kuta Sel., Kabupaten Badung, Bali, Indonesia",https://maps.google.com/?cid=2145918643024452877,OPERATIONAL,,hiking_area,"hiking_area, park",,,
