id,name,latitude,longitude,address,url,status,phone,primary-type,types,rating,rating-count,price-level,review 1,review 2,review 3,review 4,review 5
ChIJIQy7AH7z0S0RH_CR_awppkU,WR. BAKSO MASNO KINTAMANI,-8.239152599999999,115.32521020000001,"Pasar Tenten, Jl. Raya Terunyan, Kintamani, Kec. Kintamani, Kabupaten Bangli, Bali 80652, Indonesia",https://maps.google.com/?cid=5018744657716310047,OPERATIONAL,+62 853-3802-3232,indonesian_restaurant,"breakfast_restaurant, indonesian_restaurant, restaurant, food",4.2,84,PRICE_LEVEL_INEXPENSIVE,Nice view,Nice place and peacefull,Amazing local food,Prety good..,
ChIJEe6bii_z0S0RdVz6JFN_zpY,TENTEN homestay,-8.2386192,115.32369349999999,"Q86F+HF4, Jl. Manikliyu, Kintamani, Kec. Kintamani, Kabupaten Bangli, Bali 80652, Indonesia",https://maps.google.com/?cid=10866762945970986101,OPERATIONAL,,private_guest_room,"private_guest_room, lodging",3.5,2,,,,,,
ChIJq90T8YH00S0Rrl4ylA6a4tE,"Warung Makan Muslim Sate Gule ""IBU NURUL""",-8.2402812,115.325733,"Q85G+V7Q, Jl. Raya, Kintamani, Kec. Kintamani, Kabupaten Bangli, Bali 80652, Indonesia",https://maps.google.com/?cid=15123819886070095534,OPERATIONAL,+62 853-3854-5618,indonesian_restaurant,"indonesian_restaurant, restaurant, food",5,7,,,,,,
ChIJFWj03n3z0S0RTHwnqcnzDmE,Warung Dex Nop,-8.2379328,115.3249532,"Q86F+RXG, Kintamani, Bangli Regency, Bali 80652, Indonesia",https://maps.google.com/?cid=6993795318804872268,OPERATIONAL,,cafe,"cafe, food",4.7,11,,,,,,
ChIJxfjkZ3nz0S0RfXiOTPDHWhk,WR. SATE GULE AYAM Ju' NIK,-8.238163199999999,115.3247693,"Q86F+PWJ, Kintamani, Bangli Regency, Bali 80652, Indonesia",https://maps.google.com/?cid=1826992433742641277,OPERATIONAL,,restaurant,"restaurant, food",,,,,,,,
ChIJI5jdqXHz0S0RuaP97d1ZCxY,Kintamani Central Tour,-8.23801,115.32494109999999,"Q86F+RXG, Kintamani, Bangli Regency, Bali 80652, Indonesia",https://maps.google.com/?cid=1588462103293699001,OPERATIONAL,,tourist_attraction,tourist_attraction,,,,,,,,
ChIJrzPxzYH00S0R9KZFwloSQfA,Pondok Bahagia MeritaMayaNgipi,-8.2397165,115.32750000000001,"Jl. Kamboja No.1, Kintamani, Bangli, Kabupaten Bangli, Bali 80652, Indonesia",https://maps.google.com/?cid=17312138623604598516,OPERATIONAL,+62 813-3757-2333,extended_stay_hotel,"extended_stay_hotel, hotel, lodging",3.5,2,,,,,,
ChIJQ6DE5h310S0RCNEA5OmfJCw,Susan Homestay,-8.2401419,115.3282429,"Q85H+W7X, br surakarma, Kintamani, Kec. Kintamani, Kabupaten Bangli, Bali 80652, Indonesia",https://maps.google.com/?cid=3180843063731867912,OPERATIONAL,,private_guest_room,"private_guest_room, lodging",,,,,,,,
ChIJ12fmJJLz0S0R0EVDICCXN2U,WR. TIPAT TAHU BI' JU,-8.238167599999999,115.32475199999999,"Q86F+PWJ, Jalan Raya, Kintamani, Kec. Kintamani, Kabupaten Bangli, Bali 80652, Indonesia",https://maps.google.com/?cid=7293464285785834960,OPERATIONAL,+62 819-9977-7489,korean_restaurant,"korean_restaurant, restaurant, food",,,,,,,,
ChIJheZQ433z0S0RGXUK0E7U4Dk,WARNET ADI BONTANG,-8.238663899999999,115.3249293,"Q86F+GXM, Kintamani, Bangli Regency, Bali 80652, Indonesia",https://maps.google.com/?cid=4170566689907963161,OPERATIONAL,+62 819-3651-7986,cafe,"cafe, food",4.3,3,,Average place for surfing in internet,,,,
ChIJVwcRqX7z0S0RXk2vKuSTwtI,WR. DUA DEWI 1,-8.2346703,115.32548609999999,"Q88G+45Q, Jl. Raya, Kintamani, Kec. Kintamani, Kabupaten Bangli, Bali 80652, Indonesia",https://maps.google.com/?cid=15186863501624692062,OPERATIONAL,+62 812-3954-4759,restaurant,"restaurant, food",4.3,6,,,,,,
ChIJA56KiZ7z0S0RElEa-JY8lE8,Rumah Sonia Utami Putri,-8.2392417,115.3271845,"Q86G+CPR, Kintamani, Bangli Regency, Bali 80652, Indonesia",https://maps.google.com/?cid=5734274844654719250,OPERATIONAL,+62 881-4871-734,coffee_shop,"coffee_shop, cafe, store, food",,,,,,,,
ChIJZdUUAj_z0S0RBLq7shzRwTE,Kintamani Royal Palace,-8.238071,115.32509530000002,"Kintamani, Bangli Regency, Bali 80652, Indonesia",https://maps.google.com/?cid=3585376699551562244,OPERATIONAL,,,lodging,,,,,,,,
ChIJzeSs5n3z0S0R5IjgjvLkFgU,"Wr Kukus Laklak, Pk Doel.",-8.2383557,115.32490829999999,"Q86F+MX3, Jalan Raya, Kintamani, Kec. Kintamani, Kabupaten Bangli, Bali 80652, Indonesia",https://maps.google.com/?cid=366732150107572452,OPERATIONAL,,cafe,"cafe, food",3,1,,,,,,
ChIJy7fPNID00S0RbhBIqBZtAxg,Guntur Homestay,-8.2401419,115.3282429,"Q85H+W7X, br surakarma, Kintamani, Kec. Kintamani, Kabupaten Bangli, Bali 80652, Indonesia",https://maps.google.com/?cid=1730346625920405614,OPERATIONAL,+62 857-9241-4212,lodging,lodging,3.7,3,,,,,,
ChIJm70kkY310S0RaQj68VamPvE,"Lapak Muslim Bakso ""Magister""",-8.2414501,115.32564269999997,"Jl. Raya Kintamani, Selatan Polsek, Kintamani, Kec. Kintamani, Kabupaten Bangli, Bali 80652, Indonesia",https://maps.google.com/?cid=17383514504053786729,OPERATIONAL,+62 812-3728-0609,restaurant,"restaurant, food",5,4,,"Very good Mie Ayam Bakso for 10K, would definitely come back! ðŸ˜Š",Great local food.,,,
ChIJUf8c8YH00S0R6mjdFFjEUyw,warung bakso mbak pink,-8.240034699999999,115.32573909999999,"Jalan Raya Kintamani, Q85G+X7Q, Sudihati, Kintamani, Kec. Kintamani, Kabupaten Bangli, Bali 80652, Indonesia",https://maps.google.com/?cid=3194112443322034410,OPERATIONAL,+62 831-1500-2000,indonesian_restaurant,"indonesian_restaurant, restaurant, food",2.4,5,,,,,,
ChIJMUC5Aer10S0R3VEqilZjZ7k,Warung kopi,-8.2397277,115.32870079999998,"Br. Surakarma, Kintamani, Kec. Kintamani, Kabupaten Bangli, Bali 80652, Indonesia",https://maps.google.com/?cid=13359756042954232285,OPERATIONAL,+62 878-6188-4445,indonesian_restaurant,"indonesian_restaurant, restaurant, food",5,1,,,,,,
ChIJb7VHq9nz0S0RhTweVD1dhW8,"Tipat Tahu ""SALJU""",-8.2383612,115.32473289999999,"Q86F+MV5, Jalan Raya, Kintamani, Kec. Kintamani, Kabupaten Bangli, Bali 80652, Indonesia",https://maps.google.com/?cid=8035931628098174085,OPERATIONAL,+62 821-4516-0030,korean_restaurant,"korean_restaurant, restaurant, food",,,,,,,,
ChIJCy0xvBzz0S0RA30Txv3hBJg,bali 373,-8.2386565,115.324766,"Q86F+GWJ, Jalan Raya, Kintamani, Kec. Kintamani, Kabupaten Bangli, Bali 80652, Indonesia",https://maps.google.com/?cid=10954128673738030339,OPERATIONAL,,restaurant,"restaurant, food",,,,,,,,
