id,name,latitude,longitude,address,url,status,phone,primary-type,types,rating,rating-count,price-level,review 1,review 2,review 3,review 4,review 5
ChIJ6U1XJ0KN0S0RLHHyeRIp7_g,Sang Natha SPICE MUSEUM,-8.1669655,115.2522432,"Jl. Gn. Batur No.28, Mengening, Kec. Kubutambahan, Kabupaten Buleleng, Bali 81172, Indonesia",https://maps.google.com/?cid=17937601000172056876,OPERATIONAL,+62 877-5818-8596,museum,museum,4.6,13,,"It should be a nice and interesting place! When we arrived a guy showed up and explained about the location and the offer.

It's not like a museum where you just look at objects on display but rather they offer a guided tour through the whole process of making spices, including some tasting. This will take 2 hours and they charge 150k IDR per person.

Unfortunately, we didn't have that much time so we had to leave without a tour.","Planning to explore North of Bali? This museum of spices is a recommended place to get more insights about Indonesian local spices. To get there, you need to make a reservation first at the moment.","Top experience 250k or 100k each if you don't buy some arrak, we left with quite a buzz and some Maracuja arrak üëå‚úÖ",10/10. an unforgettable experience.,"Must visit
Love it so much
üòçüòçüòçüòçüòçüòçüòç"
ChIJsxHFumON0S0R_XUN-ubtNK8,Warung Beli Made,-8.1670828,115.25195480000001,"R7M2+5Q8, Jl. Gn. Batur, Mengening, Kec. Kubutambahan, Kabupaten Buleleng, Bali 81172, Indonesia",https://maps.google.com/?cid=12624977231719790077,OPERATIONAL,,restaurant,"restaurant, food",4.4,15,,Good food good people and very nice veiws,,,,
ChIJiT8vzqON0S0RRxI5U2GdMUQ,Pondok Eka Sangker,-8.1672435,115.2527812,"R7M3+442, Tajun, Kubutambahan, Buleleng Regency, Bali 81172, Indonesia",https://maps.google.com/?cid=4913881709771559495,OPERATIONAL,+62 822-3700-2121,lodging,lodging,4,3,,,,,,
ChIJ64YcBFaN0S0Rs-bAnnMWNwk,Villa Andir sweet,-8.1647816,115.2521054,"R7P2+3RQ, Tajun, Kubutambahan, Buleleng Regency, Bali 81172, Indonesia",https://maps.google.com/?cid=664024155900929715,OPERATIONAL,+62 818-0567-6992,private_guest_room,"private_guest_room, lodging",,,,,,,,
ChIJEZKEKCGN0S0RLeNLUGu2c74,Pondok Kadek kariasa,-8.1695467,115.2507359,"R7J2+57Q, Jl. Gn. Batur, Tajun, Kec. Kubutambahan, Kabupaten Buleleng, Bali 80652, Indonesia",https://maps.google.com/?cid=13723513061552939821,OPERATIONAL,,,lodging,,,,,,,,
