id,name,latitude,longitude,address,url,status,phone,primary-type,types,rating,rating-count,price-level,review 1,review 2,review 3,review 4,review 5
ChIJs93bbaCL0S0RipgY-__2_5w,Warung Amira,-8.301893399999999,115.27928179999999,"M7XH+6PV, Jl. Raya Langgahan, Lembean, Kec. Kintamani, Kabupaten Bangli, Bali 80652, Indonesia",https://maps.google.com/?cid=11313032368267761802,OPERATIONAL,,restaurant,"restaurant, food",3,2,,,,,,
ChIJWQaITF2L0S0RSmUK4yToAlw,Pondok antara,-8.2987611,115.282452,"P72J+FXW, Lembean, Kintamani, Bangli Regency, Bali 80652, Indonesia",https://maps.google.com/?cid=6630116846568367434,OPERATIONAL,,,lodging,,,,,,,,
ChIJtckBqJ6L0S0R9AAL2UKta54,Pondok Suteja,-8.2971767,115.28109839999999,"P73J+4CH, Lembean, Kintamani, Bangli Regency, Bali, Indonesia",https://maps.google.com/?cid=11415408183121477876,OPERATIONAL,,park,park,,,,,,,,
ChIJ8VK2qgeL0S0RllrVCMF7b9Q,Warung Desi,-8.296270699999999,115.2817803,"P73J+FPR, Jl. Raya Langgahan, Lembean, Kec. Kintamani, Kabupaten Bangli, Bali 80652, Indonesia",https://maps.google.com/?cid=15307589727462709910,CLOSED_TEMPORARILY,,indonesian_restaurant,"indonesian_restaurant, restaurant, food",,,,,,,,
ChIJsRzAHceL0S0RVodR-AGuHyw,Markas koko,-8.3032535,115.2787942,"M7WH+MGV, Lembean, Kintamani, Bangli Regency, Bali 80652, Indonesia",https://maps.google.com/?cid=3179451185431152470,OPERATIONAL,,hotel,"hotel, lodging",,,,,,,,
