id,name,latitude,longitude,address,url,status,phone,primary-type,types,rating,rating-count,price-level,review 1,review 2,review 3,review 4,review 5
ChIJReZ-iNg90i0RQc5xwrZTOKU,"Bakso Super & Mie Ayam Khas Solo"" TIGA PUTRI Mas Yono "" GROUP.",-8.5487603,115.23928439999999,"F62Q+FPV, Jl. Raya Mambal, Mekar Bhuwana, Kecamatan Ubud, Kabupaten Badung, Bali 80352, Indonesia",https://maps.google.com/?cid=11905357659365297729,OPERATIONAL,+62 821-4606-2300,indonesian_restaurant,"indonesian_restaurant, restaurant, food",4.4,40,,"Little eatery on the side of the road.
We ordered bakso ayam with egg and was super good. It is a chicken broth soup with meatballs and ramen. The super big meatball is stuffed with spices, veggies and chicken meat.
It was super good, I recommend for tourists.",Really good.. definitely will be 1 of the best delicious bakso in my list .. love the chicken stock taste,,,
ChIJeVRvaxE90i0REMU4HskT4B8,WARUNG NASI CAMPUR BETUTU AYAM MERAH,-8.549968,115.23268410000001,"Jalan raya, Mekar Bhuwana, Kec. Abiansemal, Kabupaten Badung, Bali 80352, Indonesia",https://maps.google.com/?cid=2296857564475344144,OPERATIONAL,+62 812-3666-6690,restaurant,"indonesian_restaurant, restaurant, food",4.5,25,,"Very friendly owner. Very accommodating for tourists, very authentic, so no english üòÑ

Food was my favourite nasi campur in bali !!","Suddenly stop here, food is originsl balinese style.","Best taste, good price",Great food.,
ChIJKYZrqXs90i0RasSXfTy1SdY,daoeh taman,-8.5491853,115.24069019999999,"F62R+87G, Jl. Raya Samu, Singapadu Kaler, Kec. Sukawati, Kabupaten Gianyar, Bali 80352, Indonesia",https://maps.google.com/?cid=15441072068826219626,OPERATIONAL,,lodging,lodging,5,3,,,,,,
ChIJryKU2co90i0RNOqqkgBrM8I,Warung Rujak Buk Leni,-8.5498428,115.23743770000002,"F62P+3X8, Jl. Raya Mambal, Mekar Bhuwana, Kec. Abiansemal, Kabupaten Badung, Bali 80352, Indonesia",https://maps.google.com/?cid=13993646117375109684,OPERATIONAL,+62 812-3901-4499,restaurant,"restaurant, food",4.8,9,,,,,,
ChIJdfOCZ_490i0ReNmXeSaOymU,Kost Chandra,-8.548148,115.23934980000001,"F62Q+PPX, Singapadu Kaler, Sukawati, Gianyar Regency, Bali, Indonesia",https://maps.google.com/?cid=7334831239026170232,OPERATIONAL,,motel,"motel, lodging",,,,,,,,
ChIJiQ_8mC090i0RhJXlLndpAjQ,Warung Babi Guling & Be Genyol G‚ÄùJ,-8.5507873,115.23524400000001,"Br sigaran, Jl. Kenanga V No.2, Mekar Bhuwana, Kec. Abiansemal, Kabupaten Badung, Bali 80352, Indonesia",https://maps.google.com/?cid=3747673800534496644,OPERATIONAL,+62 857-3881-7376,indonesian_restaurant,"indonesian_restaurant, restaurant, food",,,,,,,,
ChIJf4BlPWk90i0RgafIlv0mQHE,Sate Babi Pak Yun Sigaran,-8.5498301,115.23490530000001,"Jl. Raya Mambal No.41, Mekar Bhuwana, Kec. Abiansemal, Kabupaten Badung, Bali 80352, Indonesia",https://maps.google.com/?cid=8160565395393652609,OPERATIONAL,+62 819-9906-8097,indonesian_restaurant,"indonesian_restaurant, restaurant, food",5,6,,,,,,
ChIJz1YJoW090i0RGWPSHbv671A,Warung lalapan muslim ojo lali,-8.548326,115.24024030000001,"F62R+M39, Jl. Raya Samu, Singapadu Kaler, Kec. Sukawati, Kabupaten Gianyar, Bali 80352, Indonesia",https://maps.google.com/?cid=5832155724034237209,OPERATIONAL,+62 856-5556-8737,restaurant,"restaurant, food",4.7,10,,GOOD FOOD RECOMMEND,,,,
ChIJK2ANE2090i0RHe9oluUxkIY,WARUNG MUSLIM BU VIONA,-8.5491035,115.23898989999998,"Jln. Raya. Samu. Singapadu. Kaler Jalan Raya mambal sigaran ubud, Singapadu Kaler, Kec. Sukawati, Kabupaten Gianyar, Bali 80571, Indonesia",https://maps.google.com/?cid=9696304859869409053,OPERATIONAL,+62 823-3488-7430,restaurant,"restaurant, food",5,4,,,,,,
ChIJ9WHOhqg90i0RBumX_D-lsrs,CF EXPOSE,-8.552157099999999,115.2334811,"C6XM+49Q, Jl. Raya Mambal, Mekar Bhuwana, Kec. Abiansemal, Kabupaten Badung, Bali 80352, Indonesia",https://maps.google.com/?cid=13525054325186357510,OPERATIONAL,+62 877-1914-4619,cafe,"cafe, food",5,1,,,,,,
ChIJ2-Hvaco90i0RIJPw8JYY-V0,Depot Sari Nadi,-8.5491869,115.2389578,"F62Q+8HG, Jl. Raya Samu, Singapadu Kaler, Kec. Sukawati, Kabupaten Gianyar, Bali 80571, Indonesia",https://maps.google.com/?cid=6771470551294710560,OPERATIONAL,+62 821-4578-8864,restaurant,"restaurant, food",4.8,4,,,,,,
ChIJH1y1VI490i0RJ9Ve7q3xN7k,wr.makan bebek buma( bumbu madura ),-8.5499106,115.2356519,"F62P+27J, Jl. Raya Mambal, Mekar Bhuwana, Kec. Abiansemal, Kabupaten Badung, Bali 80352, Indonesia",https://maps.google.com/?cid=13346401750066582823,OPERATIONAL,+62 887-3253-741,cafe,"cafe, food",5,1,,,,,,
ChIJQ7UW5hk90i0RO5YqyW3jd6I,Forest Ant House,-8.5483327,115.2393278,"Singapadu Kaler, Ubud, Gianyar Regency, Bali 80582, Indonesia",https://maps.google.com/?cid=11707075817038845499,OPERATIONAL,+62 896-9584-6013,guest_house,"guest_house, lodging",,,,,,,,
ChIJvwhS_P490i0RBOWX7rKkfxc,Godoh bali,-8.5499352,115.2328172,"Jl. Raya Mambal, Mekar Bhuwana, Kec. Abiansemal, Kabupaten Badung, Bali 80352, Indonesia",https://maps.google.com/?cid=1693253073328661764,OPERATIONAL,,coffee_shop,"coffee_shop, cafe, food, store",5,4,,,,,,
ChIJV6C3HaA90i0RKskzL6NrX60,RumahIrma,-8.5478504,115.2392794,"Jl. Raya Mambal No.55, Mekar Bhuwana, Kec. Abiansemal, Kabupaten Badung, Bali 80352, Indonesia",https://maps.google.com/?cid=12492822239964809514,OPERATIONAL,,,lodging,,,,,,,,
ChIJnzGIhh090i0R4PY6PZKwz-o,Dimsum Cinta,-8.5499314,115.23738689999998,"Tepat sebelah timur Indomaret, Jl. Raya Mambal Jl. Raya Samu No.Br no. 22, Mekar Bhuwana, Kec. Abiansemal, Kabupaten Badung, Bali 80352, Indonesia",https://maps.google.com/?cid=16919936467193231072,CLOSED_TEMPORARILY,+62 877-5931-8191,cafe,"cafe, chinese_restaurant, restaurant, food",,,,,,,,
ChIJeTQFYVM90i0RyB55d28gZMc,Depot Rahmad Mertua,-8.5499651,115.23563209999999,"F62P+276, Jl. Raya Mambal, Mekar Bhuwana, Kec. Abiansemal, Kabupaten Badung, Bali 80352, Indonesia",https://maps.google.com/?cid=14367644374336609992,OPERATIONAL,+62 899-9441-252,restaurant,"restaurant, food",4,2,,,,,,
ChIJySrUVEI90i0RTbvWVpWfyTc,Rumah Kepala Kewilayahan Sigaran,-8.5496192,115.23713020000001,"F62P+5V2, Mekar Bhuwana, Kec. Abiansemal, Kabupaten Badung, Bali 80352, Indonesia",https://maps.google.com/?cid=4019919606160735053,OPERATIONAL,,private_guest_room,"private_guest_room, lodging",,,,,,,,
ChIJieT1AZY90i0RL5RYidjjI1s,Martha guest house,-8.5466334,115.23834089999998,"F63Q+88W, Singapadu Kaler, Sukawati, Gianyar Regency, Bali 80352, Indonesia",https://maps.google.com/?cid=6567343200793039919,OPERATIONAL,,,lodging,,,,,,,,
ChIJGfV2rDU80i0R7x_C4-f69mg,Wr. Bu Sri,-8.550105199999999,115.23299069999999,"C6XM+X55, Jl. Raya Mambal, Mekar Bhuwana, Kec. Abiansemal, Kabupaten Badung, Bali 80352, Indonesia",https://maps.google.com/?cid=7563508498080866287,CLOSED_TEMPORARILY,,restaurant,"restaurant, food",,,,,,,,
