id,name,latitude,longitude,address,url,status,phone,primary-type,types,rating,rating-count,price-level,review 1,review 2,review 3,review 4,review 5
ChIJCa49wqol0i0RsjHrOI6HmkU,Endra Home,-8.4307368,115.1108344,"H496+P84, Tengkudak, Penebel, Tabanan Regency, Bali 82152, Indonesia",https://maps.google.com/?cid=5015470179940512178,OPERATIONAL,+62 857-3751-1263,hotel,"hotel, lodging",3.8,4,,Nice home,,,,
ChIJ84q1Wmkl0i0R5TJttyxkIh0,Warung Bu Ratna,-8.4318897,115.111454,"H496+6HW, Sangketan, Penebel, Tabanan Regency, Bali 82152, Indonesia",https://maps.google.com/?cid=2099350519526798053,OPERATIONAL,+62 819-9994-7210,restaurant,"restaurant, food",5,3,,,,,,
ChIJvWRqYe4l0i0R8qevN6rTRbY,Tegal Bolir,-8.4326495,115.1145962,"H487+WR, Tengkudak, Penebel, Tabanan Regency, Bali, Indonesia",https://maps.google.com/?cid=13134136616328079346,OPERATIONAL,,park,park,5,1,,,,,,
ChIJEZhGfucl0i0RhMinwb19YY8,Scottie jungle house,-8.431716,115.11635600000001,"H498+HQ2, kerep, Tengkudak, Penebel, Tabanan Regency, Bali, Indonesia",https://maps.google.com/?cid=10331677274115917956,OPERATIONAL,,camping_cabin,"camping_cabin, lodging",,,,,,,,
ChIJgdJ2EAAl0i0RdotmmqvzS5c,RUMAH BARU,-8.4377134,115.11359209999999,"H467+PF3, Penatahan, Penebel, Tabanan Regency, Bali 82152, Indonesia",https://maps.google.com/?cid=10902075241335786358,OPERATIONAL,,hotel,"hotel, lodging",,,,,,,,
