id,name,latitude,longitude,address,url,status,phone,primary-type,types,rating,rating-count,price-level,review 1,review 2,review 3,review 4,review 5
ChIJ_-F5RTIX0i0RXN63FvgXPFU,Toya Anakan Dedari,-8.5067817,115.3727189,"F9VF+62M, Getakan, Banjarangkan, Klungkung Regency, Bali 80752, Indonesia",https://maps.google.com/?cid=6141810346126990940,CLOSED_TEMPORARILY,,tourist_attraction,tourist_attraction,5,9,,A great place for healing. approved üëç,BeautifulüèûÔ∏è,,,
ChIJdc_Ty-YX0i0RYmYzf6AZ1z0,PERTIGAAN GUNUNG RATA,-8.502538,115.3737509,"F9WF+QGJ, Jl. Gn. Rata, Getakan, Kec. Banjarangkan, Kabupaten Klungkung, Bali 80752, Indonesia",https://maps.google.com/?cid=4456058533425931874,CLOSED_TEMPORARILY,,historical_landmark,historical_landmark,,,,,,,,
ChIJf68RNWoX0i0RLZE9H4XkxQA,Pondok pak suwenda,-8.501890099999999,115.3731065,"F9XF+939, Getakan, Banjarangkan, Klungkung Regency, Bali 80752, Indonesia",https://maps.google.com/?cid=55701830817911085,OPERATIONAL,,private_guest_room,"private_guest_room, lodging",5,1,,,,,,
ChIJxyaFSMgX0i0RhAPScqm06lc,Pondok Kak Mekar,-8.5036163,115.3738039,"Jl. Gn. Rata, Getakan, Kec. Banjarangkan, Kabupaten Klungkung, Bali 80752, Indonesia",https://maps.google.com/?cid=6335074465718862724,OPERATIONAL,,cottage,"cottage, lodging",5,3,,,,,,
ChIJ9z66gTQX0i0R55VrjoKA4AI,Warung Resta,-8.501758299999999,115.3751242,"F9XG+72X, Jl. Raya Aan, Aan, Kec. Banjarangkan, Kabupaten Klungkung, Bali 80752, Indonesia",https://maps.google.com/?cid=207306881082562023,OPERATIONAL,+62 831-1411-444,indonesian_restaurant,"indonesian_restaurant, restaurant, food",4.8,6,,,,,,
ChIJ_yjGZzQX0i0RQJWMJzeT6DY,Wr. Bu Bela,-8.5014481,115.3749476,"Aan, Banjarangkan, Klungkung Regency, Bali, Indonesia",https://maps.google.com/?cid=3956574137740989760,OPERATIONAL,,restaurant,"restaurant, food",,,,,,,,
ChIJOVorwggX0i0RlYRTycHX9eQ,9cjnet (es m'genep)SPO 1626 KLUNGKUNG,-8.501499299999999,115.3748767,"Br, Jl. Raya Aan, Aan, Kec. Banjarangkan, Kabupaten Klungkung, Bali 80752, Indonesia",https://maps.google.com/?cid=16498330037248033941,OPERATIONAL,+62 818-0369-0218,cafe,"cafe, food",4.3,8,,,,,,
ChIJ4RkkezQX0i0Rdw8O85wCwgc,Warung Makan Mertaya,-8.502006699999999,115.37508000000001,"F9XG+52W, Jl. Raya Aan, Aan, Kec. Banjarangkan, Kabupaten Klungkung, Bali 80752, Indonesia",https://maps.google.com/?cid=559012176863301495,OPERATIONAL,+62 831-1411-444,restaurant,"restaurant, food",,,,,,,,
