id,name,latitude,longitude,address,url,status,phone,primary-type,types,rating,rating-count,price-level,review 1,review 2,review 3,review 4,review 5
ChIJp72dex4F0i0RnKmn2psjTK8,"Pondok GunGGunG - Socio, Art, Cultural & Natural Creative Hub",-8.4346772,115.51694099999997,"Sibetan, Bebandem, Karangasem Regency, Bali 80861, Indonesia",https://maps.google.com/?cid=12631510207162722716,OPERATIONAL,+62 811-3833-455,tourist_attraction,tourist_attraction,4,3,,The fruit taste so good,,,,
ChIJS2Z2g6IF0i0ROr4J3wZN7tM,Yogi aditya,-8.4329436,115.51339979999997,"HG87+R9, North Duda, Selat, Karangasem Regency, Bali 80862, Indonesia",https://maps.google.com/?cid=15271228078367030842,OPERATIONAL,,private_guest_room,"private_guest_room, lodging",,,,,,,,
ChIJ3Y2pdOcF0i0RpnNYDdiqxy0,Bukit Catu Mesari Kak Srinyaksari,-8.434103700000001,115.51150269999998,"HG86+9J2, Perangsari, Duda Utara, Kec. Selat, Kabupaten Karangasem, Bali 80862, Indonesia",https://maps.google.com/?cid=3298793096985736102,CLOSED_TEMPORARILY,,tourist_attraction,tourist_attraction,,,,,,,,
ChIJ6SbpuV8F0i0RUMJr6Tz-t7I,Puri karangsari,-8.430942,115.51333399999999,"Unnamed Road, HG97+J8G, Duda Utara, Kec. Selat, Kabupaten Karangasem, Bali 80862, Indonesia",https://maps.google.com/?cid=12878041197056868944,OPERATIONAL,,museum,museum,,,,,,,,
ChIJGfYfbVIF0i0RduIg3L2XnLY,Mang pugleg,-8.4317041,115.5157673,"HG98+MMM, North Duda, Selat, Karangasem Regency, Bali 80862, Indonesia",https://maps.google.com/?cid=13158559052967502454,OPERATIONAL,,private_guest_room,"private_guest_room, lodging",,,,,,,,
ChIJD1O2ZgAF0i0RoURTMGu3-D8,Endra hub,-8.4335769,115.51583490000002,"HG88+H8, North Duda, Selat, Karangasem Regency, Bali, Indonesia",https://maps.google.com/?cid=4609635889613849761,OPERATIONAL,,coffee_shop,"coffee_shop, cafe, store, food",,,,,,,,
ChIJPXrfKkUF0i0R6EuyKuHmSo8,Umahne pak ase,-8.4303276,115.51406569999999,"HG97+PJ2, North Duda, Selat, Karangasem Regency, Bali 80862, Indonesia",https://maps.google.com/?cid=10325318950458641384,OPERATIONAL,,private_guest_room,"private_guest_room, lodging",,,,,,,,
ChIJGwXI7-EF0i0RtoBJAr9M30M,mang ngurah,-8.430418399999999,115.51655839999998,"HG98+MMM, North Duda, Selat, Karangasem Regency, Bali 80862, Indonesia",https://maps.google.com/?cid=4890712103608484022,OPERATIONAL,,private_guest_room,"private_guest_room, lodging",,,,,,,,
