id,name,latitude,longitude,address,url,status,phone,primary-type,types,rating,rating-count,price-level,review 1,review 2,review 3,review 4,review 5
ChIJO3CZw0QR0i0R-z_nXt0d9NE,Pondok nyuh & kele pan mastri,-8.5225678,115.3803954,"Jl. Raya Tihingan, Tihingan, Kec. Banjarangkan, Kabupaten Klungkung, Bali 80716, Indonesia",https://maps.google.com/?cid=15128749884861530107,OPERATIONAL,+62 819-9974-8800,tourist_attraction,tourist_attraction,5,12,,,,,,
ChIJxZhr6kUR0i0RyHvkqnsLhTQ,Pondok Delapan,-8.5205175,115.38001140000001,"F9HJ+Q2R, Jl. Raya Tihingan, Tihingan, Kec. Banjarangkan, Kabupaten Klungkung, Bali 80752, Indonesia",https://maps.google.com/?cid=3784443687650753480,OPERATIONAL,,restaurant,"restaurant, food",3,2,,,,,,
ChIJZ7nEJdoR0i0Rre6xagKeMkM,Warung Bu Cakrawati,-8.523439699999999,115.38109480000001,"Pau, Tihingan, Kec. Banjarangkan, Kabupaten Klungkung, Bali 80716, Indonesia",https://maps.google.com/?cid=4842106282593873581,OPERATIONAL,,restaurant,"restaurant, food",5,3,,Best tipat cantok I've ever had ðŸ˜­ the jaja bali are also amazing,,,,
ChIJw02xMK8R0i0RaGgmAsQvvMs,Iwayan putu ardika,-8.5168267,115.38228600000001,"F9MJ+7W7, Jl. Raya Tihingan, Tihingan, Kec. Banjarangkan, Kabupaten Klungkung, Bali, Indonesia",https://maps.google.com/?cid=14680661404217141352,OPERATIONAL,,park,park,,,,,,,,
ChIJZ0dGN-YR0i0RaUStOYbNwVE,Rumah Yoga Murti,-8.5215272,115.3801396,"Tihingan, Banjarangkan, Klungkung Regency, Bali 80716, Indonesia",https://maps.google.com/?cid=5891215763954287721,OPERATIONAL,,private_guest_room,"private_guest_room, lodging",,,,,,,,
