id,name,latitude,longitude,address,url,status,phone,primary-type,types,rating,rating-count,price-level,review 1,review 2,review 3,review 4,review 5
ChIJXdBSJrUf0i0R6WR9WLXQgz4,Warung Men Anggi,-8.353073799999999,115.3071252,"J8W4+MQ4, Jl. Raya Br. Pisang Kaja, Taro, Kec. Tegallalang, Kabupaten Gianyar, Bali 80561, Indonesia",https://maps.google.com/?cid=4504673529592898793,OPERATIONAL,+62 838-4676-0401,restaurant,"restaurant, food",5,2,,,,,,
ChIJAc65bZkf0i0Rgrsl3s-D-f8,Raka family house,-8.354492,115.30623580000001,"J8W4+6F5, Jl. Raya Br. Pisang Kaja, Taro, Kec. Tegallalang, Kabupaten Gianyar, Bali 80561, Indonesia",https://maps.google.com/?cid=18444918677681060738,OPERATIONAL,+62 878-6008-0721,lodging,lodging,5,3,,,,,,
ChIJTxkHagAf0i0RN6BBaJIA_-A,Rumah Gede kondra,-8.35419,115.30631620000001,"J8W4+8GG, Taro, Tegallalang, Gianyar Regency, Bali, Indonesia",https://maps.google.com/?cid=16212677812371431479,OPERATIONAL,,hotel,"hotel, lodging",,,,,,,,
ChIJAamFApgf0i0RDc5-yGLeV3M,Warung Men Amet,-8.3511661,115.30687510000001,"J8X4+GQJ, Taro, Tegallalang, Gianyar Regency, Bali 80561, Indonesia",https://maps.google.com/?cid=8311356153187454477,OPERATIONAL,,cafe,"cafe, food",5,6,PRICE_LEVEL_INEXPENSIVE,,,,,
ChIJvWxXLx4f0i0RUjK1UW7BZ5E,Markas Kaung Ganas,-8.3573445,115.30228110000002,"Jl. Raya Patas, Taro, Kec. Tegallalang, Kabupaten Gianyar, Bali 80561, Indonesia",https://maps.google.com/?cid=10477555737662141010,OPERATIONAL,+62 831-1474-5997,bar,"bar, restaurant, food",,,,,,,,
