id,name,latitude,longitude,address,url,status,phone,primary-type,types,rating,rating-count,price-level,review 1,review 2,review 3,review 4,review 5
ChIJU5j1Gj4T0i0RGBCE4a5lTYI,Kost Pak Sukasta,-8.5608123,115.44066209999998,"Jalan Raya, Kusamba, Kec. Dawan, Kabupaten Klungkung, Bali 80761, Indonesia",https://maps.google.com/?cid=9389272599919595544,OPERATIONAL,+62 821-4690-4902,motel,"motel, lodging",5,2,,,,,,
ChIJxyBJ9CQS0i0R7jEzv90MDVM,Warung Bali Thingadi,-8.5587117,115.4386523,"CCRQ+GF6, Jl. Kusanegara, Kp. Kusamba, Kec. Dawan, Kabupaten Klungkung, Bali 80761, Indonesia",https://maps.google.com/?cid=5984453626380366318,OPERATIONAL,+62 898-5548-859,indonesian_restaurant,"indonesian_restaurant, restaurant, food",4.5,4,,,,,,
ChIJcdryjwgT0i0RxiyDumnRHsQ,Sate Ikan Tuna,-8.5618477,115.443404,"CCQV+796, Kampung Kusamba, Dawan, Klungkung Regency, Bali 80761, Indonesia",https://maps.google.com/?cid=14131962932766125254,OPERATIONAL,+62 819-9979-2543,restaurant,"restaurant, indonesian_restaurant, food",3.9,10,,,,,,
ChIJi1IuE_ET0i0R6kX_cgfZBCI,Gudang mr. White,-8.5574101,115.43742420000001,"CCVP+3W8, Jl. Kusanegara, Gunaksa, Kec. Dawan, Kabupaten Klungkung, Bali 80761, Indonesia",https://maps.google.com/?cid=2451322723213723114,CLOSED_TEMPORARILY,,brunch_restaurant,"brunch_restaurant, restaurant, food",,,,,,,,
ChIJxQWh6xYT0i0RrGykFQ0-xe0,WARUNG BU SUDARTI,-8.559776399999999,115.43993780000001,"CCRQ+3XP, Jl. Kusanegara, Gunaksa, Kec. Dawan, Kabupaten Klungkung, Bali 80761, Indonesia",https://maps.google.com/?cid=17133168583319514284,OPERATIONAL,+62 878-6546-8290,coffee_shop,"coffee_shop, cafe, food, store",4.7,3,,,,,,
ChIJlaRU9CQS0i0Rq8lDLn7CAhA,Warung makan pulu sari,-8.561097700000001,115.44205219999999,"CCQR+HR7, Jl. Kusanegara, Gunaksa, Kec. Dawan, Kabupaten Klungkung, Bali 80761, Indonesia",https://maps.google.com/?cid=1153698301758130603,OPERATIONAL,+62 813-3732-8090,restaurant,"restaurant, food",4,1,,,,,,
ChIJY8eY9SQS0i0R_BtPe5iZ6oI,Warung Made Sarmi,-8.560923599999999,115.44205120000001,"CCQR+JRM, Jl. Kusanegara, Kp. Kusamba, Kec. Dawan, Kabupaten Klungkung, Bali 80671, Indonesia",https://maps.google.com/?cid=9433521249663785980,CLOSED_TEMPORARILY,+62 821-4751-3082,indonesian_restaurant,"indonesian_restaurant, restaurant, food",5,1,,,,,,
ChIJUYpLnCQS0i0RSk5ni51Tiys,Warung Bu Made Sarmi,-8.5616802,115.44353720000001,"CCQV+8CF, Jl. Kusanegara, Kp. Kusamba, Kec. Dawan, Kabupaten Klungkung, Bali 80761, Indonesia",https://maps.google.com/?cid=3137693501507456586,OPERATIONAL,+62 822-2811-0802,restaurant,"restaurant, food",5,1,,,,,,
ChIJJR-YVtkT0i0RLqLQ8sWYY7Q,Putra & Arya's Home,-8.5554197,115.4421037,"CCVR+RR, Gunaksa, Dawan, Klungkung Regency, Bali, Indonesia",https://maps.google.com/?cid=12998400925471121966,OPERATIONAL,,coffee_shop,"coffee_shop, cafe, food, store",5,3,,,,,,
