id,name,latitude,longitude,address,url,status,phone,primary-type,types,rating,rating-count,price-level,review 1,review 2,review 3,review 4,review 5
ChIJK3GxVEtg0S0R9SBkwHWRUoc,Rumah Makan Bidadari ᬭᬸᬫᬄᬫᬓᬦ᭄ᬩᬶᬤᬤᬭᬶ᭟,-8.344954,114.5714629,"Jl Raya Denpasar Gilimanuk Desa Banyubiru, Kaliakah, Negara, Jembrana Regency, Bali 82218, Indonesia",https://maps.google.com/?cid=9751016078135533813,OPERATIONAL,+62 812-3930-960,indonesian_restaurant,"indonesian_restaurant, restaurant, food",4.1,5461,PRICE_LEVEL_MODERATE,"they serve halal food with good services. clean area. they also have toilets to shower and make you fresh after land long journey tour from java to bali. big parking lot for buses and cars. last but not least, mushola (place to pray for moslem).","came here while on a trip to lombok. average menu, don't expect good taste..you can only get fullness.
Ample parking space, suitable for buses. There are paid toilets, and a prayer room.
In front of the restaurant there is also an Alfamart","If you need relax after long driver,you can rest in Bidadari restaurant with indonesian food. A little bit spicy, but ok.","Large parking area,many options food provides here,they have enough toilet for groups,and they have a minimarket ini the restaurant","Not the best in around here but the price range is average and actually pretty worth it with the taste of the food
This place is lack of cleaning and air conditioning, and also it is huge open place so kinda lack of privacy but beside that you deserve what you pay"
ChIJffvNlHph0S0R_Efv8ZmiUvk,Depot Banyubiru by Asli Jaen,-8.3497685,114.57398119999999,"Jl. Raya Pantai Cupel, Banyu Biru, Kec. Negara, Kabupaten Jembrana, Bali 82218, Indonesia",https://maps.google.com/?cid=17965600645607016444,OPERATIONAL,+62 812-3704-3737,coffee_shop,"coffee_shop, cafe, store, food",5,2,,,,,,
ChIJty2Mvtdh0S0RTakweX23oCQ,Warung Kopi Bu Siti,-8.3450812,114.571714,"MH3C+XM8, Jl. Tegal Berkis, Banyu Biru, Kec. Negara, Kabupaten Jembrana, Bali 82218, Indonesia",https://maps.google.com/?cid=2639311131171137869,OPERATIONAL,+62 823-4014-4424,coffee_shop,"coffee_shop, cafe, store, food",,,,,,,,
ChIJnWZtV8xh0S0RsExghyjq2wc,Warung Betutu Cak Mendol,-8.3486628,114.57502410000001,"MH2G+G2J, Jl. Raya Pantai Cupel, Banyu Biru, Kec. Negara, Kabupaten Jembrana, Bali 82218, Indonesia",https://maps.google.com/?cid=566303637955955888,OPERATIONAL,+62 852-3738-4645,restaurant,"restaurant, food",4.5,11,,good,,,,
ChIJy_4x_7Rh0S0Ra4Bb13d3L_0,Mbak Susy,-8.3467979,114.57461169999999,"Kaliakah, Negara, Jembrana Regency, Bali, Indonesia",https://maps.google.com/?cid=18243931972099080299,OPERATIONAL,,restaurant,"restaurant, food",5,1,,,,,,
ChIJC2xeCyth0S0RI0rri3XKL-g,Kedai mimi,-8.3475053,114.57526209999999,"MH2G+X4R, Jl. Raya Pantai Cupel, Banyu Biru, Kec. Negara, Kabupaten Jembrana, Bali 82218, Indonesia",https://maps.google.com/?cid=16730813746912119331,OPERATIONAL,,brunch_restaurant,"brunch_restaurant, restaurant, food",5,1,,,,,,
ChIJ5TX4M-hh0S0RFYyD4IW7tfc,Warung Suroboyo Ayam Goreng & Pecel Lele PAKLEK,-8.3472546,114.57576119999999,"MH3G+38R, Kaliakah, Negara, Jembrana Regency, Bali 82218, Indonesia",https://maps.google.com/?cid=17849378881824590869,OPERATIONAL,+62 813-3738-9918,indonesian_restaurant,"meal_takeaway, indonesian_restaurant, restaurant, food",4.7,6,,,,,,
ChIJm0RcMq1h0S0RhK08ZzciRK0,RM. Podo Seneng 3,-8.346947199999999,114.57497439999999,"MH3F+6XH, Jl. Raya Denpasar - Gilimanuk, Kaliakah, Kec. Negara, Kabupaten Jembrana, Bali 82218, Indonesia",https://maps.google.com/?cid=12485141688328433028,OPERATIONAL,,brunch_restaurant,"brunch_restaurant, restaurant, food",,,,,,,,
ChIJxym8kmJh0S0Rli1zrqBxaxI,Jaya Fried Chicken,-8.3476027,114.57518689999999,"No.depan SD negeri 3, Jl. Raya Pantai Cupel No.desa, Banyu Biru, Kec. Negara, Kabupaten Jembrana, Bali 82218, Indonesia",https://maps.google.com/?cid=1327279450126232982,OPERATIONAL,,brunch_restaurant,"brunch_restaurant, cafe, restaurant, food",4.5,2,,,,,,
ChIJYWunCiJh0S0RnPfIIuRLGHA,Warung Muslim Hikmah,-8.3468176,114.5747511,"MH3F+7WC, Gg. Nurul Jadid, Kaliakah, Kec. Negara, Kabupaten Jembrana, Bali 82218, Indonesia",https://maps.google.com/?cid=8077289374897207196,OPERATIONAL,+62 812-3843-9262,restaurant,"restaurant, food",5,6,,,,,,
ChIJ68YlAHVh0S0RoSOkb2O2vjc,Pondok Sate Bang Ahmad,-8.3476094,114.5754525,"Simpang, Bali, Jl. Raya Negara-Gilimanuk No.3, Banyu Biru, Kec. Negara, Kabupaten Jembrana, Bali 82212, Indonesia",https://maps.google.com/?cid=4016848455852106657,OPERATIONAL,+62 821-4783-3253,indonesian_restaurant,"indonesian_restaurant, restaurant, food",4.4,18,,Joss,,,,
ChIJz8rwix1h0S0RvVUIpBIOOuM,Rumah makan podo dikit,-8.3471715,114.57539580000001,"Kaliakah, MH3G+45J, Pertigaan, Banyu Biru, Kec. Negara, Kabupaten Jembrana, Bali 82218, Indonesia",https://maps.google.com/?cid=16373414868483069373,OPERATIONAL,,restaurant,"restaurant, food",,,,,,,,
ChIJRQxz-bRh0S0R4kAW0GvmzTQ,Gfc,-8.3466768,114.5744742,"Kaliakah, Negara, Jembrana Regency, Bali, Indonesia",https://maps.google.com/?cid=3804950610924945634,OPERATIONAL,,restaurant,"restaurant, food",,,,,,,,
ChIJDZgG0HRh0S0Rt6_jsQ7aRiU,Warung Muslim Bu Ikke,-8.347735,114.5765877,"MH2G+WJ4, Jl. Raya Denpasar - Gilimanuk, Kaliakah, Kec. Negara, Kabupaten Jembrana, Bali 82218, Indonesia",https://maps.google.com/?cid=2686073984421965751,OPERATIONAL,+62 821-3575-7450,restaurant,"restaurant, food",3.7,3,,Top,,,,
ChIJ-9ciXrRh0S0RCng7Kx1r74E,Warung Ar Rahmah,-8.3458396,114.5750163,"Kaliakah, Negara, Jembrana Regency, Bali, Indonesia",https://maps.google.com/?cid=9362819923350091786,OPERATIONAL,,restaurant,"restaurant, food",,,,,,,,
ChIJ5UP-nN5h0S0RcqVTBrRPS7U,Bali 624,-8.3475529,114.5755305,"MH2G+X6C, Jl. Raya Pantai Cupel, Banyu Biru, Kec. Negara, Kabupaten Jembrana, Bali 82218, Indonesia",https://maps.google.com/?cid=13063622778737108338,OPERATIONAL,,restaurant,"restaurant, food",,,,,,,,
ChIJKVU7xrVh0S0Rukd24XIOiao,Atma Aura Aziz 2,-8.347705699999999,114.5764841,"Asian Highway No.2, Kaliakah, Kec. Negara, Kabupaten Jembrana, Bali 82218, Indonesia",https://maps.google.com/?cid=12288368944828794810,OPERATIONAL,+62 852-6272-972,indonesian_restaurant,"indonesian_restaurant, restaurant, food",5,1,,,,,,
ChIJsb-6wF1h0S0RhJxdQGvmwnU,Rumah Makan Ligabintang,-8.3443548,114.57239419999999,"Asian Highway No.2, Kaliakah, Kec. Negara, Kabupaten Jembrana, Bali 82218, Indonesia",https://maps.google.com/?cid=8485597996235201668,OPERATIONAL,,restaurant,"restaurant, food",5,2,,,,,,
ChIJtZHc8mZh0S0RbgypQ7PMgAQ,MIE PANGSIT SUMO4D,-8.3468968,114.57490829999999,"MH3F+6XV, Kaliakah, Negara, Jembrana Regency, Bali 82218, Indonesia",https://maps.google.com/?cid=324484243477040238,OPERATIONAL,,restaurant,"restaurant, food",1,1,,,,,,
ChIJhbMVtgFh0S0RBRjbDvfszeo,Rujak & es juice Banyubiru,-8.3478864,114.5741872,"MH2F+RMV, Gg. Nurul Jadid, Banyu Biru, Kec. Negara, Kabupaten Jembrana, Bali 82218, Indonesia",https://maps.google.com/?cid=16919439920951138309,CLOSED_TEMPORARILY,,restaurant,"restaurant, food",,,,,,,,
