id,name,latitude,longitude,address,url,status,phone,primary-type,types,rating,rating-count,price-level,review 1,review 2,review 3,review 4,review 5
ChIJF4HB5VUP0i0RbZlVy7gXRSQ,Lemek LOFT,-8.518466600000002,115.4800118,"FFJJ+J2, BR. Pakel, Gegelang, Kec. Manggis, Kabupaten Karangasem, Bali, Indonesia",https://maps.google.com/?cid=2613521241211246957,OPERATIONAL,,private_guest_room,"private_guest_room, lodging",5,1,,,,,,
ChIJ0xQAwm4P0i0RPrH2BUjdKCg,I wayan sudiana,-8.5165501,115.4814208,"FFMJ+9HF, Jl. Pura Andakasa, Gegelang, Kec. Manggis, Kabupaten Karangasem, Bali 80871, Indonesia",https://maps.google.com/?cid=2893806061992980798,OPERATIONAL,,private_guest_room,"private_guest_room, lodging",5,1,,,,,,
ChIJ7aC7aoMP0i0RsIgq5olTPyQ,Budi,-8.5168111,115.4816927,"FFMJ+7MG, Gegelang, Manggis, Karangasem Regency, Bali 80871, Indonesia",https://maps.google.com/?cid=2611898160635349168,OPERATIONAL,,private_guest_room,"private_guest_room, lodging",5,4,,,,,,
ChIJwQ2WsvMP0i0ROMN9rnUActY,kacang.bali_grosir (Dede&Azka),-8.516288399999999,115.48123779999997,"Banjar pakel Jl. Pura Pucak Kaler, Gegelang, Kec. Manggis, Kabupaten Karangasem, Bali 80871, Indonesia",https://maps.google.com/?cid=15452413776900244280,OPERATIONAL,,private_guest_room,"private_guest_room, lodging",5,1,,,,,,
ChIJ0Y9mSYkP0i0R_oNWDcbiNUU,Wayan darmayasa,-8.5151611,115.48096249999999,"FFMJ+W9P, Gegelang, Manggis, Karangasem Regency, Bali 80871, Indonesia",https://maps.google.com/?cid=4987141502637868030,OPERATIONAL,,private_guest_room,"private_guest_room, lodging",,,,,,,,
