id,name,latitude,longitude,address,url,status,phone,primary-type,types,rating,rating-count,price-level,review 1,review 2,review 3,review 4,review 5
ChIJb2202Rwl0i0RFXLAVaJM3CY,JFC Buruan,-8.4628237,115.13831780000001,"G4PQ+V8G, Jl. Jatiluwih-Mengesta, Buruan, Kec. Penebel, Kabupaten Tabanan, Bali 82181, Indonesia",https://maps.google.com/?cid=2800197328424694293,OPERATIONAL,+62 812-3794-9777,fast_food_restaurant,"fast_food_restaurant, restaurant, food",4,143,PRICE_LEVEL_MODERATE,Food is not delicious at all.,"cool place, good service, standard food menu ,","Ok, n  good",So so,Nice
ChIJExirBhEl0i0RWUQdB3Hgu64,Kolam pancing Gus Loren,-8.4649825,115.13830929999999,"Jl. Batukaru, Tajen, Kec. Penebel, Kabupaten Tabanan, Bali 82181, Indonesia",https://maps.google.com/?cid=12590903959299638361,OPERATIONAL,+62 813-3863-9865,park,park,5,3,,,,,,
ChIJcasG5Rsl0i0RDWfUPtWqeMc,Munduk selaka kitchen & bar,-8.4609598,115.14276689999998,"G4QV+J46, Buruan, Penebel, Tabanan Regency, Bali 82181, Indonesia",https://maps.google.com/?cid=14373426043611801357,OPERATIONAL,,bar,bar,4.8,13,,"Nice place, There's karaoke center and they have Tuak and beer as well",Good place to take a break and refresh. It's nice food for a responsible price!,,,
ChIJOxJ88ZIl0i0REOhA8rE88JQ,NASI JINGGO AYAM PEDAS,-8.4640374,115.13793880000001,"G4PQ+973, Jl. Batukaru, Buruan, Kec. Penebel, Kabupaten Tabanan, Bali 82181, Indonesia",https://maps.google.com/?cid=10732144646995109904,OPERATIONAL,+62 812-3766-4841,indonesian_restaurant,"indonesian_restaurant, restaurant, food",5,1,,,,,,
ChIJJ4q6KzIl0i0RgMxztuIzdOI,Bakso Kobeer Buruan,-8.4629874,115.1382956,"G4PQ+R83, Buruan, Penebel, Tabanan Regency, Bali 82181, Indonesia",https://maps.google.com/?cid=16317724398686817408,OPERATIONAL,,indonesian_restaurant,"indonesian_restaurant, restaurant, food",5,1,,,,,,
ChIJ7yJAKQMl0i0RNwmZG-KgAs4,BAKSO IFFA,-8.4630532,115.13823599999998,"G4PQ+Q7H, Jl. Batukaru, Wanasari, Kec. Penebel, Kabupaten Tabanan, Bali 82181, Indonesia",https://maps.google.com/?cid=14844604214752643383,OPERATIONAL,,restaurant,"restaurant, food",,,,,,,,
