id,name,latitude,longitude,address,url,status,phone,primary-type,types,rating,rating-count,price-level,review 1,review 2,review 3,review 4,review 5
ChIJj-3SwMQZ0i0RQu5Lx7FEZe4,NayoChix,-8.474079,115.3359283,"Jl. Raya Serokadan, Abuan, Kec. Susut, Kabupaten Bangli, Bali 80661, Indonesia",https://maps.google.com/?cid=17178211884018167362,OPERATIONAL,+62 812-3715-4926,restaurant,"restaurant, food",4,8,,,,,,
ChIJ1zHoV9wZ0i0RJ47VsDh-IVw,Wr. Menuh,-8.4708086,115.33621810000001,"G8HP+MFG, Jl. Raya Serokadan, Abuan, Kec. Susut, Kabupaten Bangli, Bali 80661, Indonesia",https://maps.google.com/?cid=6638726107670875687,OPERATIONAL,+62 821-4478-8294,restaurant,"restaurant, food",5,1,,,,,,
ChIJu18djVoZ0i0R9nvsd8abKCs,Puri Kanginan Serokadan,-8.4755979,115.3366788,"G8FP+QM7, Abuan, Susut, Bangli Regency, Bali 80661, Indonesia",https://maps.google.com/?cid=3109906819417144310,OPERATIONAL,+62 878-6003-2301,,lodging,5,1,,,,,,
ChIJqwyM8_4Z0i0RSBvvuxEd16I,Puri kaler kangin,-8.4708439,115.33748449999999,"G8HP+MX9, Jl. Raya Serokadan, Abuan, Kec. Susut, Kabupaten Bangli, Bali 80661, Indonesia",https://maps.google.com/?cid=11733879316141775688,OPERATIONAL,+62 878-6458-6822,private_guest_room,"private_guest_room, lodging",5,2,,,,,,
ChIJo1_XMNIZ0i0RryhiyeGqjJw,Waroeng Doaji,-8.4733486,115.3357205,"G8GP+M79, Jl. Raya Serokadan, Abuan, Kec. Susut, Kabupaten Bangli, Bali 80661, Indonesia",https://maps.google.com/?cid=11280579053379266735,OPERATIONAL,+62 878-6197-6200,restaurant,"restaurant, food",5,2,,Great place,,,,
ChIJY2_Axs0Z0i0RauZ-M2DCFq8,"PARIN Recreation Park & Yayasan,pasraman Pakusara",-8.471079999999999,115.33607529999999,"G8HP+HC8, Abuan, Susut, Bangli Regency, Bali 80661, Indonesia",https://maps.google.com/?cid=12616485124561626730,OPERATIONAL,+62 812-3738-7494,park,park,4,5,,Good,,,,
ChIJqTD7cmwZ0i0RI72ted6Ar_g,Pondok Kangin,-8.4720097,115.336005,"G8HP+5CR, Dusun Jl. Raya Serokadan, Abuan, Kec. Susut, Kabupaten Bangli, Bali 80661, Indonesia",https://maps.google.com/?cid=17919683135343017251,OPERATIONAL,,,lodging,,,,,,,,
ChIJtUGrPhMZ0i0RWeGoXJ--Q2I,Pande mang serokadan,-8.473611499999999,115.3355187,"G8GP+H62, Jl. Raya Serokadan, Serokadan, Abuan, Kec. Susut, Kabupaten Bangli, Bali 80661, Indonesia",https://maps.google.com/?cid=7080712630820200793,OPERATIONAL,,,lodging,5,1,,,,,,
ChIJpS-Gx7cZ0i0RB7CUHc7KaSg,Warung sang ayu,-8.4687346,115.33638730000001,"G8JP+GH2, Jl. Raya Serokadan, Abuan, Kec. Susut, Kabupaten Bangli, Bali 80661, Indonesia",https://maps.google.com/?cid=2912081620680093703,OPERATIONAL,+62 831-1493-5995,breakfast_restaurant,"breakfast_restaurant, restaurant, food",4,1,,,,,,
ChIJc2hcm6QZ0i0RnVYekQGOFPw,Posko The Jaroeh Serokadan,-8.47321,115.33597999999998,"G8GP+P99, Jl. Raya Serokadan, Abuan, Kec. Susut, Kabupaten Bangli, Bali 80661, Indonesia",https://maps.google.com/?cid=18164299334472849053,OPERATIONAL,,night_club,night_club,1,1,,,,,,
ChIJL49mRAQZ0i0RK2Hru5ehA7o,Rumah dominique,-8.4720209,115.3360396,"G8HQ+V6H, Jl. Raya Serokadan, Abuan, Kec. Susut, Kabupaten Bangli, Bali 80661, Indonesia",https://maps.google.com/?cid=13403734589049626923,OPERATIONAL,,park,park,4,1,,,,,,
ChIJg0J_R38Z0i0Rb9U5U8CanoE,RUMAH MAKAN D'YUDA,-8.4706611,115.33637309999999,"Br srokadan, Abuan, Kec. Susut, Kabupaten Bangli, Bali, Indonesia",https://maps.google.com/?cid=9340072828033684847,OPERATIONAL,+62 818-0331-8439,restaurant,"restaurant, grocery_store, store, food",,,,,,,,
ChIJv9at-dEZ0i0RtRtzUgodI3s,Jambeng Chicken Crispy,-8.470416199999999,115.3373019,"Abuan, Susut, Bangli Regency, Bali, Indonesia",https://maps.google.com/?cid=8872967621020162997,OPERATIONAL,,restaurant,"restaurant, food",,,,,,,,
