id,name,latitude,longitude,address,url,status,phone,primary-type,types,rating,rating-count,price-level,review 1,review 2,review 3,review 4,review 5
ChIJIeeHsBnX0y0R2dJ_rXmyKGM,Putri Aget Rental,-8.383720199999999,114.7684628,"JQ89+J3R, Yeh Embang, Mendoyo, Jembrana Regency, Bali 82261, Indonesia",https://maps.google.com/?cid=7145157044494914265,OPERATIONAL,,car_rental,car_rental,4,1,,,,,,
ChIJC9NGrHLX0y0R_0uW-7P_pOw,Ayu puspita rentcar,-8.3842356,114.76742150000001,"JQ88+6VM, Yeh Embang, Mendoyo, Jembrana Regency, Bali 82261, Indonesia",https://maps.google.com/?cid=17052035237616700415,OPERATIONAL,,car_rental,car_rental,4.8,4,,,,,,
ChIJ1_873ErX0y0RSyxaUyRXlr0,Pebby home stay,-8.3833609,114.76783079999998,"JQ89+M44 banjar kaleran kertabuana, jl bima, Yeh Embang, Kec. Mendoyo, Kabupaten Jembrana, Bali 82261, Indonesia",https://maps.google.com/?cid=13661202333203835979,OPERATIONAL,+62 813-3986-3318,private_guest_room,"private_guest_room, lodging",4,1,,,,,,
ChIJef4DL1LX0y0RaDVNR1sYcZc,WARUNG POJOK SOSIS,-8.3837764,114.7682255,"JQ89+J3R, Yeh Embang, Mendoyo, Jembrana Regency, Bali 82261, Indonesia",https://maps.google.com/?cid=10912530152412755304,OPERATIONAL,+62 819-1305-8929,indonesian_restaurant,"indonesian_restaurant, restaurant, food",5,1,,,,,,
ChIJ1WcS3vfX0y0RqBzYTtNMRUg,warung men pebby,-8.3833951,114.76764599999998,"jl bima desa yehembang banjar kaleran kertabuana, JQ89+J3R, Yeh Embang, Kec. Mendoyo, Kabupaten Jembrana, Bali 82261, Indonesia",https://maps.google.com/?cid=5207653014568443048,CLOSED_TEMPORARILY,,indonesian_restaurant,"indonesian_restaurant, restaurant, food",,,,,,,,
ChIJGxlG1TrX0y0RstZdVb7mdFk,Dwikupit home stay,-8.3843978,114.76719749999998,"JQ88+6VM, Yeh Embang, Mendoyo, Jembrana Regency, Bali 82261, Indonesia",https://maps.google.com/?cid=6446030671824410290,OPERATIONAL,,private_guest_room,"private_guest_room, lodging",,,,,,,,
ChIJ-y69fgDX0y0R7Y3-T3x5Nio,Wr es teler Dewi dewi,-8.3844091,114.76718439999999,"JQ88+6VM, Kaleran, Yeh Embang, Kec. Mendoyo, Kabupaten Jembrana, Bali, Indonesia",https://maps.google.com/?cid=3041752173160336877,OPERATIONAL,,restaurant,"restaurant, food",,,,,,,,
