id,name,latitude,longitude,address,url,status,phone,primary-type,types,rating,rating-count,price-level,review 1,review 2,review 3,review 4,review 5
ChIJdWbKiGOB0S0RMtXcu75K0SA,Warung Makan NAMASTU,-8.2678821,114.9673443,"PXJ8+RWX, Jl. Kiskinda, Kedis, Kec. Busung Biu, Kabupaten Buleleng, Bali 81154, Indonesia",https://maps.google.com/?cid=2364753462402274610,OPERATIONAL,+62 818-0692-2834,restaurant,"restaurant, food",4.3,45,,"Our driver Putu took us here for lunch today on our trip from Balian to Lovina - fantastic!! Delicious nasi campur and sate lilit was soooo tasty, (enak sekali!). AMAZING view (sit upstairs, so beautiful!). Very lovely lady who served us, MATUR SUKSMA! The other review who complained about prices/their bill, which even if it was a little more, or a mistake was made, it is not a problem, the prices are local and VERY cheap for someone not from Bali - so come here, enjoy the lovely food, people and environment, and leave a positive review after your nice experience at a gorgeous local Balinese experience, it is well deserved.",Amazing place for Lunch or mini pancakes and a cool drink. Try the coffee too! Very clean and friendly with great view!,"Friendly staff, clean place, perfect view and best Nasi Goreng I've ever had. The food was very good.","Cheating with prices, be careful,.check menu before you pay","Friendly people, good and affordable food."
ChIJq7XkeWSB0S0RdmpJhWUZvWI,Terasering Joglo Kekeran,-8.268469999999999,114.967232,"Jl. Kiskinda, Kekeran, Kec. Busung Biu, Kabupaten Buleleng, Bali 81154, Indonesia",https://maps.google.com/?cid=7114870910133824118,CLOSED_TEMPORARILY,,,tourist_attraction,4.3,126,,"Beautiful green view, wonderful terasering rice field.",Nice place to having relaxation. Nice view from the top to see natural garden and river,The view is gorgeous the color for the green is really make you feel very relaxed so relaxed and I really enjoying this place,Must visit this is rice terrace view with beautiful river a long the way. Great place for rest area,"The great view, mountain and the valley"
ChIJdbBdvIWB0S0RlvxzxOKDYHU,Rice terrace,-8.2645737,114.9654054,"PXP8+84, Kekeran, Busung Biu, Buleleng Regency, Bali, Indonesia",https://maps.google.com/?cid=8457905110183574678,OPERATIONAL,,tourist_attraction,tourist_attraction,,,,,,,,
ChIJ5WtoU_aB0S0R6LXZ3KmRe94,Kabupaten buleleng,-8.2711545,114.9605861,"PXH6+G6P, Titab, Busung Biu, Buleleng Regency, Bali 81154, Indonesia",https://maps.google.com/?cid=16031567457296168424,OPERATIONAL,,tourist_attraction,tourist_attraction,,,,,,,,
ChIJhzbwWGKB0S0RK6AypBCLVSM,Alas bangkuwang cafe,-8.2681683,114.9675103,"PXJ9+P2J, Kekeran, Busung Biu, Buleleng Regency, Bali 81154, Indonesia",https://maps.google.com/?cid=2546094067938402347,OPERATIONAL,,restaurant,"restaurant, food",5,4,,The view is perfect,,,,
ChIJCQrwcbCB0S0RelFkTmRkVZQ,Rumah Nengah Sumerti,-8.270666,114.96054559999997,"PXH6+P6M, Titab, Busung Biu, Buleleng Regency, Bali 81154, Indonesia",https://maps.google.com/?cid=10688559672608444794,OPERATIONAL,+62 878-5255-7487,hotel,"hotel, lodging",5,1,,,,,,
ChIJWY62Q5OB0S0RsxXUiu4GVX8,Kubu yudha,-8.2713175,114.96080740000001,"PXH6+F8F, Titab, Busung Biu, Buleleng Regency, Bali 81154, Indonesia",https://maps.google.com/?cid=9175247437438391731,OPERATIONAL,,private_guest_room,"private_guest_room, lodging",,,,,,,,
ChIJKwZyhgKB0S0R1SernRGcmgI,NOTSALT,-8.26932,114.95947939999999,"PXJ5+7QH, Jl. Raya Titab, Titab, Kec. Busung Biu, Kabupaten Buleleng, Bali 81154, Indonesia",https://maps.google.com/?cid=187633933962913749,OPERATIONAL,,hotel,"hotel, lodging",,,,,,,,
