id,name,latitude,longitude,address,url,status,phone,primary-type,types,rating,rating-count,price-level,review 1,review 2,review 3,review 4,review 5
ChIJwa1D_EoZ0i0RpHAe79xMAjw,Kolam Pancing Telaga Ngembeng,-8.4573361,115.36208939999999,"G9V6+3R, Kawan, Bangli, Bangli Regency, Bali 80614, Indonesia",https://maps.google.com/?cid=4324103104017363108,OPERATIONAL,,tourist_attraction,tourist_attraction,4,2,,,,,,
ChIJgc8ZoooZ0i0R16qmEC3weOU,Jumahne sang oman,-8.458624600000002,115.3614585,"G9R6+HH4, Kawan, Bangli, Bangli Regency, Bali 80614, Indonesia",https://maps.google.com/?cid=16535230108234328791,OPERATIONAL,+62 812-3655-1861,lodging,lodging,5,2,,,,,,
ChIJvcTMNsEZ0i0R8X-rUaqDfKE,Pura Pegringsingan,-8.4543568,115.3639625,"Jl. Majapahit, Kawan, Kec. Bangli, Kabupaten Bangli, Bali 80614, Indonesia",https://maps.google.com/?cid=11636320304756391921,OPERATIONAL,,park,"park, hindu_temple, place_of_worship",5,1,,,,,,
ChIJoVKGuJIZ0i0RUmiCN9LPuRU,Laklak pondok,-8.4595623,115.36163049999999,"G9R6+5MC, Jl. Majapahit, Kawan, Kec. Bangli, Kabupaten Bangli, Bali 80614, Indonesia",https://maps.google.com/?cid=1565510847269333074,OPERATIONAL,+62 856-3874-387,cafe,"cafe, food",5,1,,,,,,
ChIJTdemfzEZ0i0Ro1-jy5TqhMk,Warung Dayu Sukma,-8.459916,115.3614917,"Dsn. Tambahan Tengah, Kabupaten, G9R6+2HQ, Jehem, Kec. Tembuku, Kabupaten Bangli, Bali 80614, Indonesia",https://maps.google.com/?cid=14520989023341862819,OPERATIONAL,+62 857-9229-7564,restaurant,"restaurant, food",,,,,,,,
ChIJqyUpxpMZ0i0Rz-1BZmZUthY,Griya Baudda Taman Guhya Samaja Giri,-8.454099099999999,115.362999,"G9W7+959, Kawan, Bangli, Bangli Regency, Bali 80614, Indonesia",https://maps.google.com/?cid=1636588313374748111,OPERATIONAL,,,lodging,3.6,7,,,,,,
ChIJI65YYAAZ0i0ROQnLfbqaVJ4,Klaci,-8.457675,115.36181680000001,"G9R6+WPP, Jl. Majapahit, Kawan, Kec. Bangli, Kabupaten Bangli, Bali 80614, Indonesia",https://maps.google.com/?cid=11408913881801361721,OPERATIONAL,,park,park,,,,,,,,
ChIJw5Jie5QZ0i0R5uoYj8Jj1wk,Pondok Uma Pule,-8.455418,115.36018670000001,"G9V6+R3M, Jl. Griya Banjar, Kerobokan, Kec. Kuta Utara, Kabupaten Badung, Bali 80361, Indonesia",https://maps.google.com/?cid=709145153609722598,OPERATIONAL,,lodging,lodging,4.3,3,,Rice field with it's fresh air,,,,
ChIJl-CHFwAZ0i0RL1Xf5piMPek,WARUNG GAURI,-8.4599213,115.36169699999999,"Tegalalang, G9R6+2MP, Kawan, Kec. Bangli, Kabupaten Bangli, Bali 80614, Indonesia",https://maps.google.com/?cid=16806743972752872751,OPERATIONAL,,meal_takeaway,"meal_takeaway, restaurant, food",5,1,,,,,,
ChIJ_0ugMhAZ0i0RKQXiCXzQwIA,MieBliss,-8.4609018,115.36215569999999,"G9Q6+VGV, Kawan, Bangli, Bangli Regency, Bali, Indonesia",https://maps.google.com/?cid=9277644463543551273,OPERATIONAL,+62 819-4785-9400,restaurant,"restaurant, food",5,3,,,,,,
ChIJZzuPSW8Z0i0R5Px6dSOkpeY,Loteng Cemara,-8.4548101,115.3600525,"G9W6+32F, Kawan, Bangli, Bangli Regency, Bali 80614, Indonesia",https://maps.google.com/?cid=16619870472082488548,OPERATIONAL,,bar,bar,,,,,,,,
ChIJ8d5bEUMZ0i0Rw1Yvtf8SyxY,Pondok Penyarikan,-8.4543318,115.36066620000001,"G9W6+777, Jl. Majapahit, Kawan, Kec. Bangli, Kabupaten Bangli, Bali 80614, Indonesia",https://maps.google.com/?cid=1642427378572416707,OPERATIONAL,,museum,museum,,,,,,,,
ChIJZW2FPPIZ0i0Re_EH150dTPw,Warung Melangit,-8.4605183,115.3661873,"Unnamed Road, G9Q8+QFV, Kawan, Kec. Bangli, Kabupaten Bangli, Bali 80614, Indonesia",https://maps.google.com/?cid=18179938359542542715,OPERATIONAL,+62 857-3714-4591,restaurant,"restaurant, food",4.7,6,,,,,,
