id,name,latitude,longitude,address,url,status,phone,primary-type,types,rating,rating-count,price-level,review 1,review 2,review 3,review 4,review 5
ChIJFZLgb6090i0RQgWPY56DvcM,WARUNG PAK SAMBA,-8.536533,115.23855379999999,"F67Q+9CM, Jl. Banjar Tewel, Singakerta, Kecamatan Ubud, Kabupaten Gianyar, Bali 80571, Indonesia",https://maps.google.com/?cid=14104574324292650306,OPERATIONAL,,restaurant,"restaurant, food",,,,,,,,
ChIJ5UiEGHw90i0RE0hWG3_LrEs,Moh.aldi putra jaya,-8.5327679,115.2372524,"Jl. Banjar Lodtunduh No.19, Singakerta, Kecamatan Ubud, Kabupaten Gianyar, Bali 80571, Indonesia",https://maps.google.com/?cid=5452956995618752531,OPERATIONAL,,hostel,"hostel, lodging",,,,,,,,
ChIJffNd5Pc90i0R-zgNfvr0RC4,Warung Tuak Mek Bom-Bom,-8.537030099999999,115.2386955,"F67Q+5FP, Jl. Banjar Tewel, Singakerta, Kecamatan Ubud, Kabupaten Gianyar, Bali 80571, Indonesia",https://maps.google.com/?cid=3334058980854806779,OPERATIONAL,+62 881-0382-73032,bar,bar,4.3,3,,,,,,
ChIJX2ZpLAM90i0RYV6JeYqR0MU,Warung Mak Sankan,-8.531539700000002,115.23718660000002,"F69P+9VM, Jl. Banjar Tewel, Singakerta, Kecamatan Ubud, Kabupaten Gianyar, Bali 80571, Indonesia",https://maps.google.com/?cid=14254052844558179937,OPERATIONAL,+62 895-3940-03663,cafe,"cafe, food",5,3,,,,,,
ChIJY9gt7sQ90i0RkMW25oB0vAM,Warung Beji,-8.538046999999999,115.238382,"Jl. Raya Br. Tunon No.15, Singakerta, Kecamatan Ubud, Kabupaten Gianyar, Bali 80571, Indonesia",https://maps.google.com/?cid=269218174710760848,OPERATIONAL,+62 856-3876-089,indonesian_restaurant,"indonesian_restaurant, restaurant, food",4.5,2,,,,,,
ChIJ__fxJmc90i0RVYbBKEgU6Ug,DG,-8.530908799999999,115.2371718,"F69P+JVM, Jl. Banjar Tewel, Singakerta, Kecamatan Ubud, Kabupaten Gianyar, Bali 80571, Indonesia",https://maps.google.com/?cid=5253752740458366549,OPERATIONAL,+62 898-0777-946,restaurant,"restaurant, food",5,1,,,,,,
ChIJHw4gGQA90i0RCNrM8suNqUU,Sayan Jl. Raya Ubud Mambal,-8.533034400000002,115.23404269999999,"F68M+QJG, Sayan, Ubud, Gianyar Regency, Bali 80352, Indonesia",https://maps.google.com/?cid=5019699166772517384,OPERATIONAL,,park,park,,,,,,,,
