id,name,latitude,longitude,address,url,status,phone,primary-type,types,rating,rating-count,price-level,review 1,review 2,review 3,review 4,review 5
ChIJgVLm504V0i0RV4r4e8WoA8c,DAPUR DARINN,-8.6201907,115.28495569999998,"Jl. Raya Guwang Gang Mawar XVII No.3, Guwang, Kec. Sukawati, Kabupaten Gianyar, Bali 80582, Indonesia",https://maps.google.com/?cid=14340491204619700823,OPERATIONAL,,restaurant,"restaurant, food",4.9,28,,"Indonesian culinary, with paddy field view. Nice place for early dinner or lunch. üëç","Ikan bakar was excellent with a good price for the paket deal.  Lovely view of the rice fields, clean, new, great koi pond and a nice breeze.  A good place for expats that want to try some local food.  Or run a meeting in the upstairs conference room.  The milkshake I think was just Milo and ice, ok, but not what I expected.  Thai iced tea didn't have much tea flavor.",Great place to visit with fascinating view,Jossss,
ChIJnwblwigV0i0RdbfyS9PlKuQ,Maheswari Kuliner,-8.6183747,115.2848511,"Br. Manikan, Guwang, Kec. Sukawati, Kabupaten Gianyar, Bali 80582, Indonesia",https://maps.google.com/?cid=16441206085344474997,OPERATIONAL,+62 813-3844-5225,restaurant,"restaurant, food",4.3,15,,Woow.amazing resto,,,,
ChIJeY4c_2EV0i0R4AZBcwivI_M,Jaya Fried Chicken,-8.6201406,115.28394150000001,"97HM+WHW, Jl. Raya Guwang, Guwang, Kec. Sukawati, Kabupaten Gianyar, Bali 80582, Indonesia",https://maps.google.com/?cid=17520039426229602016,OPERATIONAL,+62 819-3618-7163,meal_takeaway,"meal_takeaway, restaurant, food",4.4,98,PRICE_LEVEL_INEXPENSIVE,"Have best price, and can find in any place in Bali",,,,
ChIJDyHi8MIV0i0R6kBTVnm5AM0,Warung nasi jinggo,-8.622656899999999,115.2842305,"Jl. Raya Guwang No.13, Guwang, Kec. Sukawati, Kabupaten Gianyar, Bali 80582, Indonesia",https://maps.google.com/?cid=14772010708565704938,OPERATIONAL,,restaurant,"restaurant, food",,,,,,,,
ChIJE2eiqPwV0i0R4rlMjLG3FT4,JAMAIKA KITE,-8.618394,115.28438639999999,"Br.manikan, Guwang, Kec. Sukawati, Kabupaten Gianyar, Bali 80582, Indonesia",https://maps.google.com/?cid=4473683778053388770,OPERATIONAL,+62 895-6233-13657,lodging,lodging,,,,,,,,
ChIJPW0YRgAV0i0RTZTw3xBDWUw,Seasky Kitchen,-8.6190377,115.2891021,"97JQ+9JQ, Guwang, Sukawati, Gianyar Regency, Bali 80582, Indonesia",https://maps.google.com/?cid=5501502159565395021,OPERATIONAL,+62 857-3714-5678,restaurant,"restaurant, food",4.2,5,,,,,,
ChIJw8ZozTM_0i0Rm7TXFgnwJrQ,Kos2an Semeton Bali,-8.6203684,115.28382159999998,"Jl. Raya Guwang No.39, Guwang, Kec. Sukawati, Kabupaten Gianyar, Bali 80582, Indonesia",https://maps.google.com/?cid=12981326897770640539,OPERATIONAL,+62 887-3603-451,hostel,"hostel, lodging",5,4,,,,,,
ChIJg-112WEV0i0RbvV3mkSIR88,Warung Men Nik,-8.6217021,115.28390549999999,"Jl. Raya Guwang No.23, Guwang, Kec. Sukawati, Kabupaten Gianyar, Bali 80582, Indonesia",https://maps.google.com/?cid=14936056517428245870,OPERATIONAL,,restaurant,"restaurant, food",4.9,13,,,,,,
ChIJrZusnzk_0i0RXNGLCZEz5xw,Depot sari asri,-8.620485,115.28398709999999,"manikanKec, Jl. Raya Guwang, banjar manikan, Kec. Sukawati, Kabupaten Gianyar, Bali 80582, Indonesia",https://maps.google.com/?cid=2082690050705576284,OPERATIONAL,+62 812-3609-5659,indonesian_restaurant,"indonesian_restaurant, restaurant, food",3,2,,,,,,
ChIJ86pBOsgV0i0RC33lIAhekjE,Warung Nasi Campur Odah Wayan,-8.6211133,115.2841384,"Br. Manikan, Guwang, Kec. Sukawati, Kabupaten Gianyar, Bali 80582, Indonesia",https://maps.google.com/?cid=3572020843462884619,OPERATIONAL,,indonesian_restaurant,"indonesian_restaurant, restaurant, food",5,1,,Jaennnnnn,,,,
ChIJy3H58j4V0i0RGElfAHguQpk,Warung sate madura,-8.6209725,115.28412909999999,"Jl. Raya Guwang No.32, Guwang, Kec. Sukawati, Kabupaten Gianyar, Bali 80582, Indonesia",https://maps.google.com/?cid=11043440329203075352,OPERATIONAL,,restaurant,"restaurant, food",5,1,,,,,,
ChIJ5YGaHmAV0i0RgFiyZlQs-gM,Warung Jawa Timur,-8.6240214,115.28400040000001,"97GM+9JR, Jl. Raya Guwang, Ketewel, Kec. Sukawati, Kabupaten Gianyar, Bali 80582, Indonesia",https://maps.google.com/?cid=286590267303286912,OPERATIONAL,+62 853-3763-9045,indonesian_restaurant,"indonesian_restaurant, restaurant, food",4,1,,,,,,
ChIJ05ZOwok_0i0RmflSkRygfRg,Podakan Tebu Ulam Sari,-8.6233588,115.28343629999999,"Guwang, Sukawati, Gianyar Regency, Bali, Indonesia",https://maps.google.com/?cid=1764742673556765081,OPERATIONAL,+62 811-3885-638,park,park,,,,,,,,
ChIJF1_sB24V0i0RJcBjZJathzg,Warung Nasi Gudeg,-8.6209847,115.28413049999999,"Jl. Raya Guwang No.32, Guwang, Kec. Sukawati, Kabupaten Gianyar, Bali 80582, Indonesia",https://maps.google.com/?cid=4073415249420861477,CLOSED_TEMPORARILY,,indonesian_restaurant,"indonesian_restaurant, restaurant, food",,,,,,,,
ChIJN9r902EV0i0RklbUj9Ikc1w,Warung Bu Warni,-8.622160599999999,115.2841965,"97HM+4MP, Jl. Raya Guwang, Ketewel, Kec. Sukawati, Kabupaten Gianyar, Bali 80582, Indonesia",https://maps.google.com/?cid=6661708760585885330,OPERATIONAL,+62 856-3992-290,restaurant,"restaurant, food",5,3,,,,,,
ChIJzXIXJ4cV0i0RDZlwl_xQsTg,Pondok kebus dingin,-8.622172299999999,115.2845702,"97HM+4RP, Guwang, Sukawati, Gianyar Regency, Bali 80582, Indonesia",https://maps.google.com/?cid=4085135382804470029,OPERATIONAL,,park,park,4,2,,Josssss,,,,
ChIJxx_c9BAV0i0RBTGamPx-5Tc,Warung makan ayam,-8.6210097,115.2844568,"Jl. Raya Guwang No.32, Guwang, Kec. Sukawati, Kabupaten Gianyar, Bali 80582, Indonesia",https://maps.google.com/?cid=4027765065109876997,CLOSED_TEMPORARILY,,indonesian_restaurant,"indonesian_restaurant, restaurant, food",,,,,,,,
ChIJjyklB2AV0i0R6cHFWHluh0A,Warung Bu Rami,-8.6225353,115.28400880000001,"97GM+XJJ, Jl. Raya Guwang, Ketewel, Kec. Sukawati, Kabupaten Gianyar, Bali 80582, Indonesia",https://maps.google.com/?cid=4649806607742779881,OPERATIONAL,+62 896-6924-6438,coffee_shop,"coffee_shop, cafe, store, food",,,,,,,,
ChIJf2IU4WEV0i0R9EEhf3Q0cAE,"Warung Makan Ijo ""Jogja""",-8.6209931,115.2839774,"Jl. Raya Guwang No.31, Guwang, Kec. Sukawati, Kabupaten Gianyar, Bali 80582, Indonesia",https://maps.google.com/?cid=103640466383258100,OPERATIONAL,,restaurant,"restaurant, food",,,,,,,,
ChIJ93xqBmIV0i0RppuqD5Jsl34,Warung Bakso Manalagi,-8.619410799999999,115.28403850000001,"97JM+6JM, Jl. Raya Guwang, Guwang, Kec. Sukawati, Kabupaten Gianyar, Bali 80582, Indonesia",https://maps.google.com/?cid=9121878944846093222,OPERATIONAL,,restaurant,"restaurant, food",,,,,,,,
