id,name,latitude,longitude,address,url,status,phone,primary-type,types,rating,rating-count,price-level,review 1,review 2,review 3,review 4,review 5
ChIJNU0y2xc50i0Rs3_ZIxuSlDw,Villa Baru 2,-8.6050953,115.14448999999998,"BR. BATANDUREN. DESA CEPAKA. KECAMATAN KEDIRI. KABUPATEN TABANAN BALI KODE POST, 94VV+XQ9, Cepaka, Kediri, Tabanan Regency, Bali 82121, Indonesia",https://maps.google.com/?cid=4365274584092082099,OPERATIONAL,+62 819-3433-4527,lodging,lodging,4.9,24,,This very beautiful villa in the Cepaka area offers a calm and comfortable natural atmosphere.. this villa offers 3 bedrooms which are very natural in design.. I really recommend it for those of you who want to find a place to stay in Bali because this place is very close to Canggu and other tourist areas.,Loved our stay in this beautifully renovated villa. Excellent service and very close to many tourist attractions.,Beatiful villa in a quite Canguu area surrounded by nature.,Great villa in a beautiful quite village but still very close to the bustle of Canggu. Great service and will definitely come back to stay here again.,We had a fantastic stay at the villa. Nice quiet area and close to everything. Very friendly landlord who helps with everything.
ChIJW4jOHVk50i0R6zL4gcI3WsQ,Baru Cafe,-8.6051698,115.14450169999998,"Jl. Desa Cepaka, Cepaka, Kec. Kediri, Kabupaten Tabanan, Bali 82121, Indonesia",https://maps.google.com/?cid=14148682487881544427,OPERATIONAL,+62 878-0422-1444,brunch_restaurant,"brunch_restaurant, restaurant, food",4.9,57,,nice cafe and comfortable atmosphere..highly recommended for those of you who want to enjoy a calm atmosphere..great service,"Nice and cozy coffee place with very friendly staff. Coffee (cappuccino) is good and tasty. They also made is sufficiently hot. Prices are very affordable, good value for money.",Excellent coffee. Best cappuccino I‚Äôve had in a long time.  The food we ordered from their extensive menu was delicious and great value too.  The staff were very friendly and attentive. Would highly recommend Baru Cafe if you are in the Cepaka area.,"Visited Baru Cafe yesterday & had one of the best coffees in Bali, seriously. It was just about to rain so was thankful to find this lovely little cafe as a sanctuary. Ended up going back a couple of hours later for eggs & bacon on the most delicious sourdough bread. The outlook was so lovely & natural, quite a bit of construction behind it but just a delightful, quiet, cozy space to take some time out with sensational coffee & food. Will be back!",Amazing Cafe with very delicious food and lovely service. I Love coming here.
ChIJPy94cAg50i0RM0sY5k8dT8E,Saratoga Estate,-8.6039523,115.14369839999999,"Kaba-Kaba, Kediri, Tabanan Regency, Bali 80351, Indonesia",https://maps.google.com/?cid=13929384401480207155,OPERATIONAL,+62 812-3646-4730,event_venue,"event_venue, lodging",4.7,23,,Love the ambience in this place. It‚Äôs definitely one of the best places for retreats and wedding/ birthday events.,Incredible villa. Unlike anything I've ever seen in my life!!,Beautiful calming view,Wow place,amazing venue
ChIJia3kNEU50i0R_8Ic2MfjrE4,Desa Wisata Kaba-Kaba,-8.6062145,115.13904470000001,"Br. Tegal Kepuh, Kaba-Kaba, Kec. Kediri, Kabupaten Tabanan, Bali 82121, Indonesia",https://maps.google.com/?cid=5669156478416372479,OPERATIONAL,+62 821-4750-2969,historical_landmark,"historical_landmark, tourist_attraction",4.4,18,,You can see vast rice fields,Just another peaceful Balinese village,,,
ChIJw4erY-Y50i0RZIBUxn_8YCk,Jose Silver Jewelry,-8.6072542,115.14414889999999,"Perum. Permata Selingsing II No.6, Cepaka, Kec. Kediri, Kabupaten Tabanan, Bali 80351, Indonesia",https://maps.google.com/?cid=2981660579037741156,OPERATIONAL,+62 813-5314-5979,art_gallery,art_gallery,5,18,,"I'm thrilled to share my experience with Jose Silver. Finally, I have my own custom necklace adorned with a stunning pendant, and I couldn't be happier. The team at Jose Silver are true professionals, showcasing their expertise as silver artists. Their attention to detail and dedication to crafting unique and beautiful pieces truly sets them apart. I highly recommend Jose Silver for anyone looking to add a touch of elegance to their jewelry collection. ‚ú®Ô∏èü´∂üèº","Came across Jose Silver jewellery at a little stall at the Canggu Centre markets. Was still thinking about the earrings the next day, so went back and bought them to wear to a wedding that night‚Ä¶. And a second pair!
For quite big earrings, they are very light; the silver is beautiful, and doesn‚Äôt cause skin irritation.
Lovely and unique.",Best quality jewellery and really unique designs which are comfortable and stylish. They also offer jewellery making classes for those interested.,Very creative silversmiths! Was a pleasure creating my own jewelry. Thanks Joko!,"Hahahaaaa.......brother company,nothing is impossible"
ChIJBaztGNo50i0RW0sgCa7fAJw,Villa Akili,-8.6061786,115.1433205,"Jl. Raya Munggu No.68, Cepaka, Kec. Kediri, Kabupaten Tabanan, Bali 80351, Indonesia",https://maps.google.com/?cid=11241230608487172955,OPERATIONAL,,lodging,lodging,5,4,,Nice,,,,
ChIJufwDQoo50i0RqG43sw28OTA,janjisurga bali,-8.6055552,115.14413100000002,"Gg. Pucuk Cepaka No.7, Cepaka, Kec. Kediri, Kabupaten Tabanan, Bali 80351, Indonesia",https://maps.google.com/?cid=3475015354520399528,OPERATIONAL,,resort_hotel,"resort_hotel, hotel, lodging",5,1,,,,,,
ChIJ0yFrF5850i0RYejFBKZZKvI,Warung Makan Dewi,-8.6076167,115.14312729999997,"Jl. Raya Munggu-Kapal, Cepaka, Kec. Kediri, Kabupaten Tabanan, Bali 80351, Indonesia",https://maps.google.com/?cid=17449858275779930209,OPERATIONAL,,indonesian_restaurant,"indonesian_restaurant, restaurant, food",5,4,,,,,,
ChIJYY1u0FE50i0RLWCDyeL5hdE,Angkringan 210 Bali,-8.606675000000001,115.14534230000001,"94VW+84P, Jl. Raya Munggu-Kapal, Cepaka, Kec. Kediri, Kabupaten Tabanan, Bali 80351, Indonesia",https://maps.google.com/?cid=15097748078268211245,OPERATIONAL,,indonesian_restaurant,"indonesian_restaurant, restaurant, food",4.5,4,,,,,,
ChIJu1ou_ak50i0Rh1Wwn98XyAY,Warung Bu Santi,-8.6090655,115.14135439999998,"94RR+9GH, Jl. Raya Munggu, Cepaka, Kec. Kediri, Kabupaten Tabanan, Bali 80351, Indonesia",https://maps.google.com/?cid=488666808793978247,OPERATIONAL,,restaurant,"restaurant, food",,,,,,,,
ChIJ8SP7yVE50i0RkxP2ZO9x3yc,Villa Kayubatu,-8.6066381,115.1446527,"94VV+8VR, Cepaka, Kediri, Tabanan Regency, Bali 80351, Indonesia",https://maps.google.com/?cid=2873140360290636691,OPERATIONAL,,lodging,lodging,4.7,6,,Ok,,,,
ChIJl1ERbAc50i0RYl7q6jzBjfI,Lalapan Bu Dinda,-8.607887200000002,115.14261309999999,"94RV+R2X, Jl. Raya Munggu-Kapal, Cepaka, Kec. Kediri, Kabupaten Tabanan, Bali 80351, Indonesia",https://maps.google.com/?cid=17477838196278189666,OPERATIONAL,+62 813-3830-0529,indonesian_restaurant,"indonesian_restaurant, restaurant, food",4.4,23,,,,,,
ChIJQ0otcro50i0RKltQQUGwXSc,Masakan Padang Chaniago,-8.6068307,115.1454435,"94VW+758, Jalan Raya, Kapal, Munggu, Kec. Mengwi, Kabupaten Badung, Bali 80351, Indonesia",https://maps.google.com/?cid=2836617134628428586,OPERATIONAL,+62 857-9288-8252,indonesian_restaurant,"indonesian_restaurant, restaurant, food",4.1,9,,Tasty and best price.,,,,
ChIJa-5YTOc50i0RtPZzaNoktFI,Rumah pojok cempaka,-8.605934999999999,115.145136,"94VW+J5H, Rumah No.1, Cepaka, Kec. Kediri, Kabupaten Tabanan, Bali 80351, Indonesia",https://maps.google.com/?cid=5959428727391909556,OPERATIONAL,,art_gallery,"art_gallery, private_guest_room, lodging",,,,,,,,
ChIJi_ZgQ6g50i0RmYWlR4PYs7E,Villa 88 Munggu,-8.606335099999999,115.13936059999999,"94VQ+FP9, Kaba-Kaba, Kediri, Tabanan Regency, Bali 80351, Indonesia",https://maps.google.com/?cid=12804816223898797465,OPERATIONAL,+62 852-0529-9666,lodging,lodging,4,13,,Good,Nice place,,,
ChIJycoyAAc50i0R9tGeXh1FUzc,Warung Sate Muslim Madura,-8.6072317,115.14389889999998,"Mangwi, 94VV+4H2, Jl. Raya Munggu-Kapal, Cepaka, Kec. Kediri, Kabupaten Badung, Bali 80351, Indonesia",https://maps.google.com/?cid=3986606087596855798,OPERATIONAL,+62 878-7051-1310,indonesian_restaurant,"indonesian_restaurant, restaurant, food",,,,,,,,
ChIJA_Db9wY50i0RYEcrwcQe-Ho,Berkah Restaurant,-8.6068689,115.1455927,"Mangwi, 94VW+764, Jl. Raya Munggu-Kapal, Cepaka, Kec. Kediri, Kabupaten Badung, Bali 80351, Indonesia",https://maps.google.com/?cid=8860866097254713184,OPERATIONAL,+62 858-2917-0679,indonesian_restaurant,"indonesian_restaurant, restaurant, food",5,2,,,,,,
ChIJ09HoBwc50i0RIdAV4avF4rA,NFC (Nico Jaya Fried Chicken) Munggu,-8.6067389,115.1449274,"94VV+8X3, Jl. Raya Munggu-Kapal, Cepaka, Kec. Kediri, Kabupaten Tabanan, Bali 80351, Indonesia",https://maps.google.com/?cid=12745967237418307617,OPERATIONAL,+62 858-5750-7190,fast_food_restaurant,"fast_food_restaurant, restaurant, food",4.1,14,,,,,,
ChIJv_p3FzI50i0RqR2blbwdsss,Kubu suarjaya,-8.608790899999999,115.1433928,"Jl. Sri Wedari VIII No.11, Cepaka, Kec. Kediri, Kabupaten Tabanan, Bali 80351, Indonesia",https://maps.google.com/?cid=14677826831354895785,OPERATIONAL,,lodging,lodging,5,2,,,,,,
ChIJjyZmMcs50i0Rk46ueub66Qw,Kos ibu tutik,-8.6080318,115.14278219999998,"Jl. Raya Munggu-Kapal No.22 C, Cepaka, Kec. Kediri, Kabupaten Tabanan, Bali 80351, Indonesia",https://maps.google.com/?cid=930550665836400275,OPERATIONAL,,,lodging,,,,,,,,
