id,name,latitude,longitude,address,url,status,phone,primary-type,types,rating,rating-count,price-level,review 1,review 2,review 3,review 4,review 5
ChIJ0f8yAYeR0S0RSiZ6D2LtPLc,SeblakSingaraja,-8.144351499999999,115.10506780000001,"V444+724, Sukasada, Buleleng Regency, Bali 81161, Indonesia",https://maps.google.com/?cid=13203689212965693002,OPERATIONAL,+62 812-3789-0700,cafe,"cafe, food",5,1,,,,,,
ChIJB7p47hWR0S0Rdf0b_4wo8Lw,Baliku Villa,-8.143074,115.1056246,"Jl. Jelantik Gingsir, Sukasada, Kec. Sukasada, Kabupaten Buleleng, Bali 81161, Indonesia",https://maps.google.com/?cid=13614426259581566325,OPERATIONAL,+62 812-3637-5840,lodging,lodging,4.5,4,,Peacefull sanctuary vibe,,,,
ChIJL-hRgaCR0S0RjLLdDnBeatA,Warung Sate Cak Anang,-8.1447488,115.1048953,"Jl. Jelantik Gingsir No.131, Sukasada, Kec. Sukasada, Kabupaten Buleleng, Bali 81161, Indonesia",https://maps.google.com/?cid=15017919742799098508,OPERATIONAL,+62 877-0325-5343,indonesian_restaurant,"indonesian_restaurant, restaurant, food",,,,,,,,
ChIJwUXzsJ6R0S0R2EuQvcv2-K0,Kepigi Farm,-8.141605,115.10525000000001,"V453+5WV, Jl. Jelantik Gingsir, Sukasada, Kec. Sukasada, Kabupaten Buleleng, Bali 81161, Indonesia",https://maps.google.com/?cid=12536040917704920024,OPERATIONAL,+62 818-0318-3439,park,park,,,,,,,,
ChIJI3T-90OR0S0RcnrJYlTFnN0,Kembar laundry,-8.144090499999999,115.10462679999999,"Jl. Jelantik Gingsir No.119, Sukasada, Kec. Sukasada, Kabupaten Buleleng, Bali 81161, Indonesia",https://maps.google.com/?cid=15968855344974232178,OPERATIONAL,+62 819-1384-6188,bar,"night_club, bar",5,2,,Good proses,Nice,,,
ChIJVVSIt-KR0S0RnBYqXbtTCFM,Mr.Tom's,-8.145791800000001,115.10520620000001,"Jl. Jelantik Gingsir No.131, Sukasada, Kec. Sukasada, Kabupaten Buleleng, Bali 81161, Indonesia",https://maps.google.com/?cid=5983124169148733084,CLOSED_TEMPORARILY,+62 877-2983-4866,bar,bar,,,,,,,,
ChIJXTahMnCQ0S0Rd7jFcxWOPGs,"Warung ""Pak Jery""",-8.1458624,115.1051783,"V434+M33, Jl. Jelantik Gingsir, Sukasada, Kec. Sukasada, Kabupaten Buleleng, Bali 81161, Indonesia",https://maps.google.com/?cid=7727207283448723575,CLOSED_TEMPORARILY,,restaurant,"restaurant, food",,,,,,,,
