id,name,latitude,longitude,address,url,status,phone,primary-type,types,rating,rating-count,price-level,review 1,review 2,review 3,review 4,review 5
ChIJsfk5LvEP0i0R_kw_YB-O3Ps,Banjar dinas bengkel,-8.5278906,115.48959959999999,"FFCQ+RRX, Jl. Letda arti, Antiga Kelod, Kec. Manggis, Kabupaten Karangasem, Bali 80871, Indonesia",https://maps.google.com/?cid=18148536863806147838,OPERATIONAL,,park,park,5,10,,,,,,
ChIJnyogNCAP0i0Ryhh4DpygjfU,Warung lempog legenda,-8.527990299999999,115.4900018,"FFCR+R22, Jl. Letda Arti, Antiga Kelod, Kec. Manggis, Kabupaten Karangasem, Bali 80811, Indonesia",https://maps.google.com/?cid=17693975103126640842,OPERATIONAL,+62 877-6126-3487,breakfast_restaurant,"breakfast_restaurant, restaurant, food",5,1,,,,,,
ChIJy4ZjRswP0i0RreXiUW_upys,Home Gebor,-8.5284623,115.4865082,"FFCP+JJ6, Jl. Panggung, Antiga Kelod, Kec. Manggis, Kabupaten Karangasem, Bali 80871, Indonesia",https://maps.google.com/?cid=3145745026624185773,OPERATIONAL,,private_guest_room,"private_guest_room, lodging",,,,,,,,
ChIJ8ZB2-aEP0i0R-NEd0e-eQD8,kandang beten tengulun,-8.530163800000002,115.4877612,"FFCQ+3GC, Antiga Kelod, Manggis, Karangasem Regency, Bali 80871, Indonesia",https://maps.google.com/?cid=4557817575741706744,OPERATIONAL,,historical_landmark,historical_landmark,,,,,,,,
ChIJRS90nIQP0i0RcFt_vP_ZiXQ,Home stay Riko,-8.5301136,115.4878115,"FFCQ+3GC, Antiga Kelod, Manggis, Karangasem Regency, Bali 80871, Indonesia",https://maps.google.com/?cid=8397482672611351408,OPERATIONAL,+62 831-1900-7337,bed_and_breakfast,"bed_and_breakfast, lodging",,,,,,,,
ChIJy5g2YXMP0i0RABUBpxoBL7o,Home Sweet,-8.5244851,115.48802979999999,"FFGQ+662, Jl. Panggung, Antiga Kelod, Kec. Manggis, Kabupaten Karangasem, Bali 80871, Indonesia",https://maps.google.com/?cid=13415943028942640384,OPERATIONAL,,private_guest_room,"private_guest_room, lodging",,,,,,,,
ChIJkdbExakP0i0RLYTyX8i40ds,Rumah Sopi (sovia&pina),-8.524149999999999,115.4882167,"FFGQ+87W, Antiga Kelod, Manggis, Karangasem Regency, Bali 80871, Indonesia",https://maps.google.com/?cid=15839644535181444141,OPERATIONAL,,private_guest_room,"private_guest_room, lodging",5,1,,Good place ðŸ’•,,,,
ChIJy6Cvi2EP0i0RTbm05c-pGX8,Warung yan dangin,-8.5248743,115.48935480000002,"Jl. Setra, Antiga Kelod, Kec. Manggis, Kabupaten Karangasem, Bali 80871, Indonesia",https://maps.google.com/?cid=9158538027611765069,OPERATIONAL,+62 878-6502-1957,meal_takeaway,"meal_takeaway, restaurant, food",,,,,,,,
ChIJU-I84TkP0i0R1-zhcaXIOfI,Sempol ayam Man Ayu,-8.5311995,115.48537710000001,"Br, Jl. Panggung, Gegelang, Kec. Manggis, Kabupaten Karangasem, Bali 80871, Indonesia",https://maps.google.com/?cid=17454202443756858583,OPERATIONAL,+62 859-3509-2988,meal_takeaway,"meal_takeaway, restaurant, food",5,1,,,,,,
