id,name,latitude,longitude,address,url,status,phone,primary-type,types,rating,rating-count,price-level,review 1,review 2,review 3,review 4,review 5
ChIJe-j9PVcz0i0RO9Wu1lo44qg,PONDOK SEMAJA,-8.5072704,114.99175849999999,"Unnamed Road, FXVR+3PR, Bengkel Sari, Kec. Selemadeg Bar., Kabupaten Tabanan, Bali 82162, Indonesia",https://maps.google.com/?cid=12169351105908495675,OPERATIONAL,,lodging,lodging,5,1,,,,,,
ChIJh8nOzK0t0i0RFK1m8y__ALM,Rumah DEK ODENG GANTENG,-8.503288,114.9950523,"FXWW+M2, Bengkel Sari, Selemadeg Barat, Tabanan Regency, Bali 82162, Indonesia",https://maps.google.com/?cid=12898589914201238804,OPERATIONAL,,,lodging,,,,,,,,
ChIJeaOdtB8z0i0RgTASoJfDXYk,Kampung,-8.5060066,114.9889484,"FXVQ+HHW, Bengkel Sari, Selemadeg Barat, Tabanan Regency, Bali, Indonesia",https://maps.google.com/?cid=9898282612023242881,OPERATIONAL,,park,park,,,,,,,,
ChIJf5ro9aAz0i0Rnlx3r2WP-BA,House,-8.5059884,114.98896110000001,"FXVQ+JH4, Bengkel Sari, Selemadeg Barat, Tabanan Regency, Bali, Indonesia",https://maps.google.com/?cid=1222884965729393822,OPERATIONAL,,park,park,,,,,,,,
ChIJ4bMyqEct0i0RephsFRUmh1o,Rumah wo kulik,-8.5018038,114.9937446,"FXXV+HH5, Bengkel Sari, Selemadeg Barat, Tabanan Regency, Bali, Indonesia",https://maps.google.com/?cid=6523224457265059962,OPERATIONAL,,hotel,"hotel, lodging",,,,,,,,
ChIJKWSUoIwz0i0RUIYLzEhL6-M,Umahne Putu,-8.505277999999999,114.994397,"FXVV+VQ, Bengkel Sari, Selemadeg Barat, Tabanan Regency, Bali, Indonesia",https://maps.google.com/?cid=16423303242169681488,OPERATIONAL,,hotel,"hotel, lodging",,,,,,,,
ChIJA_eUgYIz0i0Rmm6hUbqQEH0,Pondok Manuaba,-8.5062484,114.98882579999999,"FXVQ+FGQ, Dusun Semaja, Bengkel Sari, Kec. Selemadeg Bar., Kabupaten Tabanan, Bali 82162, Indonesia",https://maps.google.com/?cid=9011861984276213402,OPERATIONAL,,private_guest_room,"private_guest_room, lodging",,,,,,,,
ChIJKb7fdwAz0i0Ri-GbHvheoMw,Rumah Anna & Ani,-8.5072704,114.99175849999999,"FXVR+3PR, Br. Semaja, Bengkel Sari, Kec. Selemadeg Bar., Kabupaten Tabanan, Bali 82162, Indonesia",https://maps.google.com/?cid=14744889599769436555,OPERATIONAL,,bed_and_breakfast,"bed_and_breakfast, lodging",,,,,,,,
