id,name,latitude,longitude,address,url,status,phone,primary-type,types,rating,rating-count,price-level,review 1,review 2,review 3,review 4,review 5
ChIJVwHY8H1j0S0RJsUItCb11V4,Nirwana Garden Bali,-8.3312928,114.63964509999998,"MJ9Q+FVJ, Jl. Sawe Rangsasa, Dauhwaru, Kec. Jembrana, Kabupaten Jembrana, Bali 82218, Indonesia",https://maps.google.com/?cid=6833637556182631718,OPERATIONAL,,park,park,4.7,266,,Beautiful and quiet place with a lot of small interesting details! Great for taking a walk and making photos.,Beautiful garden with a mountains scenery and a lot of decorations for taking pictures. Restaurant and parking available.,Nice place! Maybe it's nice at night.,Nice place and cozy.. ‚ô•Ô∏è‚ô•Ô∏è‚ô•Ô∏è‚ô•Ô∏è,"Nice garden view for trip with family next holiday will come again...
Thanks you üôè
Succes for nirwana garden bali.."
ChIJ3Rc_Ajdi0S0RfKwLa2cND6U,Air Terjun Kayangan Sawe,-8.332804,114.63961800000001,"MJ8Q+VRH, Jl. Sawe Rangsasa, Dauhwaru, Kec. Jembrana, Kabupaten Jembrana, Bali 82218, Indonesia",https://maps.google.com/?cid=11893739878737489020,OPERATIONAL,,tourist_attraction,tourist_attraction,4.3,12,,Nice,,,,
ChIJgRY-JDRi0S0R8Rs-engDBys,Seni Jegog,-8.3298411,114.6390573,"MJCQ+3J7, Sawesuma, Unurum Guay, Jayapura, Papua, Indonesia",https://maps.google.com/?cid=3100450684449725425,OPERATIONAL,,tourist_attraction,tourist_attraction,4.2,17,,,,,,
ChIJCb28SGdj0S0RVuVUCVZK0VY,Paon Nirwana,-8.3327936,114.63962610000002,"MJ8Q+VVJ, Panji Sakti, Dauhwaru, Kec. Jembrana, Kabupaten Jembrana, Bali 82218, Indonesia",https://maps.google.com/?cid=6255863090778531158,OPERATIONAL,,indonesian_restaurant,"indonesian_restaurant, restaurant, food",4.6,22,,"Incredible grounds, huge gardens with mountains in the background, see my photos. We had the Udang Rambutan and the Kwetiau Goreng and shared the Pisang Goreng and an Ice Cream Goreng.","The experience was perfect. The food, the drinks, the service, and the scenery while enjoying all of those",,,
ChIJd2C0hsxj0S0R6P07fy1zrzI,Warung Lontong Buk Nyoman,-8.330185799999999,114.63922459999999,"MJ9Q+WMH, Jl. Sawe Rangsasa, Dauhwaru, Kec. Jembrana, Kabupaten Jembrana, Bali 82218, Indonesia",https://maps.google.com/?cid=3652264462066122216,OPERATIONAL,+62 859-6702-9049,restaurant,"restaurant, food",5,2,,,,,,
ChIJMa9kPc5j0S0RKJC7poJbSGw,KEDAI BINAHONG,-8.3342008,114.63944760000001,"MJ8Q+8Q8 Panji Sakti, Jl. Sawe Rangsasa, Dauhwaru, Kec. Jembrana, Kabupaten Jembrana, Bali 82218, Indonesia",https://maps.google.com/?cid=7802586971120570408,OPERATIONAL,+62 878-4298-4818,coffee_shop,"coffee_shop, cafe, store, food",,,,,,,,
ChIJ8Tzn7DVj0S0Rks_lb9yQwas,Gung Tut Darmayasa,-8.3327452,114.63963789999998,"MJ8Q+WV2, Jl. Sawe Rangsasa, Dauhwaru, Kec. Jembrana, Kabupaten Jembrana, Bali 82218, Indonesia",https://maps.google.com/?cid=12376332527435370386,OPERATIONAL,+62 878-6201-8533,,lodging,,,,,,,,
