id,name,latitude,longitude,address,url,status,phone,primary-type,types,rating,rating-count,price-level,review 1,review 2,review 3,review 4,review 5
ChIJd8DqUu870i0RAdKDbBLPMuc,Rama Shinta Garden,-8.5615738,115.1712283,"Jl. Raya Denpasar - Gilimanuk No.9a, Mengwitani, Kec. Mengwi, Kabupaten Badung, Bali 80351, Indonesia",https://maps.google.com/?cid=16659605649633825281,OPERATIONAL,,park,"park, tourist_attraction",4.5,1369,,"This monument in mengwi
Display Rama and Shinta are characters from the ancient Indian epic, the Ramayana. Rama is the prince of Ayodhya and is known for his righteousness and bravery, while Shinta (also known as Sita) is his devoted wife. In some cultures, statues or sculptures of Rama and Shinta are created to depict their love story and the values they represent, such as loyalty, honor, and devotion. These statues can be found in temples, shrines, and other places of worship, serving as symbols of love, virtue, and the triumph of good over evil. They are often depicted together, showcasing their eternal bond and the enduring nature of their love story.
Been renovated and maintain by government.",Good place for hanging out with family in the evening,"Idk what to write but the sad truth of lots of dogs in miserable conditions!

People just don't care!",A statue representing the story of Rama and Shinta.,"It's awesome, however, since it's located at T-junction so please beware of vehicles when crossing."
ChIJG3qZe9070i0R5r60W8_FL6k,Puspa sari,-8.5626951,115.1694208,"Mengwitani, Mengwi, Badung Regency, Bali 80351, Indonesia",https://maps.google.com/?cid=12191180210702696166,OPERATIONAL,+62 877-4532-8911,,lodging,3.9,42,,"Best for Shortime Ppl
So Comfort and Quite place üíì
I Love It",,,,
ChIJjSyc80A70i0RRKv-5XbQihk,Kopi Delter,-8.5608497,115.1684059,"Jl. Terminal, Mengwitani, Kec. Mengwi, Kabupaten Badung, Bali 80351, Indonesia",https://maps.google.com/?cid=1840512606817659716,OPERATIONAL,+62 812-2237-1239,coffee_shop,"coffee_shop, cafe, food, store",4.8,49,,Cozy place with cheap prices. Free wifi and table games,Nice n cozy place,Really well prepared coffee and friendly staff!,Best place to hangout,the pleasure and atmosphere is comfortableüëçüëçüëç
ChIJ78mVGSc70i0R1cqD-GVxxmY,Terima Kost,-8.5610143,115.16995839999998,"C5Q9+HXW depan pemadam kebakaran, Jl. Terminal, Mengwitani, Kec. Mengwi, Kabupaten Badung, Bali 80351, Indonesia",https://maps.google.com/?cid=7405731320032381653,OPERATIONAL,+62 831-1467-5966,hostel,"hostel, lodging",4.9,14,,,,,,
ChIJ5SZ-q-470i0RpZkbseWtMz4,Lalapan Rafi,-8.557379899999999,115.1712996,"C5VC+2GV, Jl. Gusti Ngurahrai, Mengwitani, Kec. Mengwi, Kabupaten Badung, Bali 80351, Indonesia",https://maps.google.com/?cid=4482117256194267557,OPERATIONAL,+62 812-3662-899,restaurant,"restaurant, food",4.7,19,,,,,,
ChIJqXP7FVo70i0RBYbcHMv1J5k,Kost Eksklusif Mengwi,-8.5614476,115.16879000000002,"Gg. Sentanu No.1, Mengwitani, Kec. Mengwi, Kabupaten Badung, Bali 80351, Indonesia",https://maps.google.com/?cid=11036059664606070277,OPERATIONAL,+62 821-8262-4035,private_guest_room,"private_guest_room, lodging",,,,,,,,
ChIJp5eaOAY70i0RNXchRh71zsg,So Bakso (Dalam Terminal Bus Mengwi),-8.5598751,115.1683356,"C5R9+28W, Mengwitani, Mengwi, Badung Regency, Bali, Indonesia",https://maps.google.com/?cid=14469772163162404661,OPERATIONAL,,indonesian_restaurant,"indonesian_restaurant, restaurant, food",5,1,,,,,,
ChIJ4yzNTe870i0Rj3Y0B1Oq5yg,Traffic Light Bar & Food Court,-8.561350599999999,115.17131769999999,"C5QC+FG4, Jalan, Mengwitani, Kec. Mengwi, Kabupaten Badung, Bali 80351, Indonesia",https://maps.google.com/?cid=2947511754717165199,OPERATIONAL,+62 821-4749-2030,bar,bar,4.6,49,,"Selling foos with low price, Close with Mengwi Bus Station!",Nice,Good,Good,
ChIJj4FjuAM70i0R8NF6_VT_Qzs,Travel Murah Bali - Jawa dan Rental Mobil plus Supir,-8.5611741,115.17108250000001,"Mengwitani, Mengwi, Badung Regency, Bali 80351, Indonesia",https://maps.google.com/?cid=4270537612172382704,OPERATIONAL,+62 812-3788-8848,car_rental,"car_rental, travel_agency",4.9,36,,"Using This services very satisfiying. The car is clean and in good condition, the driver very friendly and know the tourist sites, and most important things is on time. Thank you pak Ari, hope we will meet again soon.. üëç",recomended 5 stars,,,
ChIJdbdk4-o70i0RIKJXy8nuvbQ,warung bakso aduhay,-8.5605295,115.16548689999998,"Jalan Raya terminal Mengwi No.99x, Mengwitani, Kec. Mengwi, Kabupaten Badung, Bali 80351, Indonesia",https://maps.google.com/?cid=13023828247892697632,OPERATIONAL,+62 895-3306-31990,indonesian_restaurant,"brunch_restaurant, indonesian_restaurant, restaurant, food",5,4,,,,,,
ChIJl7p1NAs70i0Rf9wsB21TmCU,KingCrab.Bali,-8.5616705,115.16754759999999,"Jl. Wisnu Gg. Sentanu, Mengwitani, Kec. Mengwi, Kabupaten Badung, Bali 80351, Indonesia",https://maps.google.com/?cid=2709006903600274559,OPERATIONAL,+62 896-3797-9613,seafood_restaurant,"seafood_restaurant, restaurant, food",,,,,,,,
ChIJEYYZSaw70i0R3XolbApIRfQ,Patung wisnu,-8.5601238,115.1709977,"C5QC+X95, Mengwitani, Mengwi, Badung Regency, Bali, Indonesia",https://maps.google.com/?cid=17601553928248720093,OPERATIONAL,,tourist_attraction,tourist_attraction,,,,,,,,
ChIJ--PPteg70i0Rg7zbtrQIADg,Warung Jawa Ketapang,-8.5611787,115.17112709999999,"Gg. Dasaratha No.1, Mengwitani, Kec. Mengwi, Kabupaten Badung, Bali 80351, Indonesia",https://maps.google.com/?cid=4035234838378953859,OPERATIONAL,+62 812-3788-8848,indonesian_restaurant,"indonesian_restaurant, restaurant, food",5,4,,,,,,
ChIJF5w8b0o70i0R8tnrQyEMZko,Bali Outdoor Camp,-8.559992800000002,115.17150469999999,"Gg. Anggrek, Mengwitani, Kec. Mengwi, Kabupaten Badung, Bali 80351, Indonesia",https://maps.google.com/?cid=5360985743444138482,OPERATIONAL,+62 877-3018-6682,hiking_area,"hiking_area, park",5,9,,Great,,,,
ChIJoRH8ROg70i0RvI2xbWJq0mY,BAKSO AYAM GOYANG LIDAH,-8.5606822,115.1672655,"C5Q8+PWC, Jalan Terminal, Mengwitani, Kec. Mengwi, Kabupaten Badung, Bali 80351, Indonesia",https://maps.google.com/?cid=7409101307957579196,OPERATIONAL,+62 821-4766-5560,indonesian_restaurant,"indonesian_restaurant, restaurant, food",4.8,4,,,,,,
ChIJyyschus70i0RvOsYZOJ92pE,Warung Mampir Boss + Car,-8.5551923,115.1708279,"C5VC+W8G, Jl. I. Gusti Ngurahrai-Mengwi, Mengwitani, Kec. Mengwi, Kabupaten Badung, Bali 80351, Indonesia",https://maps.google.com/?cid=10509851091717909436,OPERATIONAL,+62 858-5706-3151,indonesian_restaurant,"indonesian_restaurant, restaurant, food",4.5,64,,Masakan Chinese food & seafood yg recommended..,The food has big portions but unfortunately the taste is little bit plain. Halal food InsyaAllah,"Clean place, tasty and cheap food. Very friendly and nice woman is serving and cooking.",Really nice place! Good and cheap food! Recommended,Okay good
ChIJDyy6Cuw70i0R1mKAN7lN2pI,Masakan Padang Lalapan 5758,-8.5558538,115.17122049999999,"Mengwitani, Mengwi, Badung Regency, Bali, Indonesia",https://maps.google.com/?cid=10581855732355850966,OPERATIONAL,,restaurant,"restaurant, indonesian_restaurant, food",4.1,24,,jengkol is a must,,,,
ChIJJVlB7ns70i0RCcu9fl7Hw7s,Warung Makan Betutu Anugerah,-8.5592515,115.17182179999999,"Gg. Pacah, Mengwitani, Kec. Mengwi, Kabupaten Badung, Bali 80351, Indonesia",https://maps.google.com/?cid=13529876914218322697,OPERATIONAL,+62 878-5888-6298,restaurant,"restaurant, food",5,3,,,,,,
ChIJA_RQNwA70i0RXGPKjED2_bk,Griya ayodia,-8.5611092,115.1700268,"C5QC+H22, Jl terminal, Mengwi, Kec. Mengwi, Kabupaten Badung, Bali, Indonesia",https://maps.google.com/?cid=13402138823224877916,OPERATIONAL,,hostel,"hostel, lodging",5,1,,"Nice for stay here, location is strategic",,,,
ChIJV93MDjo70i0Rkl9RFJ-uTBk,Warung Ketapang travel,-8.5611714,115.17102790000001,"Jl. I. Gusti Ngurahrai-Mengwi No.1, Mengwitani, Kec. Mengwi, Kabupaten Badung, Bali 80351, Indonesia",https://maps.google.com/?cid=1823023947442118546,OPERATIONAL,,restaurant,"restaurant, food",5,8,,,,,,
