id,name,latitude,longitude,address,url,status,phone,primary-type,types,rating,rating-count,price-level,review 1,review 2,review 3,review 4,review 5
ChIJV92s5HbZ0y0RpziiH2wlqwA,Hotel Widja,-8.405043800000001,114.64041479999999,"HJVR+X5M, Jl. Delod Brawah, Air Kuning, Kec. Jembrana, Kabupaten Jembrana, Bali 82218, Indonesia",https://maps.google.com/?cid=48173367334942887,OPERATIONAL,,hotel,"hotel, lodging",3.5,4,,,,,,
ChIJ8dC-ioLZ0y0RAZXDJc5R7HM,Mie Cabe Cabean,-8.401960299999999,114.6407114,"HJXR+678, Air Kuning, Jembrana, Jembrana Regency, Bali, Indonesia",https://maps.google.com/?cid=8353141354704114945,CLOSED_TEMPORARILY,+62 896-0554-3974,restaurant,"restaurant, food",5,1,,,,,,
ChIJD_H9Q2HZ0y0R7u0IIDS-_cc,Warung M'byok Lina,-8.403335199999999,114.6415584,"Jl. Delod Brawah Jl. Air Kuning, Air Kuning, Kec. Jembrana, Kabupaten Jembrana, Bali 82218, Indonesia",https://maps.google.com/?cid=14410883513740488174,OPERATIONAL,,restaurant,"restaurant, food",4,1,,,,,,
ChIJD9E1oOPZ0y0R-JTIzJcWUXQ,BAKSO LAROSA,-8.402618200000001,114.64577799999999,"HJWW+X82, Jl. Air Kuning, Air Kuning, Kec. Jembrana, Kabupaten Jembrana, Bali, Indonesia",https://maps.google.com/?cid=8381505222744773880,OPERATIONAL,,restaurant,"restaurant, food",5,1,,,,,,
ChIJs5HOpWzZ0y0RVTX5dbfqWr4,Warung Kembar Jawa,-8.4027612,114.64592039999998,"HJWW+VCQ, Air Kuning, Jembrana, Jembrana Regency, Bali, Indonesia",https://maps.google.com/?cid=13716533688789448021,OPERATIONAL,,indonesian_restaurant,"indonesian_restaurant, restaurant, food",5,2,,,,,,
