id,name,latitude,longitude,address,url,status,phone,primary-type,types,rating,rating-count,price-level,review 1,review 2,review 3,review 4,review 5
ChIJ2TZISaAv0i0RnTL0S7fGAQg,Warung Mbah Angga,-8.484483299999999,115.0635282,"G387+6C2, Gunung Salak, Selemadeg Timur, Tabanan Regency, Bali 82162, Indonesia",https://maps.google.com/?cid=576960717835743901,OPERATIONAL,,private_guest_room,"private_guest_room, lodging",5,1,,,,,,
ChIJU1XY3aAv0i0RkGOdW5ILx_M,Tanah Gideon Samuel,-8.486063999999999,115.0659408,"G378+H9G, Jl. Desa Gadungan, Dalang, Kec. Selemadeg Tim., Kabupaten Tabanan, Bali 82162, Indonesia",https://maps.google.com/?cid=17566021594812081040,OPERATIONAL,,park,park,4.5,2,,River front with mountain view.,,,,
ChIJHQdavG0v0i0R7RCnmHd_4H0,Tanah Sheila,-8.488007,115.06537100000001,"G368+Q4, Dalang, Selemadeg Timur, Tabanan Regency, Bali 82162, Indonesia",https://maps.google.com/?cid=9070389801163100397,OPERATIONAL,,campground,"campground, lodging, park",,,,,,,,
ChIJVehqa1gv0i0RA3-H2IBQIMc,DnR Mantul,-8.4872427,115.06264519999999,"Br Gunung Salak Desa Gunung Salak, Selemadeg Timur Gg 1 Jl. Gunung Salak = Kemetug, Gn. Salak, Kec. Selemadeg Tim., Kabupaten Tabanan, Bali 82160, Indonesia",https://maps.google.com/?cid=14348556927121194755,OPERATIONAL,+62 857-9275-9873,coffee_shop,"coffee_shop, cafe, store, food",,,,,,,,
ChIJyxnFPJUv0i0R4eX3hwL1hdw,Warung shiva,-8.483982,115.0624859,"82162, Gn. Salak, Kec. Selemadeg Tim., Kabupaten Tabanan, Bali 82162, Indonesia",https://maps.google.com/?cid=15890376251466573281,CLOSED_TEMPORARILY,,coffee_shop,"coffee_shop, cafe, store, food",,,,,,,,
