id,name,latitude,longitude,address,url,status,phone,primary-type,types,rating,rating-count,price-level,review 1,review 2,review 3,review 4,review 5
ChIJUWEXxFnW0y0R48eDILG5G6o,Merta Asih Mini Cafe,-8.3937463,114.77454890000001,"JQ4F+GR3, Yeh Embang Kangin, Mendoyo, Jembrana Regency, Bali 82261, Indonesia",https://maps.google.com/?cid=12257594981224794083,OPERATIONAL,+62 817-4773-154,cafe,"cafe, food",4,3,,,,,,
ChIJg0mlYwDX0y0ReqAZz3AZ4Fk,Warung ayu,-8.392142999999999,114.7747554,"JQ5G+646, Yeh Embang Kangin, Mendoyo, Jembrana Regency, Bali 82216, Indonesia",https://maps.google.com/?cid=6476204236460367994,OPERATIONAL,,brunch_restaurant,"brunch_restaurant, restaurant, food",,,,,,,,
ChIJdabXBQDX0y0RwASTNW9c_G8,Adu nasib,-8.3925083,114.77328940000001,"JQ4F+X8V, Banjar tegak gede, Yeh Embang Kangin, Kec. Mendoyo, Kabupaten Jembrana, Bali, Indonesia",https://maps.google.com/?cid=8069426265051038912,OPERATIONAL,,private_guest_room,"private_guest_room, lodging",,,,,,,,
ChIJZzbHHADX0y0Rug0AZpZlBwk,Dapoer Mamak DesthaðŸ«•,-8.3923434,114.7757806,"JQ5G+H5P, Yeh Embang Kangin, Mendoyo, Jembrana Regency, Bali 82261, Indonesia",https://maps.google.com/?cid=650600367809105338,OPERATIONAL,,brunch_restaurant,"brunch_restaurant, restaurant, food",4.8,4,,,,,,
ChIJO-VT7tPX0y0ROT09_JL-dT0,Warung Nantha,-8.397196899999999,114.77195580000001,"Br. Tegak gede, Ds, JQ3C+4QG, Yeh Embang Kangin, Negara, Kabupaten Jembrana, Bali 82261, Indonesia",https://maps.google.com/?cid=4428725715839302969,OPERATIONAL,+62 813-3862-6303,restaurant,"restaurant, food",3.8,4,,,,,,
ChIJI_yhsy3X0y0RyhrCdYIoiGw,Warung Makan B'CEK,-8.3903039,114.7756636,"Unnamed Road, JQ5G+V7F, Yeh Embang Kangin, Kec. Mendoyo, Kabupaten Jembrana, Bali 82261, Indonesia",https://maps.google.com/?cid=7820545293715380938,OPERATIONAL,+62 878-6113-8901,restaurant,"restaurant, food",4,4,,,,,,
