id,name,latitude,longitude,address,url,status,phone,primary-type,types,rating,rating-count,price-level,review 1,review 2,review 3,review 4,review 5
ChIJ09zMXTEV0i0RUVuxhX9l9bo,Desa wisata blangsinga ᬤᬰᬯᬶᬲᬢᬩ᭄ᬮᬗ᭄ᬲᬶᬗ᭟,-8.5755384,115.2918956,"C7FR+QQJ, Jl. Raya Blangsinga, Saba, Kec. Blahbatuh, Kabupaten Gianyar, Bali 80581, Indonesia",https://maps.google.com/?cid=13471785458726951761,OPERATIONAL,,tourist_attraction,tourist_attraction,4.8,12,,,,,,
ChIJkT7lJgAV0i0RRuHhfeq1kcY,Krisna Adventure Blangsinga,-8.5754205,115.29175930000001,"C7FR+RPJ, Saba, Blahbatuh, Gianyar Regency, Bali, Indonesia",https://maps.google.com/?cid=14308417509871706438,OPERATIONAL,+62 811-3982-341,tourist_attraction,tourist_attraction,5,3,,,,,,
ChIJT7_q8e8V0i0RetHrFBWb068,Warung Jojol ᬯᬭᬸᬂᬚᭀᬚᭀᬮ᭄‌,-8.574173,115.29663599999998,"C7GW+8MJ, Jl. Pantai Jl. Raya Blangsinga, Saba, Kec. Blahbatuh, Kabupaten Gianyar, Bali 80581, Indonesia",https://maps.google.com/?cid=12669640691570954618,OPERATIONAL,+62 815-5856-7638,restaurant,"restaurant, food",4.5,167,PRICE_LEVEL_INEXPENSIVE,"Nice view, yummy food ❤️","Ayam bakar are must try item!

Ikan bakar delicious too, but it was fried first before bbq.",Cheat food. Mostly local eat here. The food and juices is fresh and cheap.,Secret tip for Bali tapas,The menu is delicious and the price is effordable
ChIJjaB9JBIV0i0RcBV5vtYWI9U,JFC Blangsinge,-8.5720498,115.29675979999999,"Jalan Pantai Saba desa Benbiu, C7HW+5PJ, Saba, Blahbatuh, Gianyar Regency, Bali 80581, Indonesia",https://maps.google.com/?cid=15358144265837942128,OPERATIONAL,,fast_food_restaurant,"fast_food_restaurant, restaurant, food",4.4,18,,"local, ameeican style fried chicken",,,,
ChIJpytQiEUV0i0RXuUSDsGorFs,"Petrashop pertamina dan kos""an",-8.5776029,115.2960917,"C7CW+XC4, Jl. Pantai Saba, Saba, Kec. Blahbatuh, Kabupaten Gianyar, Bali 80581, Indonesia",https://maps.google.com/?cid=6605840300563948894,OPERATIONAL,+62 878-6213-9841,gas_station,"gas_station, hotel, lodging",,,,,,,,
ChIJVdFUrPoV0i0RYaXlL_cxOJE,Warung Makan Deani,-8.573285799999999,115.2954856,"C7GW+M5Q, Jl. Raya Blangsinga, Saba, Kec. Blahbatuh, Kabupaten Gianyar, Bali 80581, Indonesia",https://maps.google.com/?cid=10464168671925609825,OPERATIONAL,+62 858-5889-4042,indonesian_restaurant,"indonesian_restaurant, restaurant, food",4.7,21,,Amazing food and amazing owners,This is good food,Good place and food,Good Food Producer,Good Food
ChIJd_4OksUV0i0RlW9RrgSQKSg,Dewata ayam geprek,-8.5715372,115.2968993,"Jl. Raya Blangsinga, Saba, Kec. Blahbatuh, Kabupaten Gianyar, Bali 80511, Indonesia",https://maps.google.com/?cid=2894002585341095829,OPERATIONAL,+62 852-3777-3444,indonesian_restaurant,"indonesian_restaurant, restaurant, food",,,,,,,,
ChIJkRenvFMV0i0R9z2z5auPj2U,Bakso Mie Ayam Cak Ipung,-8.5701585,115.29682559999998,"Jl. Pantai Saba No.2-4, Saba, Kec. Blahbatuh, Kabupaten Gianyar, Bali 80581, Indonesia",https://maps.google.com/?cid=7318225887956254199,OPERATIONAL,,indonesian_restaurant,"indonesian_restaurant, restaurant, food",5,1,,,,,,
ChIJ3_um038V0i0RWQ5BZ4cCQD8,WARUNG BABI GULING NANG LINDUNG,-8.573260699999999,115.29563710000001,"C7GW+M5Q, Jl. Raya Blangsinga, Saba, Kec. Blahbatuh, Kabupaten Gianyar, Bali 80581, Indonesia",https://maps.google.com/?cid=4557645603475099225,OPERATIONAL,+62 819-1638-0501,breakfast_restaurant,"breakfast_restaurant, restaurant, food",5,16,,,,,,
ChIJVy0Fw3AV0i0RpPB5RLgN-yE,Babi Guling Buk Amel,-8.5759057,115.2920166,"Jl. Raya Blangsinga, Saba, Kec. Blahbatuh, Kabupaten Gianyar, Bali 80581, Indonesia",https://maps.google.com/?cid=2448565907479982244,OPERATIONAL,+62 813-5330-7252,indonesian_restaurant,"indonesian_restaurant, restaurant, food",4.6,7,,"Food was delicious but I don’t like that they have two pricing system for locals and tourists. Our driver took us here saying it’s a cheap local place for under R50K. However, we ended up paying R75k per dish. I know it’s not expensive but just don’t like the two pricing system or they should be up front about it.

We ate at other road side warugs and sate stalls etc and were charged the same price as locals.

Maybe we had our dish deconstructed, whereas the locals were all on the same plate.",,,,
ChIJq0wMXpkV0i0RenxmC5yunNo,Kubu Aris Sayonk,-8.5739027,115.29973909999998,"C8G2+H43, Blahbatuh, Gianyar Regency, Bali 80581, Indonesia",https://maps.google.com/?cid=15752657581864549498,OPERATIONAL,,bed_and_breakfast,"bed_and_breakfast, lodging",5,1,,,,,,
ChIJBYBERvMV0i0Rpmrr1V-UlkE,warung nini,-8.5715437,115.296762,"Jl. Pantai Saba, Saba, Kec. Blahbatuh, Kabupaten Gianyar, Bali 80581, Indonesia",https://maps.google.com/?cid=4726127998303693478,OPERATIONAL,+62 878-6174-3990,restaurant,"restaurant, food",5,13,,,,,,
ChIJZwZR4PwV0i0R6gqNNG9LUGk,Wr Soto Ayam dan Ceker Batan Kendal,-8.573671899999999,115.29658289999998,"Jl. Pantai Saba, Saba, Kec. Blahbatuh, Kabupaten Gianyar, Bali 80581, Indonesia",https://maps.google.com/?cid=7588648313114397418,OPERATIONAL,,indonesian_restaurant,"indonesian_restaurant, restaurant, food",,,,,,,,
ChIJdRxh9z0V0i0ReTIw7EyZ8dY,KEDAI AWD 88 & NYUNGSEP BILLIARD CENTER,-8.5734114,115.293705,"Jl. Raya Blangsinga, Saba, Kec. Blahbatuh, Kabupaten Gianyar, Bali 80581, Indonesia",https://maps.google.com/?cid=15488329149162992249,OPERATIONAL,+62 812-3784-1844,brunch_restaurant,"brunch_restaurant, restaurant, food",,,,,,,,
ChIJf4pEYFUV0i0RDdfQWz2ITjY,Warung nasi jinggo Tu krisna,-8.5741614,115.2966448,"C7GW+8MJ, Saba, Blahbatuh, Gianyar Regency, Bali 80581, Indonesia",https://maps.google.com/?cid=3913214923346335501,OPERATIONAL,+62 819-9960-4915,restaurant,"restaurant, indonesian_restaurant, food",5,3,,,,,,
ChIJY7nEPuUV0i0R79uVcvdDcAY,Special Ceker Pedas,-8.5721042,115.2967774,"C7HW+5P2, Jl. Pantai Saba, Saba, Kec. Blahbatuh, Kabupaten Gianyar, Bali 80351, Indonesia",https://maps.google.com/?cid=463945491677567983,OPERATIONAL,+62 821-3950-7792,restaurant,"restaurant, food",5,4,,You'll get something different in here.. Better than others,,,,
ChIJCQL6HsQV0i0Rw06Qd-OFKQA,Maha Batagor dan Siomay,-8.5699425,115.2968676,"Br, C7JW+2PH, Jl. Raya Blangsinga, Saba, Kec. Blahbatuh, Kabupaten Gianyar, Bali 80581, Indonesia",https://maps.google.com/?cid=11687686055153347,OPERATIONAL,,restaurant,"restaurant, food",5,1,,,,,,
ChIJB22wCt4V0i0R41kygQuddEc,Warung Men Putu,-8.5715516,115.2967525,"C7HW+9PC, Jl. Pantai Saba, Saba, Kec. Blahbatuh, Kabupaten Gianyar, Bali 80582, Indonesia",https://maps.google.com/?cid=5148912946729081315,OPERATIONAL,+62 812-3894-2934,restaurant,"restaurant, food",4.3,3,,,,,,
ChIJ1bqne_AV0i0RQMthELghUoM,Warung Buk Dayu,-8.5743264,115.29314919999999,"C7GV+776, Saba, Blahbatuh, Gianyar Regency, Bali 80581, Indonesia",https://maps.google.com/?cid=9462662841491376960,OPERATIONAL,,restaurant,"restaurant, food",4.9,7,,,,,,
ChIJZ3G1QOwV0i0R7uHfw2aVJsE,Warung Dong Puk,-8.5716479,115.29548020000001,"Jl. Pantai Saba, Saba, Kec. Blahbatuh, Kabupaten Gianyar, Bali 80581, Indonesia",https://maps.google.com/?cid=13917975967040528878,OPERATIONAL,+62 812-3626-8075,restaurant,"restaurant, food",5,6,,,,,,
