id,name,latitude,longitude,address,url,status,phone,primary-type,types,rating,rating-count,price-level,review 1,review 2,review 3,review 4,review 5
ChIJS6RRw2Yt0i0RbgFgLT5chvw,Lumbung view,-8.4755871,114.9982475,"GXFX+Q79, Lumbung, Selemadeg Barat, Tabanan Regency, Bali 82162, Indonesia",https://maps.google.com/?cid=18196332766556062062,OPERATIONAL,,tourist_attraction,tourist_attraction,4.8,29,,Hidden gem at Tabanan area. Peace and quiet village.,"I think this is the one of the most beautiful landscape in Tabanan, Bali",Very nice views of the rice fields. Also a good place to stop and rest and grab snacks at the warung,"Great view, no crowds,  the ultimate balinese rice paddie experience.","Definitely not on any tourist route! Quiet, picturesque and a really lovely place to spend a few moments."
ChIJq7IXdTgv0i0RnAxZ-6d5W-4,Warung Jajung (ChikaPandya),-8.4765037,115.00068030000001,"G2F2+97V, Jln Desa, Lumbung, Kec. Selemadeg Bar., Kabupaten Tabanan, Bali 82162, Indonesia",https://maps.google.com/?cid=17175455366290934940,CLOSED_TEMPORARILY,+62 822-4628-6566,breakfast_restaurant,"breakfast_restaurant, restaurant, food",5,1,,,,,,
ChIJRYGpSwAv0i0RKhDSjawlMN4,Rumah Gung win,-8.472090099999999,115.00303040000001,"G2H3+566, Lumbung, Selemadeg Barat, Tabanan Regency, Bali 82162, Indonesia",https://maps.google.com/?cid=16010338098346070058,OPERATIONAL,,bed_and_breakfast,"bed_and_breakfast, lodging",5,1,,,,,,
ChIJJ6SsZwAv0i0RtXqS71iAyz8,View sawah,-8.4729539,115.00341429999997,"G2G3+R97, Lumbung, Selemadeg Barat, Tabanan Regency, Bali 82162, Indonesia",https://maps.google.com/?cid=4596908964126554805,OPERATIONAL,,tourist_attraction,tourist_attraction,,,,,,,,
ChIJZWWIS0gt0i0RDCGky3zvugU,Pondok,-8.4755871,114.9982475,"GXFX+Q79, Lumbung, Selemadeg Barat, Tabanan Regency, Bali 82162, Indonesia",https://maps.google.com/?cid=412905635129336076,OPERATIONAL,,,lodging,,,,,,,,
ChIJ-xcENwAv0i0RLKwjP8UeK1A,Buhh bergoyang,-8.4754712,115.0032014,"G2F2+2X8, Lumbung, Selemadeg Barat, Tabanan Regency, Bali 82162, Indonesia",https://maps.google.com/?cid=5776744779549486124,OPERATIONAL,,park,park,5,1,,,,,,
