id,name,latitude,longitude,address,url,status,phone,primary-type,types,rating,rating-count,price-level,review 1,review 2,review 3,review 4,review 5
ChIJ9x23GOcP0i0RKtDFv3aWmtw,Warung Makan Mina Bukit,-8.503356199999999,115.5070434,"Jl. Raya Ulakan-Karangasem No.45, Ulakan, Kec. Manggis, Kabupaten Karangasem, Bali 80871, Indonesia",https://maps.google.com/?cid=15896183271525306410,OPERATIONAL,,restaurant,"restaurant, food",5,4,,"Best fish in Bali! They made a special order for us, we asked for grill fish and it was thw best. Very nice service, the lady here was so nice.",,,,
ChIJYRtVSD0P0i0R9JucfIQcyeA,LALAPAN MUBAROK,-8.5035205,115.50668929999999,"FGW4+HMW, Jl. Raya Ulakan-Karangasem, Ulakan, Kec. Manggis, Kabupaten Karangasem, Bali 80871, Indonesia",https://maps.google.com/?cid=16197508890166598644,OPERATIONAL,+62 856-5554-8742,restaurant,"restaurant, food",5,6,,Love the sambal,,,,
ChIJ7_5G72UP0i0RjuanB99oKtc,BFC Ulakan (Balinice Fried Chicken),-8.5041996,115.5058098,"FGW4+88F, Jl. Raya Ulakan-Karangasem, Ulakan, Kec. Manggis, Kabupaten Karangasem, Bali 80871, Indonesia",https://maps.google.com/?cid=15504319974291793550,OPERATIONAL,+62 819-9941-0907,restaurant,"restaurant, food",4.4,16,,"Best chicken within 100kms .
Sooooo good",,,,
ChIJteCJFREP0i0RsBmtj-AMpRY,Angkringan Ary Jaya,-8.503642,115.50672899999998,"FGW4+GMX, Jl. Raya Manggis, Ulakan, Kec. Manggis, Kabupaten Karangasem, Bali 80871, Indonesia",https://maps.google.com/?cid=1631724598614366640,OPERATIONAL,+62 812-3796-3334,restaurant,"restaurant, food",4.4,11,,"cheap tasty and fast.  the girls speak English more or less well.  ordered shrimp and chicken in sweet and sour sauce, Chinese fried rice.",The best relation between quality and price that I have seen in Bali. And they speak English!,Good,,
ChIJ0xs5fL8P0i0Re51uwPdy_G8,Mie ayam dan bakso barokah,-8.502883299999999,115.50754500000001,"FGW5+R2V, Jl. Raya Ulakan-Karangasem, Ulakan, Kec. Manggis, Kabupaten Karangasem, Bali 80871, Indonesia",https://maps.google.com/?cid=8069451040752049531,OPERATIONAL,+62 823-2374-4850,indonesian_restaurant,"indonesian_restaurant, restaurant, food",5,1,,,,,,
ChIJSXDXUXEP0i0RPTZafo-Gco0,Warung 3 Dara,-8.5041473,115.50768210000001,"FGW5+H4M, Jl. Raya Ulakan-Karangasem, Manggis, Kec. Manggis, Kabupaten Karangasem, Bali 80871, Indonesia",https://maps.google.com/?cid=10192356857551140413,OPERATIONAL,+62 813-5316-4695,brunch_restaurant,"brunch_restaurant, restaurant, food",,,,,,,,
ChIJc3uLptQP0i0RbS0EeZqEYQs,Wr.CRUSTY ULAKAN,-8.501836299999999,115.5072443,"Manggis, Karangasem Regency, Bali 80871, Indonesia",https://maps.google.com/?cid=820082406148287853,CLOSED_TEMPORARILY,+62 821-4423-9365,restaurant,"restaurant, food",5,1,,,,,,
ChIJg6MDYJMP0i0R4vUiIu4AwBQ,WARUNG MANG TIN,-8.5030789,115.5075622,"FGW5+Q27, Jl. Raya Ulakan-Karangasem, Ulakan, Kec. Manggis, Kabupaten Karangasem, Bali 80871, Indonesia",https://maps.google.com/?cid=1495196099061937634,OPERATIONAL,+62 852-3829-8729,restaurant,"restaurant, food",4.5,2,,,,,,
ChIJT19KSycP0i0RnBDMZM5KZOg,Warung Mekngah,-8.5062942,115.50757279999999,"FGV5+F2P, Jalan Pantai, Ulakan, Kec. Manggis, Kabupaten Karangasem, Bali 80871, Indonesia",https://maps.google.com/?cid=16745591564785160348,OPERATIONAL,,restaurant,"restaurant, food",4.8,9,,,,,,
ChIJwT4l67EP0i0R_Lo1UVftUGs,Bale Bamboo,-8.502382899999999,115.50746389999999,"FGX4+2XW, Manggis, Karangasem Regency, Bali 80871, Indonesia",https://maps.google.com/?cid=7732941519475555068,OPERATIONAL,,restaurant,"restaurant, food",,,,,,,,
ChIJAUWN8rEP0i0Ronh9TCziLw4,Nasi Tempong Mamake,-8.502889,115.50755319999998,"FGW5+R2V, Jl. Raya Ulakan-Karangasem, Ulakan, Kec. Manggis, Kabupaten Karangasem, Bali 80871, Indonesia",https://maps.google.com/?cid=1022284320326121634,OPERATIONAL,,restaurant,"restaurant, food",5,1,,,,,,
ChIJEUrbaSkP0i0RsjL5fvqvOcw,WARUNG ADITYA ULAKAN,-8.503616,115.50676910000001,"FGW4+HP2, Jl. Raya Ulakan-Karangasem, Ulakan, Kec. Manggis, Kabupaten Karangasem, Bali 80871, Indonesia",https://maps.google.com/?cid=14715986747816751794,OPERATIONAL,+62 852-3779-3321,restaurant,"restaurant, food",4.3,3,,,,,,
ChIJr84yREwP0i0ROEFim5XNUng,drinkbobaulakan,-8.5042812,115.5056378,"Jl. Raya Ulakan-Karangasem, Manggis, Kec. Manggis, Kabupaten Karangasem, Bali 80871, Indonesia",https://maps.google.com/?cid=8670218275082355000,OPERATIONAL,+62 831-1937-5526,,"coffee_shop, cafe, food, store",,,,,,,,
ChIJKUDQq6oP0i0R1n-cKmFKzDY,WARUNG DAMAR,-8.5031143,115.5076189,"FGW5+Q25, Jl. Raya Ulakan-Karangasem, Ulakan, Kec. Manggis, Kabupaten Karangasem, Bali 80871, Indonesia",https://maps.google.com/?cid=3948612754484264918,OPERATIONAL,+62 852-3829-8729,restaurant,"restaurant, food",,,,,,,,
ChIJozMzpawP0i0RTrbg-PBaAVI,WARUNG PAK PUGEG,-8.502413599999999,115.50735269999998,"FGX4+2WQ, Jl. Raya Ulakan-Karangasem, Ulakan, Kec. Manggis, Kabupaten Karangasem, Bali 80871, Indonesia",https://maps.google.com/?cid=5909104177100928590,OPERATIONAL,+62 877-6299-0096,restaurant,"restaurant, food",4,2,,,,,,
ChIJz8dx-aAP0i0RQQSio2gGuJI,Kedai Tremor,-8.503051,115.50717629999998,"FGW4+QVF, Jl. Raya Manggis, Ulakan, Kec. Manggis, Kabupaten Karangasem, Bali 80851, Indonesia",https://maps.google.com/?cid=10572207171743908929,OPERATIONAL,+62 853-3355-5066,restaurant,"restaurant, food",,,,,,,,
ChIJuVpLSrAP0i0RSZvS5uU9AqY,WARUNG PUDAK SARI,-8.5008079,115.50728389999999,"Jl. Raya Ulakan-Karangasem, Antiga, Kec. Manggis, Kabupaten Karangasem, Bali 80871, Indonesia",https://maps.google.com/?cid=11962191617878825801,CLOSED_TEMPORARILY,,restaurant,"restaurant, food, store",4.3,6,,"Good taste, Good place, nad Good food ü§§
Really satisfied üòÅüòÄ",,,,
ChIJWRQD3tkP0i0RuI-prUSj0zU,WARLAP,-8.5041359,115.50772289999999,"FGW5+83X Lapangan Ulakan, Desa Ulakan Desa, Ulakan, Kec. Manggis, Kabupaten Karangasem, Bali 80871, Indonesia",https://maps.google.com/?cid=3878623219462803384,OPERATIONAL,,coffee_shop,"coffee_shop, cafe, food, store",5,1,,,,,,
ChIJpQur9bEP0i0RTXDwZhtElAE,WARUNG MAKAN BALI,-8.5032904,115.5076124,"Manggis, Karangasem Regency, Bali, Indonesia",https://maps.google.com/?cid=113790775072944205,OPERATIONAL,,restaurant,"restaurant, food",,,,,,,,
ChIJ2RCK9LEP0i0R3dEU3ogIIZQ,WARUNG BANYUWANGI MBAK ISMA,-8.503183,115.5076184,"Manggis, Karangasem Regency, Bali, Indonesia",https://maps.google.com/?cid=10673821975779267037,OPERATIONAL,,restaurant,"restaurant, food",,,,,,,,
