id,name,latitude,longitude,address,url,status,phone,primary-type,types,rating,rating-count,price-level,review 1,review 2,review 3,review 4,review 5
ChIJmyMPwcU70i0RnTKc6JN4VWo,C'Bezt Friedchicken Alas Kedaton,-8.5244293,115.15159150000001,"Jl. Raya Alas Kedaton, Kukuh, Kec. Marga, Kabupaten Tabanan, Bali 82181, Indonesia",https://maps.google.com/?cid=7662162917698843293,OPERATIONAL,+62 812-4621-170,restaurant,"restaurant, food",4.8,154,,"the food that they serve are have a good taste, very humble and polite staff, the place are clean, strategic with ricefield view and enough parking area in it, and sometimes you will served by the owner directly,, for suggestion i think need to instal wifi ya pak :)","Good food, clean place and enough parking area","Good place, good food, good price.
Recomended",Not good at all,"Good food , good place"
ChIJZ6pOIv870i0RKlJOQNnRZ14,Nasi Angin Pemenang,-8.5279134,115.14939050000001,"dsa, Jl. Kapten Tendean br pemenang No.48, Banjar Anyar, Kec. Kediri, Kabupaten Tabanan, Bali 82121, Indonesia",https://maps.google.com/?cid=6802636493183406634,OPERATIONAL,+62 878-6177-7237,restaurant,"restaurant, food",5,3,,,,,,
ChIJcUZ9Tw870i0R2Ii1GgVJdUw,Warung Men War,-8.527303,115.15431199999999,"Kukuh, Marga, Tabanan Regency, Bali 82121, Indonesia",https://maps.google.com/?cid=5509390005429438680,OPERATIONAL,+62 831-1959-5804,indonesian_restaurant,"indonesian_restaurant, restaurant, food",4.5,31,PRICE_LEVEL_INEXPENSIVE,Favorite place for pouridge lover,Top,,,
ChIJkQNXISk70i0RlT2ZvkT8Eh8,warung nasi angin banjar pemenang kediri tabanan,-8.5278923,115.14938509999999,"Jl. Tendean No.43, br pemenang, Kec. Kediri, Kabupaten Tabanan, Bali 82111, Indonesia",https://maps.google.com/?cid=2239129336942247317,OPERATIONAL,+62 878-6177-7237,indonesian_restaurant,"indonesian_restaurant, restaurant, food",3,1,,,,,,
ChIJRXAxQ3U70i0RrHVWUWHZXD4,AGK Coffee,-8.5267286,115.15339610000001,"F5F3+783, Jl. Raya Alas Kedaton, Kukuh, Kec. Marga, Kabupaten Tabanan, Bali, Indonesia",https://maps.google.com/?cid=4493705540208588204,CLOSED_TEMPORARILY,,coffee_shop,"coffee_shop, cafe, food, store",,,,,,,,
ChIJ80QHqQU70i0RAs-WKqwPIYE,Warung Bu Nova,-8.5258006,115.15090680000002,"Kukuh, Marga, Tabanan Regency, Bali, Indonesia",https://maps.google.com/?cid=9304735537247473410,OPERATIONAL,,restaurant,"restaurant, food",5,1,,,,,,
ChIJeU4ZdEY70i0R9oBVOotnTlk,MUPU juice & drink,-8.5268888,115.153312,"F5F3+68V, Jl. Raya Alas Kedaton, Kukuh, Kec. Marga, Kabupaten Tabanan, Bali 82121, Indonesia",https://maps.google.com/?cid=6435194765235814646,OPERATIONAL,,cafe,"cafe, food",5,1,,,,,,
ChIJR_ik1dE70i0RwHFxwXmI6Bo,Warung Lalapan Sehati,-8.523643900000001,115.1518808,"Jl. Raya Alas Kedaton No.18, Kukuh, Kec. Marga, Kabupaten Tabanan, Bali 82121, Indonesia",https://maps.google.com/?cid=1938949696100856256,OPERATIONAL,,restaurant,"restaurant, food",4.8,4,,Ok,,,,
ChIJb1GVLus70i0R9WRj1gckY5U,Warung Babi Guling Pan Feby,-8.5245686,115.15172709999999,"F5G2+4MX, Jl. Raya Alas Kedaton, Kukuh, Kec. Marga, Kabupaten Tabanan, Bali 82121, Indonesia",https://maps.google.com/?cid=10764487150425826549,OPERATIONAL,,indonesian_restaurant,"indonesian_restaurant, restaurant, food",4.5,2,,,,,,
ChIJa6GWuKQ70i0RSPnVvdE3gXY,Karang Pedukuhan,-8.528802899999999,115.14853149999999,"Pemenang, Banjar Anyar, Kec. Kediri, Kabupaten Tabanan, Bali 82121, Indonesia",https://maps.google.com/?cid=8539167742443780424,OPERATIONAL,,,lodging,5,5,,Good,,,,
ChIJNWZNGPY70i0RUkWtQ5gH9KQ,PaonPrianka Corner,-8.5261061,115.1506092,"Jl. Raya Alas Kedaton No.46, Banjar Anyar, Kec. Kediri, Kabupaten Tabanan, Bali 82121, Indonesia",https://maps.google.com/?cid=11886133667089433938,OPERATIONAL,,bar,"bar, restaurant, food",5,1,,,,,,
ChIJ59ZUTQQ70i0RRrx1fyo0x6E,Warung Sate Pemenang,-8.5263184,115.150376,"F5F2+F5C, Jl. Raya Alas Kedaton, Kukuh, Kec. Marga, Kabupaten Tabanan, Bali 82121, Indonesia",https://maps.google.com/?cid=11657343517603511366,OPERATIONAL,,indonesian_restaurant,"indonesian_restaurant, restaurant, food",,,,,,,,
ChIJgb0MN8c70i0Rda9uunwnruI,coffee house ina,-8.5256549,115.14806200000001,"F4FX+P6M, Banjar Anyar, Kediri, Tabanan Regency, Bali 82123, Indonesia",https://maps.google.com/?cid=16334036315176611701,OPERATIONAL,+62 851-5852-9663,coffee_shop,"coffee_shop, cafe, food, store",,,,,,,,
ChIJEV6LwgY70i0R4Hql6vX9x-A,WAROENG DEDEN BALI,-8.526065899999999,115.1516829,"F5F2+HMF, Jl. Raya Alas Kedaton, Banjar Anyar, Kec. Kediri, Kabupaten Tabanan, Bali 82121, Indonesia",https://maps.google.com/?cid=16197193817506806496,OPERATIONAL,+62 831-1794-1845,cafe,"cafe, food",4.3,12,,Hot weather,,,,
ChIJ93H3mwY70i0RzIzuVVvH6-c,"""Warung Hans""",-8.5286022,115.14931689999999,"F4CX+HP4, Jl. Raya Alas Kedaton, Banjar Anyar, Kec. Kediri, Kabupaten Tabanan, Bali 82121, Indonesia",https://maps.google.com/?cid=16711670037386005708,OPERATIONAL,,restaurant,"restaurant, food",5,1,,,,,,
ChIJeYGBwgY70i0RRy32aZ94HZg,Fast Food Restaurant,-8.530059,115.14888490000001,"F49X+XHC, Jl. Raya Alas Kedaton, Banjar Anyar, Kec. Kediri, Kabupaten Tabanan, Bali 82121, Indonesia",https://maps.google.com/?cid=10961049694162529607,OPERATIONAL,,restaurant,"restaurant, food",,,,,,,,
ChIJ8yWZuLM70i0RqLLmgGYnWmQ,VILLA DEWI SERI,-8.5261847,115.15230670000001,"F5F2+GWF, Unnamed Road, Kukuh, Kec. Marga, Kabupaten Tabanan, Bali 82121, Indonesia",https://maps.google.com/?cid=7231135472899502760,OPERATIONAL,,hotel,"hotel, lodging",5,1,,,,,,
ChIJO47osgU70i0RQSywIn04ubg,Warung Muslim Dua Putra,-8.5263207,115.15037919999997,"F5F2+F5C, Jl. Raya Alas Kedaton, Pemeneng, Kec. Kediri, Kabupaten Tabanan, Bali 82121, Indonesia",https://maps.google.com/?cid=13310732283774250049,OPERATIONAL,+62 878-6116-8244,indonesian_restaurant,"indonesian_restaurant, restaurant, food",4.2,9,,,,,,
ChIJAU1Ocf070i0RI8BByOAGux8,Warung dapur e simbok spesial nasi goreng + soto dan es campur,-8.5256188,115.1509477,"Jl. Raya Alas Kedaton, Kukuh, Kec. Marga, Kabupaten Tabanan, Bali 82121, Indonesia",https://maps.google.com/?cid=2286428798322851875,OPERATIONAL,+62 818-0236-8411,cafe,"cafe, food",5,1,,,,,,
ChIJt72Rr0M70i0RIieihXRXmyw,Warung Bakso PAK GENDUT,-8.5287252,115.15428349999999,"Kukuh, Marga, Tabanan Regency, Bali 82121, Indonesia",https://maps.google.com/?cid=3214258917028800290,OPERATIONAL,,indonesian_restaurant,"indonesian_restaurant, restaurant, food",5,3,,,,,,
