id,name,latitude,longitude,address,url,status,phone,primary-type,types,rating,rating-count,price-level,review 1,review 2,review 3,review 4,review 5
ChIJjdfziRcX0i0RB78-NeoTGbM,New Majestic Villa,-8.5312845,115.34231880000002,"Jl. Bukit Jangkrik Jl. Bukit Batu No.Desa, Samplangan, Kec. Gianyar, Kabupaten Gianyar, Bali 80512, Indonesia",https://maps.google.com/?cid=12905368103843446535,OPERATIONAL,,hotel,"hotel, lodging",4,1,,,,,,
ChIJpb-3S1EX0i0RhAU9sztoWuU,BukitJangkrik Natural Water Swim,-8.5276578,115.34468229999999,"Jl. Bukit Jangkrik, Samplangan, Kec. Gianyar, Kabupaten Gianyar, Bali 80515, Indonesia",https://maps.google.com/?cid=16526636388208936324,OPERATIONAL,+62 858-5852-1215,tourist_attraction,tourist_attraction,4.6,16,,"Amazing natural swimming""pool"". Big, about 2 meters deep. Sorrounded by Rice field, jungle, a Temple and small Bales to relax in. The water felt fresh and clean, had some fish in it!","Natural Water Swim is a tourist spot located in Bukit Jangkrik Village and has a cool climate, perfect for spending weekends with family or friends.

The existence of Subak temple, shady trees, small lakes, fishing areas and even swimming area is guaranteed to be able to relieve all tiredness.

For those who like photography, this place has good photo spots, often also used as a place for couples who will do a pre-wedding photo session.",,,
ChIJyUXyZsUX0i0R6CCjdK8K3nc,Taman Sari Bebengan Bukit Jangkrik,-8.5265527,115.34443850000001,"Bukit Jangkrik, Jl. Bukit Jangkrik No.999, Samplangan, Kec. Gianyar, Kabupaten Gianyar, Bali 80511, Indonesia",https://maps.google.com/?cid=8637352884035592424,OPERATIONAL,+62 819-1731-6364,tourist_attraction,tourist_attraction,4,6,,,,,,
ChIJp8Wy9fsW0i0Rm1RpxD5smGM,Pura Puncak Bukit Langkihan,-8.52547,115.33828290000001,"F8FQ+R87, Jl. Bukit Batu, Samplangan, Kec. Gianyar, Kabupaten Gianyar, Bali 80512, Indonesia",https://maps.google.com/?cid=7176605023053894811,OPERATIONAL,,hindu_temple,"hindu_temple, tourist_attraction, place_of_worship",4.3,18,,Ok,My village,,,
ChIJCWiRT0kX0i0R3MHPLYBg_4M,Warung Pande Job,-8.5262906,115.33875969999998,"F8FQ+FGJ, Jl. Bukit Batu, Samplangan, Kec. Gianyar, Kabupaten Gianyar, Bali 80512, Indonesia",https://maps.google.com/?cid=9511427041670447580,OPERATIONAL,,restaurant,"restaurant, food",5,9,,Good,,,,
ChIJWxZrqvsW0i0RFSfN33Bkh9Y,Bali Sunrise View House,-8.5274772,115.3399803,"Indonesia, Bali, Gianyar Regency, Gianyar, Samplangan, Br.bukit-batu sampulangan",https://maps.google.com/?cid=15458434681926395669,OPERATIONAL,+62 822-3636-3115,hotel,"hotel, guest_house, lodging",4.2,5,,"This is my third time staying at Bali Sunrise View House. It has always been a great time with the host, Made Arsa. All the photos posted don't do any justice to how gorgeous it really is. I will definitely come back!",Best view,,,
ChIJv95G9PsW0i0RpMBKdsalD14,Dek Arta & Sukma Wedding,-8.525558499999999,115.33828760000002,"F8FQ+Q8F, Jl. Bukit Batu, Samplangan, Kec. Gianyar, Kabupaten Gianyar, Bali 80512, Indonesia",https://maps.google.com/?cid=6777818236022603940,OPERATIONAL,+62 823-4087-7266,restaurant,"restaurant, food",5,4,,,,,,
ChIJ10owfBQX0i0Rcok3wRXr7to,Rumah mardikayana,-8.5261234,115.33853239999999,"F8FQ+HC3, Samplangan, Gianyar, Gianyar Regency, Bali 80512, Indonesia",https://maps.google.com/?cid=15775805023393909106,OPERATIONAL,,,lodging,,,,,,,,
ChIJMYEQWAAX0i0R60PoxePbZVE,Warung pundung,-8.531322700000002,115.341549,"F89R+MMV, Jl. Bukit Batu, Samplangan, Kec. Gianyar, Kabupaten Gianyar, Bali 80512, Indonesia",https://maps.google.com/?cid=5865335861044331499,OPERATIONAL,,meal_takeaway,"meal_takeaway, restaurant, food",,,,,,,,
