id,name,latitude,longitude,address,url,status,phone,primary-type,types,rating,rating-count,price-level,review 1,review 2,review 3,review 4,review 5
ChIJ2zlNX8WD0S0RfkbcVeu_B1A,Taman Bidadari Waterfall (Subak Pohasem),-8.237912399999999,114.96819099999999,"Jl. Pohasem, Mayong, Kec. Seririt, Kabupaten Buleleng, Bali 81153, Indonesia",https://maps.google.com/?cid=5766788865349928574,OPERATIONAL,+62 817-7909-7789,tourist_attraction,tourist_attraction,5,1,,,,,,
ChIJ2XWgkp-D0S0RLvlRaLI9uKw,Rumah Eko,-8.2385246,114.9630823,"QX67+557, Jl. Pohasem, Mayong, Kec. Seririt, Kabupaten Buleleng, Bali 81153, Indonesia",https://maps.google.com/?cid=12445765406702041390,OPERATIONAL,,private_guest_room,"private_guest_room, lodging",,,,,,,,
ChIJ9UbbXvaD0S0R8RYkbpb1rN4,Warung Tuak Kirana,-8.235922,114.96059489999999,"QX76+J6Q, jalan mayong - desa, Gunungsari, Kec. Seririt, Kabupaten Buleleng, Bali 81153, Indonesia",https://maps.google.com/?cid=16045469598855993073,OPERATIONAL,+62 831-1988-5874,bar,bar,5,1,,,,,,
ChIJmclipoqD0S0RM5zwUn9npYc,Warung tuak Pt Ama Putra kresek,-8.2395967,114.9629123,"QX67+557, Jl. Pohasem, Mayong, Kec. Seririt, Kabupaten Buleleng, Bali 81153, Indonesia",https://maps.google.com/?cid=9774332362827537459,OPERATIONAL,,bar,bar,,,,,,,,
ChIJgYqpc86D0S0RpEB6e5V1W8U,Kubu JikMan Wira,-8.2378118,114.96117979999998,"QX66+VFF, Mayong, Seririt, Buleleng Regency, Bali 81153, Indonesia",https://maps.google.com/?cid=14221089533234659492,OPERATIONAL,,private_guest_room,"private_guest_room, lodging",,,,,,,,
ChIJF6brRuGD0S0RYo-VJ6afVN0,Rumah Ariani,-8.2370769,114.9615702,"QX76+5J8, Jl. Pohasem, Mayong, Kec. Seririt, Kabupaten Buleleng, Bali 81153, Indonesia",https://maps.google.com/?cid=15948547716403269474,OPERATIONAL,,coffee_shop,"coffee_shop, cafe, store, food",,,,,,,,
ChIJVVVVVbCD0S0RBP4VH0iHu1o,Grya Santi Bhuana Cempaka Putih,-8.235922,114.96059489999999,"QX76+J6Q, Mayong, Seririt, Buleleng Regency, Bali 81153, Indonesia",https://maps.google.com/?cid=6537968027887336964,OPERATIONAL,,,lodging,,,,,,,,
ChIJ_0E_BBeD0S0RkRqxYjPxPMw,Jembatan Pengangon Mayong,-8.2410733,114.96387120000001,"QX57+HGH, Jl. Pohasem, Mayong, Kec. Seririt, Kabupaten Buleleng, Bali 81153, Indonesia",https://maps.google.com/?cid=14716902885341338257,OPERATIONAL,,historical_landmark,historical_landmark,5,1,,Joghing Track,,,,
ChIJ_cANcgCD0S0RF7YU_PK_348,Adriani's house,-8.234144299999999,114.9616992,"QX86+8MW, Mayong, Seririt, Buleleng Regency, Bali 81153, Indonesia",https://maps.google.com/?cid=10367215917562377751,OPERATIONAL,,park,park,5,1,,,,,,
ChIJ_Zjw4DqD0S0RGCHPUQ0YGLs,Kubu Made Krisna,-8.2371749,114.9597647,"QX75+4WJ, Jl. Pohasem, Mayong, Kec. Seririt, Kabupaten Buleleng, Bali 81153, Indonesia",https://maps.google.com/?cid=13481551930019750168,OPERATIONAL,,hotel,"hotel, lodging",,,,,,,,
