id,name,latitude,longitude,address,url,status,phone,primary-type,types,rating,rating-count,price-level,review 1,review 2,review 3,review 4,review 5
ChIJB_Ej_fMf0i0RrE6RcZfGw5g,Pondok di abing,-8.3876901,115.32007419999998,"Banjar tegal Payang, Pupuan, Kec. Tegallalang, Kabupaten Gianyar, Bali 80561, Indonesia",https://maps.google.com/?cid=11007860267971333804,OPERATIONAL,+62 831-1462-7581,private_guest_room,"private_guest_room, lodging",5,1,,,,,,
ChIJ56290gsf0i0R5pmLX37SYmY,Kaja Kangin Art Camp,-8.3897622,115.32251600000001,"J86F+32R, Banjar Penempahan, Manukaya, Kec. Tampaksiring, Kabupaten Gianyar, Bali, Indonesia",https://maps.google.com/?cid=7377690579796990438,OPERATIONAL,+62 817-117-112,park,park,,,,,,,,
ChIJpR7JND0f0i0RyVcUp1K0wDE,Warung nyarikan,-8.385169000000001,115.32305180000002,"banjar penempahan, J87F+W6M, Manukaya, Kec. Tampaksiring, Kabupaten Gianyar, Bali 80552, Indonesia",https://maps.google.com/?cid=3585063570470361033,OPERATIONAL,,coffee_shop,"coffee_shop, cafe, store, food",4,1,,,,,,
ChIJGSaeK0of0i0RKcjQ41uZg54,PRAPEN,-8.3862579,115.32339780000001,"J87F+F9R, Jl. Melati, Manukaya, Kec. Tampaksiring, Kabupaten Gianyar, Bali 80552, Indonesia",https://maps.google.com/?cid=11422141699884894249,OPERATIONAL,,lodging,lodging,5,1,,Home sweet home,,,,
ChIJG-Oxp3Af0i0R4hm_P7zEtOM,Juni tirtayada,-8.3849126,115.32338539999999,"J88F+29J, Manukaya, Tampaksiring, Gianyar Regency, Bali 80561, Indonesia",https://maps.google.com/?cid=16407955655219943906,OPERATIONAL,,hotel,"hotel, lodging",,,,,,,,
ChIJywNoD4cf0i0RyZTKAU5phJw,Rumah Dek Yoga,-8.384106899999999,115.3189137,"Br. Tegal payang, Pupuan, Kec. Tegallalang, Kabupaten Gianyar, Bali 80561, Indonesia",https://maps.google.com/?cid=11278255150600983753,OPERATIONAL,+62 822-3653-8384,,lodging,5,1,,,,,,
