id,name,latitude,longitude,address,url,status,phone,primary-type,types,rating,rating-count,price-level,review 1,review 2,review 3,review 4,review 5
ChIJAQAAALcW0i0Rf3_Usb95iAU,Kentel Gumi Temple,-8.5464612,115.3660184,"Jl. Raya Banjarangkan No.4, Tusan, Kec. Banjarangkan, Kabupaten Klungkung, Bali 80515, Indonesia",https://maps.google.com/?cid=398702431251496831,OPERATIONAL,,hindu_temple,"hindu_temple, tourist_attraction, place_of_worship",4.8,361,,"By tourists, a forgotten precious jewel, as this Hindu temple is, with astonishing buildings. For example one 11-storeys Pagoda and one 9-storeys! But there are also many small buildings with beautiful decorated doors. The temple area is big, perhaps 1.5 football (soccer) fields.
No entrance fee, but please write your name and make your donation in the donation box, by the store to the left of the entrance. I would suggest a minimum donation of 20.000/person (or approx. 2$/person)","Kentel Gumi Temple is one of 3 temple centre in Bali ( Tri Sad Khayngan Bali ) ,",Magnificent and well preserved temple. Must put on your spiritual journey list.,Astonishing Balinese Architecture... Another sacred holy temple in Klungkung Regency...,Big temple and many shrines inside..  One of the most important temple in Bali
ChIJI07rZrcW0i0RlPEPhFIGSIg,Ayam Bfc Tusan,-8.5431055,115.36736479999999,"F948+QW5, Jl. Raya Tusan, Tusan, Kec. Banjarangkan, Kabupaten Klungkung, Bali 80752, Indonesia",https://maps.google.com/?cid=9820105938954088852,OPERATIONAL,+62 813-3855-3129,restaurant,"indonesian_restaurant, restaurant, food",3,1,,,,,,
ChIJ1x_D8LkW0i0R2vKRB2PYABk,warung santi wahyuni,-8.5431748,115.36589209999998,"Tusan, Banjarangkan, Klungkung Regency, Bali 80752, Indonesia",https://maps.google.com/?cid=1801677770788565722,OPERATIONAL,,restaurant,"restaurant, shopping_mall, food",4.2,9,,Good job,,,,
ChIJu4LHq3cX0i0RjJjAJib24I8,Baypass Basma,-8.5404035,115.36551319999998,"F958+R6J, Tusan, Banjarangkan, Klungkung Regency, Bali 80752, Indonesia",https://maps.google.com/?cid=10367556985926228108,CLOSED_TEMPORARILY,,tourist_attraction,tourist_attraction,5,3,,,,,,
ChIJJ5BxacYX0i0RVU7_Ko7Ld8A,Markas Jangkrik Bongol,-8.5417062,115.36836100000001,"F959+889, Tusan, Banjarangkan, Klungkung Regency, Bali 80752, Indonesia",https://maps.google.com/?cid=13868777388977901141,OPERATIONAL,+62 878-5684-3893,lodging,lodging,5,2,,Have fun,,,,
ChIJT3EohT4X0i0RY_MsBTBv74U,MY BOBA TUSAN,-8.546374,115.367568,"Jl. Raya Tusan, Tusan, Kec. Banjarangkan, Kabupaten Klungkung, Bali 80752, Indonesia",https://maps.google.com/?cid=9651054778514207587,OPERATIONAL,+62 853-3355-2020,coffee_shop,"coffee_shop, cafe, store, food",,,,,,,,
ChIJW448Ht4X0i0R8Ou60JmO5LE,Elf klungkung,-8.543825199999999,115.3659816,"kawan, Tusan, Kec. Banjarangkan, Kabupaten Klungkung, Bali 80752, Indonesia",https://maps.google.com/?cid=12818527230686325744,OPERATIONAL,+62 812-3619-0199,car_rental,car_rental,5,5,,,,,,
ChIJz1ZVYcYX0i0Rdhn970sYYIM,Warung sempol ayam buk desak kade,-8.5415609,115.3671975,"Jl. Raya Tusan, Tusan, Kec. Banjarangkan, Kabupaten Klungkung, Bali, Indonesia",https://maps.google.com/?cid=9466593131160738166,OPERATIONAL,+62 857-3852-3408,brunch_restaurant,"brunch_restaurant, restaurant, food",5,1,,,,,,
ChIJW9o9YroW0i0RjcvzUlkgCXE,Warung Ibu Jro Sriyanti,-8.5458049,115.3654025,"F938+M5C, Jalan Raya, Banjarangkan, Kec. Klungkung, Kabupaten Klungkung, Bali 80752, Indonesia",https://maps.google.com/?cid=8145076969092139917,OPERATIONAL,+62 857-9253-2615,restaurant,"restaurant, food",3.3,3,,,,,,
ChIJq1xuIbEW0i0RQmyKybwvDRk,Griya Rock N Roll,-8.544400099999999,115.3699362,"F949+6XM, Tusan, Banjarangkan, Klungkung Regency, Bali 80752, Indonesia",https://maps.google.com/?cid=1805151513527086146,OPERATIONAL,,,lodging,5,1,,,,,,
ChIJI07rZrcW0i0RW4Nk7uESlAA,UD. Putra Payas,-8.541971799999999,115.3672496,"F958+6V9, Jl. Raya Tusan, Tusan, Kec. Banjarangkan, Kabupaten Klungkung, Bali 80752, Indonesia",https://maps.google.com/?cid=41679058129683291,CLOSED_TEMPORARILY,+62 877-6162-2666,restaurant,"restaurant, food",,,,,,,,
ChIJtwUDTzoX0i0RpYKkBpNdDJE,Tanah Jero Gusti Natih,-8.5445294,115.36860610000001,"F949+6C8, Jl. Sm Agung, Tusan, Kec. Banjarangkan, Kabupaten Klungkung, Bali 80752, Indonesia",https://maps.google.com/?cid=10451831721273098917,OPERATIONAL,,park,park,,,,,,,,
ChIJY2I22roX0i0RXsL8vobywLU,Kebun Pisang Cemerlang Lintas Benua,-8.5415634,115.36715660000002,"F978+7Q6, Jl. Raya Tusan, Tusan, Kec. Banjarangkan, Kabupaten Klungkung, Bali, Indonesia",https://maps.google.com/?cid=13096734376937177694,OPERATIONAL,,park,park,,,,,,,,
ChIJ34TJjK0X0i0RHXXuYJkjh4E,UD.WaRBaP,-8.5442811,115.36995519999999,"F949+7XP, Jl. Raya Tusan, Tusan, Kec. Banjarangkan, Kabupaten Klungkung, Bali, Indonesia",https://maps.google.com/?cid=9333467894411851037,OPERATIONAL,,restaurant,"restaurant, food",,,,,,,,
ChIJm8-O-AkX0i0Rw12umAuXjws,RUMAH BAYU,-8.5409154,115.3660785,"F958+MGP, Jl. Raya Tusan, Tusan, Kec. Banjarangkan, Kabupaten Klungkung, Bali 80752, Indonesia",https://maps.google.com/?cid=833050532148829635,OPERATIONAL,,private_guest_room,"private_guest_room, lodging",5,3,,,,,,
ChIJz36i1TwX0i0RQZUBkd9Xhxk,Angga's House,-8.5413335,115.36999000000002,"F95C+G22, Tusan, Banjarangkan, Klungkung Regency, Bali, Indonesia",https://maps.google.com/?cid=1839535590526260545,OPERATIONAL,,private_guest_room,"private_guest_room, lodging",,,,,,,,
ChIJKWOMDboW0i0RsMApJOaCbwg,BU JERO SANGEH,-8.5445873,115.3660073,"Tusan, Banjarangkan, Klungkung Regency, Bali, Indonesia",https://maps.google.com/?cid=607848399679111344,OPERATIONAL,,restaurant,"restaurant, food",,,,,,,,
ChIJP_hjhbAW0i0RBTskc4pK1Qo,Warung Jadaya GAJAH,-8.5454443,115.3674188,"F938+RXF, Jl. Raya Tusan, Tusan, Kec. Banjarangkan, Kabupaten Klungkung, Bali 80752, Indonesia",https://maps.google.com/?cid=780612068916345605,CLOSED_TEMPORARILY,,restaurant,"restaurant, food",,,,,,,,
ChIJX3xmU60X0i0RtXQwmltxNd4,Warung biang sun,-8.540687499999999,115.3659375,"Tusan, Banjarangkan, Klungkung Regency, Bali 80752, Indonesia",https://maps.google.com/?cid=16011828688428496053,CLOSED_TEMPORARILY,+62 821-4785-7388,indonesian_restaurant,"indonesian_restaurant, restaurant, food",,,,,,,,
ChIJ98RDVQAX0i0R47hmvknh4WA,Suryaintandekorasibali,-8.5455959,115.36614429999999,"F938+QCF, Tusan, Banjarangkan, Klungkung Regency, Bali 80515, Indonesia",https://maps.google.com/?cid=6981108604244244707,OPERATIONAL,,art_gallery,art_gallery,,,,,,,,
