id,name,latitude,longitude,address,url,status,phone,primary-type,types,rating,rating-count,price-level,review 1,review 2,review 3,review 4,review 5
ChIJOzb9MpYv0i0RjtqyMx-Pv0k,Warung DeGuyu (DeeJhonn),-8.4721429,115.09260030000002,"Tim, Gadungan, Selemadeg Timur, Tabanan Regency, Bali 82161, Indonesia",https://maps.google.com/?cid=5314123449494592142,OPERATIONAL,+62 858-5824-1385,cafe,"cafe, food",5,1,,,,,,
ChIJh5KjfIwv0i0Rbnr8tpeE74w,Wr Buk fery,-8.4741514,115.08742610000002,"Jl. Cepaka, Gadung Sari, Kec. Selemadeg Tim., Kabupaten Tabanan, Bali 82161, Indonesia",https://maps.google.com/?cid=10155481471888685678,OPERATIONAL,+62 852-3844-4148,restaurant,"restaurant, food",4,5,,Delicious all the menu,,,,
ChIJxyAtOHQl0i0RhmQqKncBeuY,Kukuruyuk kafe,-8.4721212,115.09563480000001,"Pesagi, Pegubugan kauh, Tabanan Regency, Bali, Indonesia",https://maps.google.com/?cid=16607588187202282630,OPERATIONAL,,cafe,"cafe, food",5,1,,,,,,
ChIJMQi7Bm4v0i0RqlCd15-rVAw,Warung Aye,-8.4705174,115.0875913,"G3HQ+Q2W, Jl. Cepaka, Gadung Sari, Kec. Selemadeg Tim., Kabupaten Tabanan, Bali 82161, Indonesia",https://maps.google.com/?cid=888523729504391338,OPERATIONAL,+62 819-9889-9657,restaurant,"restaurant, food",4.7,3,,,,,,
ChIJAV-gHqIl0i0Rv_4shU0bHRw,Tukad yeh Nyijih,-8.469596,115.0943113,"G3JV+5P, Pesagi, Penebel, Tabanan Regency, Bali 82161, Indonesia",https://maps.google.com/?cid=2025805427147341503,OPERATIONAL,,national_park,"national_park, park",,,,,,,,
ChIJ7c1ML-gv0i0R6IDteMte030,Home agus koce,-8.4741623,115.08741830000001,"G3GP+8XM, Jl. Cepaka, Gadung Sari, Kec. Selemadeg Tim., Kabupaten Tabanan, Bali 82161, Indonesia",https://maps.google.com/?cid=9066694702827143400,OPERATIONAL,,,lodging,,,,,,,,
