id,name,latitude,longitude,address,url,status,phone,primary-type,types,rating,rating-count,price-level,review 1,review 2,review 3,review 4,review 5
ChIJRe4vEVMR0i0RXsKYgTkE-7U,SuarSari Rejeki,-8.529912099999999,115.43886259999998,"Dawan Kaler, Dawan, Klungkung Regency, Bali 80761, Indonesia",https://maps.google.com/?cid=13113079385053250142,OPERATIONAL,+62 857-3912-4579,indonesian_restaurant,"indonesian_restaurant, restaurant, food",,,,,,,,
ChIJo__AulYR0i0RFyXkIEbXl-o,"Gunung Sari, Babung",-8.5242138,115.4384689,"FCGQ+899, Gunaksa, Dawan, Klungkung Regency, Bali 80761, Indonesia",https://maps.google.com/?cid=16904216422557951255,OPERATIONAL,,national_park,"national_park, park",5,7,,"Very beautiful, I love this place!",,,,
ChIJpeWJkdYR0i0RMvxSLFbzlWo,Mekar Sari Garden,-8.526182,115.4429372,"Unnamed Road, FCFV+G5F, Dawan Kaler, Dawan, Klungkung Regency, Bali 80761, Indonesia",https://maps.google.com/?cid=7680312290986622002,CLOSED_TEMPORARILY,+62 877-6514-5890,park,park,,,,,,,,
ChIJtZIYa00R0i0RZXjFTOTKmp8,Jeroan Gusti Pokler,-8.5280156,115.44518859999998,"Banjar Pasekan Desa Dawan Kaler, FCCW+Q3W, Abian Kangin, Kec. Dawan, Kabupaten Klungkung, Bali 80761, Indonesia",https://maps.google.com/?cid=11500727680333346917,OPERATIONAL,,park,park,5,1,,,,,,
ChIJITmuQfwR0i0R5ktF6e3LPYQ,Lalapan Sari Laut,-8.529834899999999,115.4447487,"FCCV+3V9, Jl. Sawo Kabeh, Dawan Kaler, Kec. Dawan, Kabupaten Klungkung, Bali 80761, Indonesia",https://maps.google.com/?cid=9528996609267157990,OPERATIONAL,+62 857-3954-3943,restaurant,"restaurant, food",4.8,11,,,,,,
ChIJKWpiKS0R0i0RB3Zuvdzl_BU,Adi Pratama,-8.5276111,115.4455919,"FCCW+X64, Dawan Kaler, Dawan, Klungkung Regency, Bali, Indonesia",https://maps.google.com/?cid=1584393905161270791,OPERATIONAL,,private_guest_room,"private_guest_room, lodging",,,,,,,,
