id,name,latitude,longitude,address,url,status,phone,primary-type,types,rating,rating-count,price-level,review 1,review 2,review 3,review 4,review 5
ChIJP2Z-oP550S0RO5bHvLDxfa4,Warung Buk Nova,-8.1970795,114.88757369999999,"RV3Q+528, Kalisada, Seririt, Buleleng Regency, Bali 81153, Indonesia",https://maps.google.com/?cid=12573471476072027707,OPERATIONAL,+62 878-4622-2519,brunch_restaurant,"brunch_restaurant, restaurant, food",5,1,,,,,,
ChIJz9tS5oZ50S0R9PGg4TAE530,Nasi Campu Babi MEN LEMPEH,-8.202167500000002,114.8878037,"Jl. Singaraja-Gilimanuk, Banjar Asem, Kec. Seririt, Kabupaten Buleleng, Bali 81153, Indonesia",https://maps.google.com/?cid=9072224582351516148,OPERATIONAL,+62 878-5596-5050,restaurant,"restaurant, indonesian_restaurant, food",4.7,6,,,,,,
ChIJG0i8fJd50S0Rd4M8vwg65LQ,"Wr. Remaja, Kalisada",-8.1979969,114.88820229999999,"RV2Q+R74, Gg. Dahlia, Kalisada, Kec. Seririt, Kabupaten Buleleng, Bali 81153, Indonesia",https://maps.google.com/?cid=13034607030759621495,OPERATIONAL,,bar,bar,5,9,,Not bad,,,,
ChIJwQtY88F50S0RyoJgxcw8t5g,warung pele,-8.2009397,114.88931279999998,"QVXQ+JPG, Banjar Asem, Seririt, Buleleng Regency, Bali 81153, Indonesia",https://maps.google.com/?cid=11004331064685527754,OPERATIONAL,+62 821-4405-3778,restaurant,"restaurant, food",,,,,,,,
ChIJU4QWZhp40S0Ry69cL5OWSyM,Warung Sinar Dupa,-8.196748099999999,114.88873640000001,"RV3Q+8F5, Jl. Kalisada, Kalisada, Kec. Seririt, Kabupaten Buleleng, Bali 81153, Indonesia",https://maps.google.com/?cid=2543291973479739339,OPERATIONAL,,restaurant,"restaurant, food",,,,,,,,
ChIJk7vK4rl50S0RMUGYrN4BXmI,Dewata Bonsai Buleleng,-8.1987522,114.88268980000001,"RV2M+F3W, Unnamed Road, Kalisada, Kec. Seririt, Kabupaten Buleleng, Bali 81153, Indonesia",https://maps.google.com/?cid=7088104919417766193,OPERATIONAL,,park,park,5,1,,,,,,
ChIJH0Q9siB50S0RBhkT9WhHMNc,PURI PERTAMA REGENCY,-8.1973509,114.88520120000001,"RV3P+334, Kalisada, Seririt, Buleleng Regency, Bali 81153, Indonesia",https://maps.google.com/?cid=15505972033150458118,OPERATIONAL,,general_contractor,"general_contractor, lodging",4,1,,,,,,
ChIJpRZfFR550S0RsIGoHxnA53k,Posko KKN PPM Unud Periode XXVII Desa Kalisada,-8.1954321,114.8883264,"Dekat, RV3Q+R8G, Kalisada, Kec. Seririt, Kabupaten Buleleng, Bali, Indonesia",https://maps.google.com/?cid=8784200812347294128,OPERATIONAL,,private_guest_room,"private_guest_room, lodging",,,,,,,,
ChIJ3eZNSvJ50S0RWsRecVi_nwI,D'Kubuko,-8.1999006,114.88728220000002,"RV2P+2WM, BTN Pesona Asri, Kalisada, Kec. Seririt, Kabupaten Buleleng, Bali 81153, Indonesia",https://maps.google.com/?cid=189080095952913498,OPERATIONAL,,resort_hotel,"resort_hotel, hotel, lodging",5,1,,,,,,
ChIJBaJ3MxF40S0R8dBxfonQpHk,Ngurah Tenus,-8.2013464,114.88659240000001,"QVXP+FJ8, Banjar Asem, Seririt, Buleleng Regency, Bali 81153, Indonesia",https://maps.google.com/?cid=8765360063720313073,OPERATIONAL,,cafe,"cafe, food",3.7,3,,,,,,
ChIJyTT5GOJ50S0RhQjX35HrUBk,Rumah Wisnawa,-8.2003138,114.88644550000001,"Unnamed Road, QVXP+VHG, Banjar Asem, Kec. Seririt, Kabupaten Buleleng, Bali 81153, Indonesia",https://maps.google.com/?cid=1824216860843247749,OPERATIONAL,+62 878-7766-4833,cafe,"cafe, food",,,,,,,,
ChIJVfByj_N50S0RSpB1NlP4NCI,Rumah Agus,-8.2006251,114.8862065,"QVXP+PFW, Banjar Asem, Seririt, Buleleng Regency, Bali, Indonesia",https://maps.google.com/?cid=2464867932358152266,CLOSED_TEMPORARILY,,coffee_shop,"coffee_shop, cafe, food, store",,,,,,,,
ChIJj1PH9xB40S0RWbqBkb2LfQs,I NYOMAN TINGGI,-8.199449000000001,114.88927890000001,"RV2Q+6PC, Kalisada, Seririt, Buleleng Regency, Bali 81153, Indonesia",https://maps.google.com/?cid=827971552812317273,OPERATIONAL,+62 812-3636-144,,lodging,4.5,2,,,,,,
ChIJK-IUoph50S0RhNWXwj_5M4Y,NONGKI Cafe,-8.2018509,114.8892922,"QVXQ+7P3, Jl. Singaraja-Gilimanuk, Banjar Asem, Kec. Seririt, Kabupaten Buleleng, Bali 81153, Indonesia",https://maps.google.com/?cid=9670346877137573252,OPERATIONAL,+62 881-0370-25314,coffee_shop,"coffee_shop, cafe, food, store",,,,,,,,
ChIJlYJBWhF40S0RfvxNRqtHi0g,Warung Dek Ari,-8.2025425,114.88726510000001,"QVWP+XWJ, Jl. Singaraja-Gilimanuk, Banjar Asem, Kec. Seririt, Kabupaten Buleleng, Bali 81153, Indonesia",https://maps.google.com/?cid=5227350593438088318,OPERATIONAL,,restaurant,"restaurant, food",5,1,,,,,,
