id,name,latitude,longitude,address,url,status,phone,primary-type,types,rating,rating-count,price-level,review 1,review 2,review 3,review 4,review 5
ChIJgdVb3CNn0S0R1aCYVQ1zjFM,Wr.babi Guling,-8.2589933,114.5310123,"ds, PGRJ+CC2, Ekasari, Kec. Melaya, Kabupaten Jembrana, Bali 82252, Indonesia",https://maps.google.com/?cid=6020313302995345621,OPERATIONAL,+62 817-7513-3259,indonesian_restaurant,"indonesian_restaurant, restaurant, food",4.6,86,PRICE_LEVEL_INEXPENSIVE,"We had a delicious and very affordable lunch there, I highly recommend this place!",The best so fare! And the portion is only 10tausend IDR!,"Awesome babi guling, very tasty, affordable price. Lovely people and honest.",Superb! Delicious and so affordable,Delicious food and friendly service!
ChIJfygz5f1n0S0RRD78Y2jxuiM,Kedai mie Ayam Bakso mama muda 3,-8.2627091,114.5338421,"Parkir area, Toko as baru, Ekasari, Kec. Negara, Kabupaten Jembrana, Bali 82252, Indonesia",https://maps.google.com/?cid=2574635567652027972,OPERATIONAL,+62 878-6249-3497,indonesian_restaurant,"indonesian_restaurant, restaurant, food",5,3,,,,,,
ChIJwWh3RNxn0S0RRa77qoAfqJA,Warung Muslim Sari Rejeki,-8.2625771,114.53089849999999,"PGPJ+X96, Ekasari, Melaya, Jembrana Regency, Bali 82252, Indonesia",https://maps.google.com/?cid=10423615975033908805,OPERATIONAL,+62 877-6223-6635,restaurant,"restaurant, food",5,3,,,,,,
ChIJWQqD1gpn0S0RvlfkM53zNH4,Warung Kuwir,-8.263528599999999,114.53075729999999,"PGPJ+H8J, Ekasari, Melaya, Jembrana Regency, Bali 82252, Indonesia",https://maps.google.com/?cid=9094161404073891774,OPERATIONAL,+62 877-6223-6535,restaurant,"restaurant, food",5,1,,,,,,
ChIJCQeLwQZn0S0RBD5Rwnm_lXY,BFC,-8.2616182,114.5315593,"Ekasari, Melaya, Jembrana Regency, Bali 82252, Indonesia",https://maps.google.com/?cid=8544946397677436420,OPERATIONAL,+62 877-6263-5222,fast_food_restaurant,"fast_food_restaurant, restaurant, food",3.5,2,,,,,,
ChIJX1KQeENn0S0R4zG7ml0HW18,warung makan boga merta,-8.258333,114.53054429999999,"PGRJ+M67, Unnamed Road, Ekasari, Kec. Melaya, Kabupaten Jembrana, Bali 82252, Indonesia",https://maps.google.com/?cid=6871093755093135843,OPERATIONAL,+62 819-9887-5366,restaurant,"restaurant, food",,,,,,,,
ChIJCxBtZKFn0S0RWYvWBlN0_98,Warung Bu Ayu,-8.259265599999999,114.5312675,"PGRJ+7GR, Ekasari, Melaya, Jembrana Regency, Bali 82252, Indonesia",https://maps.google.com/?cid=16140747489464978265,CLOSED_TEMPORARILY,,restaurant,"restaurant, food",,,,,,,,
ChIJ6WcX-ZVn0S0Rn99WSWtSKZQ,i nyoman kerti,-8.2598685,114.5301429,"QG2H+Q7, Ekasari, Melaya, Jembrana Regency, Bali 82252, Indonesia",https://maps.google.com/?cid=10676155012403879839,OPERATIONAL,,private_guest_room,"private_guest_room, lodging",,,,,,,,
ChIJ4dMSaIhn0S0RK--Mu9dRYes,Agus suartama,-8.2622403,114.5336469,"PGQM+4F2, Jl. Dusun Palasari, Ekasari, Kec. Melaya, Kabupaten Jembrana, Bali 82252, Indonesia",https://maps.google.com/?cid=16960927658660392747,CLOSED_TEMPORARILY,,lodging,lodging,,,,,,,,
ChIJq8YrqXJn0S0RF7H1qBmQgKA,UD. EKA SARI NADI,-8.257539099999999,114.53116469999999,"PGRJ+XFM, Ekasari, Melaya, Jembrana Regency, Bali 82252, Indonesia",https://maps.google.com/?cid=11565402282970689815,OPERATIONAL,,restaurant,"restaurant, food",4,4,,,,,,
ChIJB-4PBGpn0S0RoacpVszlvv0,The Cokelat Bali Guest House,-8.2647132,114.53073189999999,"Banjar Adnyasari, Ekasari, Kec. Melaya, Kabupaten Jembrana, Bali 82252, Indonesia",https://maps.google.com/?cid=18284304202952452001,OPERATIONAL,+62 812-3601-062,guest_house,"guest_house, lodging",5,10,,perfect place⭐️⭐️⭐️⭐️⭐️,,,,
