id,name,latitude,longitude,address,url,status,phone,primary-type,types,rating,rating-count,price-level,review 1,review 2,review 3,review 4,review 5
ChIJQdW37igH0i0RoLJxgp52BiE,Puri Djelantik Anyar Kelodan,-8.4533091,115.6103905,"GJW6+M5C, Jl. Pesagi, Subagan, Kec. Karangasem, Kabupaten Karangasem, Bali 80811, Indonesia",https://maps.google.com/?cid=2379719876277285536,OPERATIONAL,,museum,museum,4.7,7,,,,,,
ChIJ3_Tp9vUW0i0RbhNwNArEems,Genggong Cottages,-8.4572489,115.60649900000001,"Jl. Pantai Indah, Candidasa, GJV4+4H5, Amlapura, Subagan, Kec. Karangasem, Kabupaten Karangasem, Bali 80811, Indonesia",https://maps.google.com/?cid=7744718057325466478,OPERATIONAL,+62 363 41105,hotel,"hotel, lodging",,,,,,,,
ChIJS6Nty5cH0i0RzTG30T6W-IE,Asrama Polres karangasem,-8.4590448,115.60744249999999,"Jl. Bhayangkara No.1, Subagan, Kec. Karangasem, Kabupaten Karangasem, Bali 80813, Indonesia",https://maps.google.com/?cid=9365400621667529165,CLOSED_TEMPORARILY,,lodging,lodging,,,,,,,,
ChIJgflwICkG0i0R0vGTdGMbVSo,Pondok Ayam Bakar TALIWANG,-8.4574181,115.6066262,"GJV4+2MJ, Subagan, Karangasem, Karangasem Regency, Bali 80811, Indonesia",https://maps.google.com/?cid=3050374436584944082,OPERATIONAL,,restaurant,"indonesian_restaurant, restaurant, food",,,,,,,,
ChIJgyY23ygG0i0RDCFFUKNl120,Batur Indah Pondok Wisata,-8.4572489,115.60649900000001,"Dusun Tanah Lengis, GJV4+4H5, Subagan, Kec. Karangasem, Kabupaten Karangasem, Bali 80811, Indonesia",https://maps.google.com/?cid=7914906622227718412,OPERATIONAL,+62 363 22342,hostel,"hostel, lodging",,,,,,,,
ChIJPbcSrykG0i0RONRXDiYXinQ,Apa Kabar Villa,-8.459171,115.60723800000001,"GJR4+8VQ, Subagan, Karangasem, Karangasem Regency, Bali 80811, Indonesia",https://maps.google.com/?cid=8397549907402544184,OPERATIONAL,+62 363 23596,hostel,"hostel, lodging",3,2,,,,,,
ChIJpxp92ygG0i0RaqD_avlK-Ek,Fajar Candidasa Hotel,-8.45725,115.606,"GJV4+39X, Subagan, Karangasem, Karangasem Regency, Bali 80811, Indonesia",https://maps.google.com/?cid=5330092594095431786,OPERATIONAL,,hotel,"hotel, lodging",,,,,,,,
ChIJDSFh2CgG0i0RJQS2Ng1FDL0,Warung Antik dan Bertuah,-8.457049,115.60651299999999,"GJV4+5JJ, Subagan, Karangasem, Karangasem Regency, Bali 80811, Indonesia",https://maps.google.com/?cid=13622338895943697445,OPERATIONAL,+62 881-4645-163,restaurant,"restaurant, food",,,,,,,,
ChIJ93xdFgEH0i0Rql29vZu6aKI,Warung Lotus,-8.453449599999999,115.61180689999998,"GJW6+JPF, Jl. Pesagi, Karangasem, Kec. Karangasem, Kabupaten Karangasem, Bali 80811, Indonesia",https://maps.google.com/?cid=11702808809788235178,OPERATIONAL,+62 822-3758-8344,restaurant,"restaurant, food",,,,,,,,
ChIJsbEyMQAH0i0RfTCGAyDKevc,Kos kosan Puri Adhya Pesagi Karangasem,-8.4523457,115.6094152,"Jl. Pesagi Gg. Pudak Sari, Karangasem, Karangasem Regency, Bali 80811, Subagan, Kec. Karangasem, Kabupaten Karangasem, Bali 80812, Indonesia",https://maps.google.com/?cid=17832787913373790333,OPERATIONAL,+62 813-8090-9271,private_guest_room,"private_guest_room, lodging",5,2,,,,,,
