id,name,latitude,longitude,address,url,status,phone,primary-type,types,rating,rating-count,price-level,review 1,review 2,review 3,review 4,review 5
ChIJ45f7jXRH0i0R6VEHPNJgIzQ,Ayam Kremes Bu Sri,-8.5267862,115.1429185,"Perum BCA Multi Jadi IX/II No.22, Banjar Anyar, Sanggulan, Kabupaten Tabanan, Bali 82123, Indonesia",https://maps.google.com/?cid=3756952970223636969,OPERATIONAL,+62 878-6103-2205,restaurant,"restaurant, food",4.7,13,,ok,,,,
ChIJ38pRE_060i0RbbDrA0Q2hwo,JADI HOMESTAY RIVER VIEW,-8.525227899999999,115.1402409,"Perum Andika graha No A 48, Jadi pisah, Banjar Anyar, Kec. Kediri, Kabupaten Tabanan, Bali, Indonesia",https://maps.google.com/?cid=758634727986671725,OPERATIONAL,+62 813-5382-3856,,lodging,4.5,22,,May home,Top,,,
ChIJ-wQpmsVB0i0RT8lSLnW6vkM,CUPPY CUP Cincau Minuman Sehat,-8.526591,115.1405006,"Perumahan Andika Graha Blok IV Sanggulan,Br. Jadi Pisah, Banjar Anyar, Kec. Kediri, Kabupaten Tabanan, Bali 82123, Indonesia",https://maps.google.com/?cid=4881544058567313743,OPERATIONAL,+62 853-3808-0788,bar,bar,5,2,,,,,,
ChIJN7PIRbI70i0Rl41V6jOUwLY,Depot Surya,-8.5264503,115.14058959999998,"Unnamed Road, F4FR+C68, Banjar Anyar, Kediri, Tabanan Regency, Bali 82123, Indonesia",https://maps.google.com/?cid=13168688261127048599,OPERATIONAL,+62 812-3691-0118,restaurant,"restaurant, food",4.4,33,,Top,,,,
ChIJlfeZwz470i0RSszY8o0n2E8,Paon D'Jo,-8.5287639,115.14361380000001,"Perum Griya Multijadi Blok VIII Tahap II no. 23 Sanggulan, Banjar Anyar, Kec. Kediri, Kabupaten Tabanan, Bali 82121, Indonesia",https://maps.google.com/?cid=5753392014583974986,OPERATIONAL,+62 819-3948-3161,indonesian_restaurant,"indonesian_restaurant, restaurant, food",3.9,7,,,,,,
ChIJjTeEPbA70i0RI1yBmOt-gks,ùêöùê¢ùê´ ùê≠ùêûùê´ùê£ùêÆùêß ùê¶ùê¢ùêßùê¢,-8.5257769,115.1388129,"Banjar Anyar, Kediri, Tabanan Regency, Bali 82123, Indonesia",https://maps.google.com/?cid=5441050850158009379,OPERATIONAL,,tourist_attraction,tourist_attraction,,,,,,,,
ChIJYY7VH7E70i0RRu-64gZ-cuE,Angga Team,-8.5255653,115.13990249999999,"F4FQ+QXC, Banjar Anyar, Kediri, Tabanan Regency, Bali 82123, Indonesia",https://maps.google.com/?cid=16245185373917605702,OPERATIONAL,,,lodging,,,,,,,,
ChIJL4GqTrI70i0RiFcPtgzzwAU,Terang Bulan & Martabak Asli Bangka,-8.5268339,115.1427598,"Perum BCA Multi Jadi IX/II No.10, Sanggulan, Banjar Anyar, Kec. Kediri, Kabupaten Tabanan, Bali 82123, Indonesia",https://maps.google.com/?cid=414598401637701512,OPERATIONAL,+62 881-0373-29410,meal_takeaway,"meal_takeaway, restaurant, food",5,6,,,,,,
ChIJE14oiHc70i0RrYt1mNK5zVc,Tempong Doeloe,-8.524900500000001,115.14369750000002,"F4GV+2FP, Jl. Tukad Yeh Ho, Banjar Anyar, Kec. Kediri, Kabupaten Tabanan, Bali 82123, Indonesia",https://maps.google.com/?cid=6326917365677525933,OPERATIONAL,+62 857-3839-4712,restaurant,"restaurant, food",,,,,,,,
ChIJkzMG0pE70i0RFSyKBRREhlI,Pempek La Tansa,-8.5297792,115.14270099999997,"Perum Griya Multi Jadi Blok 8 nmr 10 Jadi, Banjar Anyar, Kec. Kediri, Kabupaten Tabanan, Bali 82121, Indonesia",https://maps.google.com/?cid=5946515210772294677,OPERATIONAL,+62 819-3307-2279,indonesian_restaurant,"indonesian_restaurant, restaurant, food",5,6,,,,,,
ChIJR8YzR1070i0RsgiGU5R_WaE,Kontrakan,-8.526089299999999,115.1427913,"F4FV+H48, Banjar Anyar, Kediri, Tabanan Regency, Bali, Indonesia",https://maps.google.com/?cid=11626464188066826418,OPERATIONAL,,private_guest_room,"private_guest_room, lodging",,,,,,,,
ChIJzWogbeE70i0RZtlSnSDXHTw,Casa de Nova Hostel,-8.5315303,115.1413317,"Jalan raya jadi, Banjar Anyar, Kec. Tabanan, Kabupaten Tabanan, Bali 82112, Indonesia",https://maps.google.com/?cid=4331854951678663014,OPERATIONAL,+62 878-4633-1551,motel,"motel, lodging",5,1,,,,,,
ChIJqV9bGQA70i0RuIUfrDHthGI,Gayul Food,-8.5294936,115.1420997,"Banjar Anyar, Kediri, Tabanan Regency, Bali 82121, Indonesia",https://maps.google.com/?cid=7099059710239671736,OPERATIONAL,+62 857-9258-7615,coffee_shop,"coffee_shop, cafe, store, food",,,,,,,,
ChIJb0h3hUFH0i0RH4x0nOilvkE,HER HER COCKTAIL,-8.526709,115.13968259999999,"Jl. Perum Jadi Indah No.7, Banjar Anyar, Kec. Kediri, Kabupaten Tabanan, Bali 82121, Indonesia",https://maps.google.com/?cid=4737406276516219935,CLOSED_TEMPORARILY,+62 895-4123-75168,bar,bar,5,5,,best cocktail in Bali üî•üî•,Nice,,,
ChIJz13seIo70i0R-7F4drQ-OMk,Mieke Tour & Trans Bali,-8.5276034,115.14174739999999,"Sanggulan, Banjar Anyar, Kec. Kediri, Kabupaten Tabanan, Bali 82121, Indonesia",https://maps.google.com/?cid=14499407945121968635,OPERATIONAL,+62 823-4038-4141,lodging,lodging,,,,,,,,
ChIJY1kmv1Q70i0RUOmLRUeZMFk,Kos an Bu Dewi,-8.523490299999999,115.1414606,"F4GR+JH4, Banjar Anyar, Kediri, Tabanan Regency, Bali 82123, Indonesia",https://maps.google.com/?cid=6426805199646222672,OPERATIONAL,,lodging,lodging,,,,,,,,
ChIJh2v3yDc70i0R6MnBX_tOTs4,Rumah Mahayana,-8.524860199999999,115.14256999999999,"F4FR+PXV, Jl. Tukad Yeh Ho, Banjar Anyar, Kec. Kediri, Kabupaten Tabanan, Bali 82123, Indonesia",https://maps.google.com/?cid=14865906261546879464,OPERATIONAL,,,lodging,5,2,,,,,,
ChIJ_2Qf0dM40i0R-AxAa9pZ5SA,Dapur Ulala Sanggulan,-8.5249728,115.1406753,"JADI HOMESTAY RIVER VIEW, Gg. I No.5 Blok K, Banjar Jadi Pisah, Kec. Kediri, Kabupaten Tabanan, Bali 82123, Indonesia",https://maps.google.com/?cid=2370399573517536504,OPERATIONAL,+62 878-1385-0763,fast_food_restaurant,"fast_food_restaurant, restaurant, food",4.8,5,,,,,,
ChIJQ8LzNXU70i0RUHHWO03Te8A,HOME DEWA KACUNG,-8.526071,115.1420091,"F4FR+HRC, Jl. Bisma, Banjar Anyar, Kec. Kediri, Kabupaten Tabanan, Bali 82123, Indonesia",https://maps.google.com/?cid=13869911806087426384,OPERATIONAL,,motel,"motel, lodging",,,,,,,,
ChIJVwjp96o70i0RE_q1pFkZBxQ,Donysa Sate Lilit Ayam Nikmat,-8.5229758,115.14103240000001,"Perum Andika Graha Blok Kavling No. 25 Banjar Jadi Pisah, Banjar Anyar, Kec. Kediri, Kabupaten Tabanan, Bali 82123, Indonesia",https://maps.google.com/?cid=1443150078401706515,OPERATIONAL,,,"restaurant, food",5,3,,,,,,
