id,name,latitude,longitude,address,url,status,phone,primary-type,types,rating,rating-count,price-level,review 1,review 2,review 3,review 4,review 5
ChIJUbog4RaD0S0RLZjOWSVptGo,Durian Bastala,-8.237714,114.9788255,"Unnamed Road, QX6H+WG8, Munduk Bestala, Banjar, Buleleng Regency, Bali 81152, Indonesia",https://maps.google.com/?cid=7688886072969697325,OPERATIONAL,,cafe,"cafe, food",3.8,5,,,,,,
ChIJHRjyTgCD0S0RB7hdDX9VzQQ,Warung Sami Laris,-8.239828,114.9822839,"QX6J+3W5, Munduk Bestala, Seririt, Buleleng Regency, Bali, Indonesia",https://maps.google.com/?cid=346026750550849543,OPERATIONAL,,brunch_restaurant,"brunch_restaurant, restaurant, food",5,1,,,,,,
ChIJl9di8TmD0S0RB-EotPMu9aI,Warung Bu Komang,-8.239863099999999,114.9823445,"QX6J+3W5, Munduk Bestala, Seririt, Buleleng Regency, Bali, Indonesia",https://maps.google.com/?cid=11742343227672944903,OPERATIONAL,,brunch_restaurant,"brunch_restaurant, restaurant, food",5,1,,,,,,
ChIJry3UxqSD0S0R0FB8h4qI4L8,Griya Agra Mandala Phalasari Asrham,-8.2405431,114.9829752,"QX5M+Q5Q, Munduk Bestala, Seririt, Buleleng Regency, Bali 81152, Indonesia",https://maps.google.com/?cid=13826200984587358416,OPERATIONAL,,,lodging,5,7,,Ok,,,,
ChIJGxjDdwCD0S0RFgdTtPJuaI8,Widara house,-8.240732,114.982389,"QX5M+Q5Q, Munduk Bestala, Seririt, Buleleng Regency, Bali 81152, Indonesia",https://maps.google.com/?cid=10333631333688084246,OPERATIONAL,,private_guest_room,"private_guest_room, lodging",,,,,,,,
ChIJ4wxm0d6D0S0RPJt9az_cnDY,INA,-8.234512,114.98395,"QX8M+5H, Banjar, Buleleng Regency, Bali, Indonesia",https://maps.google.com/?cid=3935262339359415100,OPERATIONAL,,park,park,,,,,,,,
