id,name,latitude,longitude,address,url,status,phone,primary-type,types,rating,rating-count,price-level,review 1,review 2,review 3,review 4,review 5
ChIJYSLC45Jn0S0RE2qmg9-4ux0,Silvia Yunia Dewi,-8.246573699999999,114.53080469999999,"QG3J+98F, Jl. Mawar, Blimbingsari, Kec. Melaya, Kabupaten Jembrana, Bali 82252, Indonesia",https://maps.google.com/?cid=2142509317870742035,OPERATIONAL,+62 813-5338-4848,hotel,"hotel, lodging",4.8,4,,,,,,
ChIJAfvv6bBn0S0RIEoCxT7xXH8,Arya Darmawan Homestay,-8.2432653,114.52939269999999,"Ekasari, Melaya, Jembrana Regency, Bali 82252, Indonesia",https://maps.google.com/?cid=9177475392569756192,OPERATIONAL,,hotel,"hotel, lodging",4.7,3,,,,,,
ChIJ92olxjFn0S0RgYwQYFQhL6s,I Kadek Dwi Sumertayasa,-8.2416159,114.5315309,"QG5J+9J, Ekasari, Melaya, Jembrana Regency, Bali 82252, Indonesia",https://maps.google.com/?cid=12335114550663744641,OPERATIONAL,,private_guest_room,"private_guest_room, lodging",,,,,,,,
ChIJXca687tn0S0R65Z2cT24knU,I ketut adi mahadeka,-8.2414677,114.53085519999999,"QG5J+C89, Jl. Mawar, Ekasari, Kec. Melaya, Kabupaten Jembrana, Bali 82252, Indonesia",https://maps.google.com/?cid=8472036423073437419,OPERATIONAL,+62 858-5801-6713,private_guest_room,"private_guest_room, lodging",,,,,,,,
ChIJfZbiRQdn0S0RDwWiIcI-GNo,Rumah putu noviana dewi,-8.2414503,114.53085759999999,"QG5J+C89, Jl. Mawar, Ekasari, Kec. Melaya, Kabupaten Jembrana, Bali 82252, Indonesia",https://maps.google.com/?cid=15715379903218189583,OPERATIONAL,,private_guest_room,"private_guest_room, lodging",,,,,,,,
