id,name,latitude,longitude,address,url,status,phone,primary-type,types,rating,rating-count,price-level,review 1,review 2,review 3,review 4,review 5
ChIJmWTYNJcX0i0RuKGyAJx7Chc,Pondok Arya Pengalasan(DULU),-8.5036547,115.3351244,"Br.Bangun Lemah Kangin, F8WP+G2Q, Apuan, Kec. Susut, Kabupaten Bangli, Bali 80661, Indonesia",https://maps.google.com/?cid=1660275322596270520,OPERATIONAL,,,lodging,5,4,,Natural place,,,,
ChIJTX8GluQX0i0Rdgzsjm56msk,Setra tanggahan talang jiwa,-8.505448699999999,115.33853019999998,"F8WQ+37C, Demulih, Susut, Bangli Regency, Bali 80661, Indonesia",https://maps.google.com/?cid=14527058163299781750,OPERATIONAL,,historical_landmark,historical_landmark,,,,,,,,
ChIJ9aJconAX0i0Rk-lJSHwwhSw,Pondok Arya Pengalasan(MADANGAN),-8.5032891,115.33532310000001,"F8WP+M4P, Br.Bangun Lemah Kangin, Apuan, Kec. Susut, Kabupaten Bangli, Bali 80661, Indonesia",https://maps.google.com/?cid=3208023619918227859,OPERATIONAL,,,lodging,,,,,,,,
ChIJ-5361RYX0i0Ra6H6P-77WCk,Rumah putuwin,-8.5034449,115.33486789999999,"F8WM+JWH, Apuan, Susut, Bangli Regency, Bali, Indonesia",https://maps.google.com/?cid=2979408154199761259,OPERATIONAL,,,lodging,,,,,,,,
ChIJ73kIp2sX0i0RY3rKzwOYQ48,Warung Gita,-8.5011984,115.33963270000001,"Demulih, Kabupaten, F8XQ+GVC, Susut, Kec. Bangli, Kabupaten Bangli, Bali 80661, Indonesia",https://maps.google.com/?cid=10323261913001785955,OPERATIONAL,+62 831-1760-9496,restaurant,"restaurant, food",,,,,,,,
ChIJrZbwGgAX0i0RIdbMsNP7UWU,PANTI MUSIC HOUSE,-8.5059953,115.3403209,"br tanggahan talang jiwa, Demulih, Kec. Susut, Kabupaten Bangli, Bali 80614, Indonesia",https://maps.google.com/?cid=7300893357567170081,OPERATIONAL,+62 813-3888-2943,bar,"bar, night_club",5,2,,,,,,
