id,name,latitude,longitude,address,url,status,phone,primary-type,types,rating,rating-count,price-level,review 1,review 2,review 3,review 4,review 5
ChIJOxcTn3oG0i0RZXMAaI32LDE,Warung Mina Sari Murti,-8.432852,115.5783264,"jalan raya gerobog dusun saren kauh desa budakeling karangasem, Buana Giri, Kec. Bebandem, Kabupaten Karangasem, Bali 80861, Indonesia",https://maps.google.com/?cid=3543478094029419365,OPERATIONAL,+62 852-3919-1919,restaurant,"restaurant, breakfast_restaurant, food",4.2,148,PRICE_LEVEL_MODERATE,Not so much choice in the menu which is in Indonesian only.,Delicious. I will come back someday on my next visit to Karangasem or Amed,Good,"Nice place, Balinese taste for freshwater fish culinary.",ok ok
ChIJjUAzHfgH0i0RlmWpWuo-Mmg,JRO DEWA GD WIDIARTA,-8.4307923,115.57358760000001,"HH9F+MCP, Jl. Saren Kauh, Buana Giri, Kec. Bebandem, Kabupaten Karangasem, Bali 80861, Indonesia",https://maps.google.com/?cid=7508132705044358550,OPERATIONAL,+62 817-5218-558,lodging,lodging,3.7,3,,,,,,
ChIJawxRwnsG0i0Rc692ThICBCk,Makam Raden Kyai Djalil,-8.4296869,115.5749875,"HHCF+4XH, Buana Giri, Bebandem, Karangasem Regency, Bali 80861, Indonesia",https://maps.google.com/?cid=2955489533110955891,OPERATIONAL,+62 896-5464-5127,historical_landmark,historical_landmark,5,18,,,,,,
ChIJK1sbPHoG0i0RSV7lBvQaAVw,Wr. Bu Kerti,-8.431788899999999,115.5751136,"HH9G+72Q, Buana Giri, Bebandem, Karangasem Regency, Bali 80861, Indonesia",https://maps.google.com/?cid=6629609761856118345,OPERATIONAL,,restaurant,"restaurant, food",4.5,2,,,,,,
ChIJs4NxW_gH0i0R5dRh4YH7dks,Kebon Kori,-8.435709,115.57688510000001,"HH7G+PQ6 Br. Dinas Saren Kauh, Jl. Saren Kauh, Budakeling, Kec. Bebandem, Kabupaten Karangasem, Bali 80861, Indonesia",https://maps.google.com/?cid=5437810135347090661,OPERATIONAL,+62 811-3873-025,tourist_attraction,tourist_attraction,5,2,,,,,,
ChIJOcAPcmAH0i0RdzWK8L_9Wng,Warung Buk Sari[Saka],-8.4320989,115.57501080000002,"Jl. Saren Kauh, Buana Giri, Kec. Bebandem, Kabupaten Karangasem, Bali 80861, Indonesia",https://maps.google.com/?cid=8672523033271481719,OPERATIONAL,,indonesian_restaurant,"indonesian_restaurant, restaurant, food",,,,,,,,
