id,name,latitude,longitude,address,url,status,phone,primary-type,types,rating,rating-count,price-level,review 1,review 2,review 3,review 4,review 5
ChIJRwAvUf6R0S0R9BM64T1EhOU,Kayehan sedaan,-8.1227818,115.16639319999999,"V5G8+VHJ, Jl. Pendem Jl. Raya Desa, Bebetin, Kec. Banjar, Kabupaten Buleleng, Bali 81171, Indonesia",https://maps.google.com/?cid=16538418764173677556,OPERATIONAL,,park,park,,,,,,,,
ChIJCQ_XFaKR0S0RRvFEcFbY_Ao,"Umah Akustik (drink,food,snack)",-8.1194416,115.1656651,"Menyali, Sawan, Buleleng Regency, Bali 81171, Indonesia",https://maps.google.com/?cid=791745500272718150,OPERATIONAL,+62 819-3882-8826,indonesian_restaurant,"indonesian_restaurant, restaurant, food",5,2,,,,,,
ChIJvwCjnuGR0S0RDl8STNrg6aA,WARUNG MAKAN MADE AMI,-8.1233472,115.16919159999998,"V5G9+MM8, Menyali, Sawan, Buleleng Regency, Bali 81171, Indonesia",https://maps.google.com/?cid=11595045943825817358,OPERATIONAL,+62 819-9901-3932,restaurant,"restaurant, food",4.8,8,,Nice,,,,
ChIJjVngd_GR0S0Rfm7M5BEXBeI,Warung Enak Wifi,-8.1229,115.16864179999999,"V5G9+RFJ, Jl. Raya Desa, Menyali, Kec. Sawan, Kabupaten Buleleng, Bali 81171, Indonesia",https://maps.google.com/?cid=16286448993075752574,OPERATIONAL,,night_club,night_club,,,,,,,,
ChIJj6-qgXCR0S0RNxM09qUGBOI,Oem,-8.1172374,115.1669799,"V5M8+4Q5, Jl. Raya Desa, Jagaraga, Kec. Sawan, Kabupaten Buleleng, Bali 81171, Indonesia",https://maps.google.com/?cid=16286149462348534583,OPERATIONAL,,restaurant,"restaurant, food",,,,,,,,
