id,name,latitude,longitude,address,url,status,phone,primary-type,types,rating,rating-count,price-level,review 1,review 2,review 3,review 4,review 5
ChIJ4zHlPDvf0y0RG_Z--FPJ1fo,Pantai Cupel 1,-8.3727114,114.56573209999999,"JHG8+W79, Cupel, Negara, Jembrana Regency, Bali, Indonesia",https://maps.google.com/?cid=18074574042009892379,OPERATIONAL,,tourist_attraction,tourist_attraction,4.4,39,,Very nice. Accomadation was very nice. Meals were excellent. Took a while to get the meal but was very nice. The bay and the lookout good. Hired a scooter to ride around. Excellent condition bike. Can change money down at the surfing beach. Highly recommend you stay a couple of days or more.,Quiet and clean beach.,Nice,,
ChIJc7t0t2bf0y0R6J6t7mVxCUQ,Warung LEK MIN Bakso,-8.373265,114.56777149999999,"JHG9+M4R, Gg. Matali, Cupel, Kec. Negara, Kabupaten Jembrana, Bali 82218, Indonesia",https://maps.google.com/?cid=4902574351979486952,OPERATIONAL,+62 821-4560-6198,indonesian_restaurant,"indonesian_restaurant, restaurant, food",4.5,20,,,,,,
ChIJ52wiyv3f0y0RiyxwuVuKGdE,Seblak Hot Dapur Keisya,-8.3704468,114.5679349,"JHH9+R54, Jl. Pantai Selatan, Cupel, Kec. Negara, Kabupaten Jembrana, Bali 82218, Indonesia",https://maps.google.com/?cid=15067226154902498443,OPERATIONAL,+62 857-7607-4450,coffee_shop,"coffee_shop, cafe, food, store",5,1,,,,,,
ChIJCbN11jJh0S0RjbEHe2lyuiw,Bakso Sahabat,-8.370156999999999,114.568192,"JHH9+W7P, Jl. Pantai Selatan, Cupel, Kec. Negara, Kabupaten Jembrana, Bali 82218, Indonesia",https://maps.google.com/?cid=3223014280698245517,OPERATIONAL,+62 823-1137-2442,indonesian_restaurant,"indonesian_restaurant, restaurant, food",4.2,30,,,,,,
ChIJ-9Wq9P9h0S0RA9LtszzYEdo,Mie Ayam Nur,-8.3695383,114.5684749,"JHJ9+59Q, Jl. Pantai Selatan, Cupel, Kec. Negara, Kabupaten Jembrana, Bali 82218, Indonesia",https://maps.google.com/?cid=15713578330100716035,OPERATIONAL,,restaurant,"restaurant, food",4.7,7,,,,,,
ChIJF-xM0trf0y0R8qWbVysfp14,KING GEPREK,-8.3717392,114.5667531,"Jl. Raya Pantai Cupel, Cupel, Kec. Negara, Kabupaten Jembrana, Bali 82551, Indonesia",https://maps.google.com/?cid=6820454431689778674,OPERATIONAL,+62 852-3949-3434,restaurant,"restaurant, food",5,3,,,,,,
ChIJVVVVFSlg0S0RaGp_GIlOU20,Barbar coffee shop,-8.3704774,114.5679557,"JHH9+R54, Jl. Pantai Selatan, Cupel, Kec. Negara, Kabupaten Jembrana, Bali 82218, Indonesia",https://maps.google.com/?cid=7877726523929619048,OPERATIONAL,+62 813-3767-7633,cafe,"cafe, food",4,10,,top,,,,
ChIJKYeBcE9h0S0RmCn9CCftVeQ,Mie ayam dan bakso,-8.3682961,114.5699898,"JHJ9+MXQ, Jl. Sandat, Cupel, Kec. Negara, Kabupaten Jembrana, Bali 82218, Indonesia",https://maps.google.com/?cid=16453317565578291608,OPERATIONAL,+62 823-3990-1963,indonesian_restaurant,"indonesian_restaurant, restaurant, food",4,1,,,,,,
ChIJs9sjiE_f0y0RMEEj6RJzog8,Warung Soto Ngah Saniah,-8.3720033,114.5699684,"JHH9+5XW, Jl. Teratai, Cupel, Kec. Negara, Kabupaten Jembrana, Bali 82218, Indonesia",https://maps.google.com/?cid=1126589381854052656,CLOSED_TEMPORARILY,,indonesian_restaurant,"indonesian_restaurant, restaurant, food",,,,,,,,
ChIJIbai4vNh0S0R58MkhZYd6yY,Warung makan sinar barokah cupel,-8.3679128,114.5699039,"bjr.mandar, Jl. Pantai Selatan, Cupel, Kec. Negara, Kabupaten Jembrana, Bali, Indonesia",https://maps.google.com/?cid=2804367725284344807,CLOSED_TEMPORARILY,+62 817-7504-4120,indonesian_restaurant,"indonesian_restaurant, restaurant, food",,,,,,,,
ChIJZcbGc3Nh0S0ReG6CX8-LNHA,Warung kak nung,-8.3675657,114.5700682,"JHJC+X2G, Jl. Raya Pantai Cupel, Baluk, Kec. Negara, Kabupaten Jembrana, Bali 82218, Indonesia",https://maps.google.com/?cid=8085240953813757560,OPERATIONAL,,coffee_shop,"coffee_shop, cafe, food, store",5,1,,,,,,
ChIJZ-sfnIDf0y0RGwftYVcPBCU,WARUNG SINGGAH LANAN MAK NGA SANA,-8.3705485,114.56770209999999,"Cupel, Negara, Jembrana Regency, Bali, Indonesia",https://maps.google.com/?cid=2667273747289671451,OPERATIONAL,,restaurant,"restaurant, food",,,,,,,,
ChIJi5RsYwBh0S0R9EUdzf_5ANs,KEDAI 29 BU ROF,-8.3691722,114.569113,"JHJ9+8JQ, Jl. Pantai Selatan, Cupel, Kec. Negara, Kabupaten Jembrana, Bali, Indonesia",https://maps.google.com/?cid=15780887971359442420,OPERATIONAL,,restaurant,"restaurant, food",,,,,,,,
ChIJ3wWiNwBh0S0RzQP83qK2CUs,Seblak Prasmanan DK,-8.369377199999999,114.56897749999999,"JHJ9+6HX, Jl. Pantai Selatan, Banjar Mandar, Cupel, Kec. Negara, Kabupaten Jembrana, Bali 82218, Indonesia",https://maps.google.com/?cid=5407053638277006285,OPERATIONAL,,brunch_restaurant,"brunch_restaurant, restaurant, food",,,,,,,,
ChIJO6zUIADf0y0RCfWh9fHJxRE,Sate manalagi,-8.374236999999999,114.569581,"JHG9+7R4, Pengambengan, Kec. Negara, Kabupaten Jembrana, Bali, Indonesia",https://maps.google.com/?cid=1280651710102107401,OPERATIONAL,+62 853-3399-5350,brunch_restaurant,"brunch_restaurant, restaurant, food",,,,,,,,
ChIJERe5Yvff0y0RwGLQuQM-LRY,Sate gule,-8.3743117,114.56957109999999,"Cupel, Negara, Jembrana Regency, Bali 82251, Indonesia",https://maps.google.com/?cid=1598001628509659840,OPERATIONAL,+62 853-3399-5350,restaurant,"restaurant, food",,,,,,,,
