id,name,latitude,longitude,address,url,status,phone,primary-type,types,rating,rating-count,price-level,review 1,review 2,review 3,review 4,review 5
ChIJJQoenzTf0y0R-ewZDV-4x5I,LESEHAN IKAN BAKAR MUARA MALANG M2,-8.3867406,114.59299120000001,"Jl. Raya Negara-Pengambengan No.km 5, Tegal Badeng Tim., Kec. Negara, Kabupaten Jembrana, Bali 82218, Indonesia",https://maps.google.com/?cid=10576624968284105977,OPERATIONAL,+62 812-3218-2225,indonesian_restaurant,"indonesian_restaurant, restaurant, food",4.7,58,,,,,,
ChIJ9dDFyGDf0y0RRw0fXvbVaQI,Pondok Wisata Galuh,-8.3887979,114.59406530000001,"Jl. Raya Negara-Pengambengan, Lelateng, Kec. Negara, Kabupaten Jembrana, Bali 82218, Indonesia",https://maps.google.com/?cid=173905314748239175,OPERATIONAL,+62 812-3918-0999,,"private_guest_room, lodging",4,2,,,,,,
ChIJr5_xWnLf0y0RPaA6mtOq-68,COFFEE SUMO4D,-8.3884425,114.593481,"JH6V+J9H, Lelateng, Negara, Jembrana Regency, Bali 82218, Indonesia",https://maps.google.com/?cid=12680917001594118205,OPERATIONAL,,coffee_shop,"coffee_shop, cafe, food, store",,,,,,,,
ChIJM03wGi_f0y0RWzY-F3lx_Tw,ARYA KAFE BAR & KARAOKE,-8.3883833,114.5934656,"JH6V+J9W, Jl. Raya Negara-Pengambengan, Pengambengan, Kec. Negara, Kabupaten Jembrana, Bali 82218, Indonesia",https://maps.google.com/?cid=4394793576278406747,OPERATIONAL,+62 852-1958-5044,cafe,"cafe, food",4.8,4,,,,,,
ChIJx9tu1ZHf0y0RrIh0lR-v4IQ,Warung Makan Babi Guling Bu Ani,-8.3859021,114.59470100000001,"JH7V+JVP, Jl. Raya Pengambengan, Tegal Badeng Tim., Kec. Negara, Kabupaten Jembrana, Bali 82218, Indonesia",https://maps.google.com/?cid=9574845357975963820,OPERATIONAL,+62 878-6187-7273,restaurant,"restaurant, food",5,1,,,,,,
