id,name,latitude,longitude,address,url,status,phone,primary-type,types,rating,rating-count,price-level,review 1,review 2,review 3,review 4,review 5
ChIJQaNc45Qb0i0RzhRkAPGgVRo,Lembah Arca Inn,-8.3956954,115.43396539999999,"HCVG+788, Jl. Kedugung Besakih, Menanga, Kec. Rendang, Kabupaten Karangasem, Bali 80863, Indonesia",https://maps.google.com/?cid=1897599774960653518,OPERATIONAL,,motel,"motel, lodging",,,,,,,,
ChIJ3xYNuYIc0i0Rz8IvpRHFCgs,Warung Bu Ari,-8.391530699999999,115.43681120000001,"JC5P+9PM, Jl. Kedugung Besakih, Menanga, Kec. Rendang, Kabupaten Karangasem, Bali 80863, Indonesia",https://maps.google.com/?cid=795664963760800463,OPERATIONAL,+62 821-4183-9236,indonesian_restaurant,"indonesian_restaurant, restaurant, food",3.8,12,,Ok,,,,
ChIJ68VI9ssd0i0RPMy067ht2zg,Dagang tuak lokal,-8.3908382,115.43660750000001,"JC5P+MJ9, Jl. Kedugung Besakih, Menanga, Kec. Rendang, Kabupaten Karangasem, Bali 80863, Indonesia",https://maps.google.com/?cid=4096988927019502652,OPERATIONAL,,bar,"bar, food",,,,,,,,
ChIJJZsDWS4b0i0RqjU2j8CSoUM,Pondok MK muliy,-8.3974159,115.43532739999998,"JC3P+937, Menanga, Rendang, Karangasem Regency, Bali 80863, Indonesia",https://maps.google.com/?cid=4873337627525658026,OPERATIONAL,,,lodging,5,1,,,,,,
ChIJvQFtGY0b0i0R7eTflt4s1W0,Pondok Mank Agonk,-8.3965982,115.4351634,"JC3P+937 br.belatung, Menanga, Kec. Rendang, Kabupaten Karangasem, Bali 80863, Indonesia",https://maps.google.com/?cid=7914281254699132141,OPERATIONAL,+62 812-3911-4380,,lodging,,,,,,,,
