id,name,latitude,longitude,address,url,status,phone,primary-type,types,rating,rating-count,price-level,review 1,review 2,review 3,review 4,review 5
ChIJ-WBrppkv0i0RuqpJrWO0RFo,Banjar Anom Lumbung,-8.4808775,115.0060915,"G294+JC, Lumbung, Selemadeg Barat, Tabanan Regency, Bali 82162, Indonesia",https://maps.google.com/?cid=6504522102031887034,OPERATIONAL,,tourist_attraction,tourist_attraction,5,1,,,,,,
ChIJNw0BtLsv0i0RE6VbKIxN2nw,Pak Okoh,-8.477470499999999,115.00246,"G2F2+2X8, Lumbung, Selemadeg Barat, Tabanan Regency, Bali 82162, Indonesia",https://maps.google.com/?cid=8996588469993841939,CLOSED_TEMPORARILY,,tourist_attraction,tourist_attraction,,,,,,,,
ChIJc0U2fgAv0i0R7I3ZEBiv5YI,Banjar Anom Sunset Point,-8.4829899,115.00574549999997,"G284+R75, Lumbung, Selemadeg Barat, Tabanan Regency, Bali 82162, Indonesia",https://maps.google.com/?cid=9432137512494140908,OPERATIONAL,,tourist_attraction,tourist_attraction,,,,,,,,
ChIJP68UegAv0i0RH39QCQLVy4s,Rumah Oscar,-8.4774574,115.0022523,"G2F2+2X8, Lumbung, Selemadeg Barat, Tabanan Regency, Bali 82162, Indonesia",https://maps.google.com/?cid=10073379196267167519,OPERATIONAL,,bed_and_breakfast,"bed_and_breakfast, lodging",,,,,,,,
ChIJg2io2vov0i0REdBVohKmGD0,Adinadewi,-8.4769648,115.0026825,"G2F2+2X8 Lumbung Br, Sembung, Kec. Selemadeg Bar., Kabupaten Tabanan, Bali 82162, Indonesia",https://maps.google.com/?cid=4402451234717814801,OPERATIONAL,+62 877-8931-5470,,"private_guest_room, lodging",,,,,,,,
