id,name,latitude,longitude,address,url,status,phone,primary-type,types,rating,rating-count,price-level,review 1,review 2,review 3,review 4,review 5
ChIJe3SFSCwF0i0RU0LEgxEt6WQ,Puri Agung Inn,-8.4369675,115.47757659999999,"HF7H+628, Jl. Baledan, Selat, Kec. Selat, Kabupaten Karangasem, Bali 80862, Indonesia",https://maps.google.com/?cid=7271392626614747731,OPERATIONAL,,hostel,"hostel, lodging",4.1,30,,"Despite the negative reviews on booking platforms, this was a nice pleasant stay.

The owner was friendly and cheerful. Garden was very nice. The rooms showed their age, and could use a little bit more cleanliness.","Its a beautiful place, beautiful garden, nice water fountains, very friendly staff, delicious breakfast and some cute kittens to pet. Am awesome rice field opposite, much better than sideman rice trek, fire flies in the night there, great and very cheap warungs nearby, what else would a tourist need","I had a dream when i sleep there. The dream is i got a shot by a big gun. And then i woke up. After i checked out, the material in the bathroom is falling apart. So thats a reason why i got the nightmare. Sound from the material is a gun in my dream. And the place is spooky","Good place, old building",Good
ChIJI3YovCwF0i0Rx8dhF4yFFE4,Warung 'Mbok Danty'Pasar Sengol Selat,-8.4359991,115.47439080000001,"HF7F+JQ2 br dinas selat kelod, Jl. Gn. Agung desa, Selat, Kec. Selat, Kabupaten Karangasem, Bali 80862, Indonesia",https://maps.google.com/?cid=5626268671226791879,OPERATIONAL,+62 813-3902-3476,restaurant,"restaurant, food",4.3,3,,,,,,
ChIJ3ep2N1sF0i0RfHl0Zr1NtTc,Wr.Candra,-8.4324531,115.47543850000001,"HF9G+258, Jl. Gn. Agung, Amerta Bhuana, Kec. Selat, Kabupaten Karangasem, Bali 80862, Indonesia",https://maps.google.com/?cid=4014200118733732220,OPERATIONAL,,indonesian_restaurant,"indonesian_restaurant, restaurant, food",,,,,,,,
ChIJn7BcviwF0i0R8SLP9-CX6Xw,Wantilan Selat Baledan,-8.4363336,115.4746792,"HF7F+FV7, Selat, Karangasem Regency, Bali 80862, Indonesia",https://maps.google.com/?cid=9000892322762662641,OPERATIONAL,,museum,museum,5,1,,,,,,
ChIJdSjKiyoF0i0RmqV3QrPu9To,Kariana dreper,-8.436135499999999,115.474576,"HF7F+GRW, dnsDesa sebunSebudi, Kec. Selat, Kabupaten Karangasem, Bali, Indonesia",https://maps.google.com/?cid=4248564277175625114,OPERATIONAL,,park,park,,,,,,,,
ChIJEaUs7ywF0i0R28RuzPX_hb0,Pondok Herballs,-8.4368745,115.47518099999999,"HF7G+733, Jl. Baledan, Selat, Kec. Selat, Kabupaten Karangasem, Bali 80862, Indonesia",https://maps.google.com/?cid=13656602876232778971,OPERATIONAL,,,lodging,,,,,,,,
ChIJ_4ub3gkF0i0Rua_6kWeajP0,XieXie Boba Selat,-8.4369784,115.4747224,"HF7F+6V5, Jalan Raya, Duda Tim., Kec. Selat, Kabupaten Karangasem, Bali 80862, Indonesia",https://maps.google.com/?cid=18270147557956693945,CLOSED_TEMPORARILY,,bar,bar,1,2,,,,,,
ChIJ7exDzGQF0i0Rn74txHR6IS8,B fried Chicken Expres,-8.4369444,115.47473,"HF7F+6VH, Jl. Baledan, Selat, Kec. Selat, Kabupaten Karangasem, Bali 80862, Indonesia",https://maps.google.com/?cid=3396130235940191903,OPERATIONAL,+62 858-5728-5597,meal_takeaway,"meal_takeaway, restaurant, food",5,2,,,,,,
ChIJW074wywF0i0RDGa2QADaSyE,Warung Nasi Kuah Cundang,-8.4368531,115.47448200000001,"HF7F+7Q5, Jalan Raya, Duda Tim., Kec. Selat, Kabupaten Karangasem, Bali 80862, Indonesia",https://maps.google.com/?cid=2399250921125471756,OPERATIONAL,,indonesian_restaurant,"indonesian_restaurant, restaurant, food",4.5,2,,,,,,
