id,name,latitude,longitude,address,url,status,phone,primary-type,types,rating,rating-count,price-level,review 1,review 2,review 3,review 4,review 5
ChIJ-cmdq0cX0i0RdGwZAD94wlc,Oregano pizza coffe & eatery,-8.4776876,115.35163809999999,"Jl. Merdeka, Bebalang, Kec. Bangli, Kabupaten Bangli, Bali 80614, Indonesia",https://maps.google.com/?cid=6323749038761536628,OPERATIONAL,+62 878-6251-0254,cafe,"cafe, food",4.9,41,,"Trully a hidden gem. The food was excellent, the atmosphere good and the price is reasonable. A must visit place if you're in this area or on the way to/from kintamani","Didn't expect fruity waffle with BlackBerry in it. It's cheaper than ice cream waffle? How come?
Delicious with affordable price","Delicious pizza. Worth the drive!
Beautiful Family

Only recommendation would be some cushions on the bench seating

Many Blessings for them on their Business
üôèüèΩ","The pizza was good, I really like the smoothies bowl too! Very refreshing in the hot weather",We were on the road with my girlfriend and we were looking for somewhere to eat. We find this beautiful place to eat one of the best Pizza I have ever eat (and I went in Italia). The people are just so nice and the place is really unique. Go there without hesitation.
ChIJh9yeNOMX0i0Rcd_ETvctpnM,Warung Depot Melati,-8.4795196,115.3516388,"Jl. Merdeka No.200, Banjar Petak, Bebalang, Kec. Bangli, Kabupaten Bangli, Bali 80614, Indonesia",https://maps.google.com/?cid=8333398700697378673,OPERATIONAL,+62 812-3774-5598,indonesian_restaurant,"indonesian_restaurant, restaurant, food",4.7,32,,"Very Recommended, The food was so delicious, and the pleace is amazingüòòüïä","Really nice place and food! Recommended
Just some portions are small","Beautiful garden setting
Simple menu , and great value
And nice food","Pretty good taste and atmosphere, but most of all, the services are good",
ChIJm9XrYrgX0i0R_oKlqhaylpc,Rumah Agung Sembung,-8.4821172,115.3486075,"G89X+5C5, Bebalang, Bangli, Bangli Regency, Bali 80614, Indonesia",https://maps.google.com/?cid=10923113756655715070,OPERATIONAL,,,lodging,3.8,5,,,,,,
ChIJryVsbCEZ0i0RWzvQCOtzcAE,"Warung Babi Guling ""DEPOT MELATI"" Br. Petak Bebalang Bangli",-8.4794401,115.35157749999999,"Br.Petak, Bebalang, Kec. Bangli, Kabupaten Bangli, Bali 80614, Indonesia",https://maps.google.com/?cid=103710244731894619,OPERATIONAL,+62 896-0404-8678,indonesian_restaurant,"breakfast_restaurant, indonesian_restaurant, restaurant, food",4.2,32,,,,,,
ChIJWfab5wEX0i0RAm0SDrZnXoM,BLACKWOOD BAR+KITCHEN,-8.4799253,115.3511736,"Jl. Merdeka, Bebalang, Kec. Bangli, Kabupaten Bangli, Bali 80614, Indonesia",https://maps.google.com/?cid=9466117498397158658,OPERATIONAL,+62 851-7973-4123,bar,bar,4.5,16,,,,,,
ChIJ_____94Z0i0RcFrOerMcTzM,Den Desa Kuning,-8.476464,115.3519086,"G9F2+CQ7, Bebalang, Bangli, Bangli Regency, Bali 80614, Indonesia",https://maps.google.com/?cid=3697205376279534192,OPERATIONAL,,tourist_attraction,tourist_attraction,4.1,36,,Near Trunyan that have a unique objects,Good view,So good,Fresh place,Nice
ChIJmxObjpkZ0i0RII25X2Vo2rc,LAWAR KAMBING WR BALARAMA,-8.4772584,115.35190469999998,"Jl. Merdeka No.126, Bebalang, Kec. Bangli, Kabupaten Bangli, Bali 80614, Indonesia",https://maps.google.com/?cid=13248016038470716704,OPERATIONAL,+62 812-4654-0873,indonesian_restaurant,"indonesian_restaurant, restaurant, food",5,4,,,,,,
ChIJYQOBdd8Z0i0R-fz4fr8uRMU,Warung Tifrany,-8.477894299999999,115.3518956,"Jl. Merdeka No.105X, Bebalang, Kec. Bangli, Kabupaten Bangli, Bali 80614, Indonesia",https://maps.google.com/?cid=14214537723892006137,CLOSED_TEMPORARILY,,restaurant,"restaurant, food",,,,,,,,
ChIJfQBRIgAX0i0RTIvd_9IYGZg,Air Terjun Bugbugan,-8.481157699999999,115.34824309999999,"G89X+G7Q, Banjar Sembung, Bebalang, Kec. Bangli, Kabupaten Bangli, Bali, Indonesia",https://maps.google.com/?cid=10959818462697720652,OPERATIONAL,,tourist_attraction,tourist_attraction,5,25,,such a nice place!,Good view,what a nice view!‚ù§Ô∏è,,
ChIJI9DDxr8X0i0RWN3bm1y52ig,Warung Lalapan & nasi goreng banyuwangi (cak teguh),-8.4807291,115.3512063,"Jl. Merdeka No.104, Bebalang, Kec. Bangli, Kabupaten Bangli, Bali 80614, Indonesia",https://maps.google.com/?cid=2943869113843047768,OPERATIONAL,+62 858-5764-9489,indonesian_restaurant,"indonesian_restaurant, restaurant, food",5,2,,,,,,
ChIJLQwQg7QZ0i0RflZbUJgM91k,Ramatasa Pondoke Petak,-8.4784799,115.3508387,"G9C2+J84, Bebalang, Bangli, Bangli Regency, Bali 80614, Indonesia",https://maps.google.com/?cid=6482664036945843838,OPERATIONAL,,cottage,"cottage, lodging",,,,,,,,
ChIJP7JeIQMX0i0RfJsJhqaUa_g,Warung Merta Asih (pak Sabar),-8.4818762,115.3516684,"No, Jl. Merdeka No.112, Bebalang, Bangli, Bangli Regency, Bali 80614, Indonesia",https://maps.google.com/?cid=17900564586848426876,OPERATIONAL,,lodging,lodging,3.7,3,,,,,,
ChIJjZVtenYX0i0RC4Mh5KhYO_k,Warung sate madura BANG SAM,-8.4806742,115.35119920000001,"Jl. Merdeka No.105, Bebalang, Kec. Bangli, Kabupaten Bangli, Bali 80614, Indonesia",https://maps.google.com/?cid=17959045421475136267,OPERATIONAL,+62 831-7903-2581,indonesian_restaurant,"indonesian_restaurant, restaurant, food",5,2,,,,,,
ChIJ-SOeibkZ0i0RdM9FYGdfdL8,Warung Makan Lawar Bali Bima Kroda 2,-8.478212,115.3515865,"G9C2+PJ8, Jl. Merdeka, Bebalang, Kec. Bangli, Kabupaten Bangli, Bali 80614, Indonesia",https://maps.google.com/?cid=13795756456144129908,OPERATIONAL,+62 822-3700-1908,indonesian_restaurant,"indonesian_restaurant, restaurant, food",5,2,,,,,,
ChIJqR683aQX0i0RFYPT8Rtjm_8,wnc.culiner,-8.4826709,115.35093010000001,"G982+W9M ban gli, Jl. Merdeka, petak, Bebalang, Kec. Bangli, Kabupaten Bangli, Bali 80614, Indonesia",https://maps.google.com/?cid=18418424072734212885,OPERATIONAL,+62 812-4674-5925,restaurant,"restaurant, food",,,,,,,,
ChIJmeDrmCwZ0i0RachxrDDuZXM,Warungmaimai,-8.4817359,115.3507697,"Jl. Merdeka No.54, Bebalang, Kec. Bangli, Kabupaten Bangli, Bali 80614, Indonesia",https://maps.google.com/?cid=8315314179828467817,OPERATIONAL,+62 815-5872-0356,restaurant,"restaurant, food",,,,,,,,
ChIJM_SWS3kX0i0Rgrz-thXOKMU,RUMAH,-8.4827063,115.35054609999999,"Jl. Merdeka No.200, Bebalang, Kec. Bangli, Kabupaten Bangli, Bali 80614, Indonesia",https://maps.google.com/?cid=14206831617200012418,OPERATIONAL,,,lodging,,,,,,,,
ChIJJSfr24kX0i0RK9aafVngW88,Taru Jehem,-8.4810825,115.3506158,"Unnamed Road, G992+H69, Bebalang, Kec. Bangli, Kabupaten Bangli, Bali 80614, Indonesia",https://maps.google.com/?cid=14941782863695762987,OPERATIONAL,+62 852-3713-9003,art_gallery,art_gallery,,,,,,,,
ChIJb0rZJCEZ0i0RJOJu5ay7SFg,WG - Warung Makan Soka & Coffee,-8.477105,115.35178409999997,"G9F2+5P3, Jl. Merdeka, Bebalang, Kec. Bangli, Kabupaten Bangli, Bali 80614, Indonesia",https://maps.google.com/?cid=6361540824918843940,OPERATIONAL,+62 812-3774-0593,restaurant,"restaurant, food",,,,,,,,
ChIJpaZZnL8X0i0RQcP0dhvTbQg,Bali 205,-8.4812979,115.351208,"G992+FFP, Jl. ke Bebalang, Taman Bali, Kec. Bangli, Kabupaten Bangli, Bali 80614, Indonesia",https://maps.google.com/?cid=607373639678214977,OPERATIONAL,+62 821-4477-8276,restaurant,"restaurant, food",,,,,,,,
