id,name,latitude,longitude,address,url,status,phone,primary-type,types,rating,rating-count,price-level,review 1,review 2,review 3,review 4,review 5
ChIJZTmOlWVh0S0RXQ7TJqYi15A,"Agrowisata Munduk Nangka Desa Berangbang, Tangimeyeh",-8.3134638,114.60885569999998,"Unnamed Road, Berangbang, Kec. Negara, Kabupaten Jembrana, Bali 82218, Indonesia",https://maps.google.com/?cid=10436848758465695325,OPERATIONAL,+62 878-6010-1020,tourist_attraction,tourist_attraction,4.2,98,,Good place for enjoy the rice field and wind blow. You can rest from your bussines here,Good,Very nice view rice terrace Munduk Nangka,Very nice view,Good
ChIJkfSb4BNh0S0R5cjb9-RIy_A,GREEN HILL BALI,-8.315815599999999,114.611508,"MJM6+MH, Berangbang, Negara, Jembrana Regency, Bali 82218, Indonesia",https://maps.google.com/?cid=17351042137623087333,OPERATIONAL,+62 819-0703-4541,tourist_attraction,tourist_attraction,5,2,,,,,,
ChIJmSroUJJh0S0RawDRucWqH_4,Lemah Duwur & Twin Tower,-8.315826999999999,114.611415,"MJM6+MH, Berangbang, Negara, Jembrana Regency, Bali 82218, Indonesia",https://maps.google.com/?cid=18311542376114487403,OPERATIONAL,,tourist_attraction,tourist_attraction,4.3,4,,,,,,
ChIJQ3GPyVNh0S0RmsCjKEZcx4w,Negara Berkembang,-8.312005,114.60872189999998,"MJQ5+5FX, Jalan, Berangbang, Kec. Negara, Kabupaten Jembrana, Bali 82218, Indonesia",https://maps.google.com/?cid=10144178142074618010,OPERATIONAL,,bar,bar,,,,,,,,
ChIJb2ziGsBh0S0R_4tQGhCB1uM,Subak Jelepung II,-8.3139243,114.61199819999997,"MJP6+CQQ, Berangbang, Negara, Jembrana Regency, Bali 82218, Indonesia",https://maps.google.com/?cid=16417451397786668031,CLOSED_TEMPORARILY,,tourist_attraction,tourist_attraction,4.8,6,,Good view for rest area with natural culture,A place to see rice terrace,,,
ChIJ27IzL_xh0S0RNUpvxV4icsQ,Lantari's House,-8.3134414,114.60711979999999,"MJP4+JRH, Jalan, Berangbang, Kec. Negara, Kabupaten Jembrana, Bali 82218, Indonesia",https://maps.google.com/?cid=14155414369213565493,CLOSED_TEMPORARILY,+62 857-3730-3822,private_guest_room,"private_guest_room, lodging",,,,,,,,
ChIJZR-6Sgdh0S0RwOR4-8uItzk,Eris home stay,-8.3174978,114.60644549999999,"MJM4+2H4, Berangbang, Negara, Jembrana Regency, Bali 82218, Indonesia",https://maps.google.com/?cid=4158943190578685120,OPERATIONAL,,hotel,"hotel, lodging",,,,,,,,
ChIJSfaaac1h0S0RiBQmQRbkZOs,Adhy Burger's Homes,-8.3117248,114.60896029999999,"Berangbang, Negara, Jembrana Regency, Bali 82218, Indonesia",https://maps.google.com/?cid=16961932880817558664,OPERATIONAL,+62 831-1555-1166,,lodging,,,,,,,,
ChIJLwhXw1Rh0S0RcmeDO2f-sis,iyode homestay.,-8.3129025,114.60651270000001,"MJP4+RJJ, Jalan, Berangbang, Kec. Negara, Kabupaten Jembrana, Bali 82218, Indonesia",https://maps.google.com/?cid=3148858808818952050,CLOSED_TEMPORARILY,,lodging,lodging,,,,,,,,
