id,name,latitude,longitude,address,url,status,phone,primary-type,types,rating,rating-count,price-level,review 1,review 2,review 3,review 4,review 5
ChIJvXwaa0gx0i0R9dXZFD9AklU,WaroengTT,-8.557975899999999,115.0428891,"Jalan Tibubiu, Beraban, Kec. Selemadeg Tim., Kabupaten Tabanan, Bali 82161, Indonesia",https://maps.google.com/?cid=6166061479500568053,OPERATIONAL,+62 859-6434-8945,restaurant,"restaurant, food",4.6,27,,"I stumbled upon this place Nyepi eve while biking through town.  It looked like a nice little local joint so I decided to stop for lunch. It was definitely popular with the locals, but had an international flair that would make tourists feel welcome as well.  The atmosphere was wonderful, the food was amazing, and the place was very clean for this far off the beaten path in Bali.  The staff were very friendly and the food was an excellent value!  This little joint was a real charm, I will definitely be back again before I leave!","Found this perfect little spot for a light meal. We ordered fried chicken with rice and mie ayam. Both were delicious and satisfying. Always appreciate friendly service and clean waroeng. Can't find a better deal in this village! If near by and looking for food, this is the spot to go!",Good food and awesome friendly owner. You will not regret stopping there for a bite.,"Great food, nice people and good prices..

A must-go when you are in the area..

üêîüå∂üî•",Nice juice and for snack. With friendly rescue dog name BongBong
ChIJJyu46B4x0i0Rr1ZwmerJzzE,Warung Makan Buk Mertayasa,-8.5576783,115.04256020000001,"C2RV+W2F, Jl. Tangguntiti, Beraban, Kec. Selemadeg Tim., Kabupaten Tabanan, Bali 82161, Indonesia",https://maps.google.com/?cid=3589309437471381167,OPERATIONAL,+62 858-5845-5212,restaurant,"restaurant, food",4.5,15,,"Small food stall, provide you kampoeng meatball and juice. Responsible ingridient and tasty",I couldn't fault this place. Good reliable home cooked food. They speak English which is good for tourist. We had the nasi Goreng with egg and Nasi Goeeng with chicken. Both were very tasty. .,,,
ChIJMTYCOQox0i0RhiyORapsZ3Q,Warung listya,-8.5592574,115.0436975,"C2RV+7FW, Tibubiu, Kerambitan, Tabanan Regency, Bali 82161, Indonesia",https://maps.google.com/?cid=8387792309568023686,OPERATIONAL,+62 878-6142-7257,restaurant,"restaurant, food",5,2,,,,,,
ChIJ-bYduYox0i0Rzw3tR5raRFs,Dein Bar,-8.5610306,115.03871329999998,"Jl.Raya Pantai Pasut Br.pasut, C2QQ+HFP, Tibubiu, Kec. Kerambitan, Kabupaten Tabanan, Bali 82161, Indonesia",https://maps.google.com/?cid=6576621712034303439,CLOSED_TEMPORARILY,+62 812-3855-4708,coffee_shop,"coffee_shop, cafe, food, store",5,3,,,,,,
ChIJRzxFUxkx0i0R-wv3myl5xow,Warung Lese,-8.5563112,115.04062419999998,"C2VR+F6H, Jl. Janteng, Beraban, Kec. Selemadeg Tim., Kabupaten Tabanan, Bali 82161, Indonesia",https://maps.google.com/?cid=10143928430315899899,OPERATIONAL,,restaurant,"restaurant, food",,,,,,,,
ChIJawcGqUUx0i0RcNEuNM_tcq4,Wiswa Village,-8.5562908,115.0403252,"C2VR+F4P, Jl. Raya Beraban Kauh, Beraban, Kec. Selemadeg Tim., Kabupaten Tabanan, Bali, Indonesia",https://maps.google.com/?cid=12570370984133972336,OPERATIONAL,,bed_and_breakfast,"bed_and_breakfast, lodging",5,1,,,,,,
ChIJzXCJY28x0i0RilHfNLdwHdU,Umaheskopi,-8.5561396,115.0404117,"C2VR+G5V, Jl. Janteng, Beraban, Kec. Selemadeg Tim., Kabupaten Tabanan, Bali 82161, Indonesia",https://maps.google.com/?cid=15356554236571636106,OPERATIONAL,+62 819-9951-8194,coffee_shop,"coffee_shop, cafe, food, store",4.9,7,,,,,,
ChIJ4Y4I2jgx0i0RFEv5ANFxZ-s,Umah Leluhur,-8.557967600000001,115.04539090000002,"C2RW+R56, Tibubiu, Kerambitan, Tabanan Regency, Bali 82161, Indonesia",https://maps.google.com/?cid=16962651663992703764,OPERATIONAL,,private_guest_room,"private_guest_room, lodging",,,,,,,,
ChIJk_qLoJcx0i0RyIQymy9phsI,Warung Asri & Restu,-8.556092,115.04219789999999,"Br. Gerombong, Beraban, Kec. Selemadeg Tim., Kabupaten Tabanan, Bali, Indonesia",https://maps.google.com/?cid=14017006543425406152,OPERATIONAL,+62 877-6159-9101,indonesian_restaurant,"indonesian_restaurant, restaurant, food",4,1,,,,,,
ChIJpw3n7BQx0i0RypFhD93wbPI,Waroeng Pino,-8.558585200000001,115.04475670000001,"Br. Dinas Tibubiu Kelod, C2RV+HW6, Desa, Tibubiu, Kerambitan, Tabanan Regency, Bali 82161, Indonesia",https://maps.google.com/?cid=17468601886899802570,OPERATIONAL,+62 857-3854-4497,cafe,"cafe, food",5,1,,,,,,
ChIJby5aEbox0i0Rd_1v-1z3QGY,Andra Cell,-8.5572473,115.0413401,"Jl. Gkanla No.17, Beraban, Kec. Selemadeg Tim., Kabupaten Tabanan, Bali 82161, Indonesia",https://maps.google.com/?cid=7368160969105603959,OPERATIONAL,,coffee_shop,"coffee_shop, cafe, food, store",1,1,,,,,,
ChIJDdhHrCox0i0RHXaD1xKqldU,Diani Village,-8.557206299999999,115.0417233,"C2VR+4M9, Jl. Kanca, Beraban, Kec. Selemadeg Tim., Kabupaten Tabanan, Bali 82161, Indonesia",https://maps.google.com/?cid=15390394299510388253,OPERATIONAL,+62 857-9222-9831,lodging,lodging,,,,,,,,
ChIJdQks82ox0i0R7HAf7Wp1D4c,WR BU SUNITI,-8.5578641,115.0407103,"Jl. Gkanla No.17 Blok B, Beraban, Kec. Selemadeg Tim., Kabupaten Tabanan, Bali 82161, Indonesia",https://maps.google.com/?cid=9732126421876175084,CLOSED_TEMPORARILY,,coffee_shop,"coffee_shop, cafe, food, store",,,,,,,,
ChIJjVHOJs4x0i0Rblps7ZcPWjU,Kive's Resort,-8.5574028,115.03954429999999,"C2VQ+2RM, Beraban, Selemadeg Timur, Tabanan Regency, Bali, Indonesia",https://maps.google.com/?cid=3844402377111919214,OPERATIONAL,,hotel,"hotel, lodging",,,,,,,,
ChIJIxfimA8x0i0RGn2GBh6IUYE,Warung Bu Wira,-8.5580267,115.04557559999999,"Br. Dinas Tibubiu Kelod, C2RW+Q6P, Desa, Tibubiu, Kec. Kerambitan, Kabupaten Tabanan, Bali 82161, Indonesia",https://maps.google.com/?cid=9318378766546140442,OPERATIONAL,,brunch_restaurant,"brunch_restaurant, restaurant, food",,,,,,,,
ChIJmeQFsjgx0i0RTa2SzaVPhiQ,HomeSate,-8.5558791,115.04255059999998,"C2VV+J2V, Beraban, Selemadeg Timur, Tabanan Regency, Bali 82161, Indonesia",https://maps.google.com/?cid=2631878605781773645,OPERATIONAL,,bar,bar,,,,,,,,
ChIJCQf6mAIx0i0RLd0JA1fZFRA,KuSuma House (Jr. Beraban),-8.5571146,115.04066879999999,"Jl. Gkanla No.17 Blok B, Beraban, Kec. Selemadeg Tim., Kabupaten Tabanan, Bali 82161, Indonesia",https://maps.google.com/?cid=1159071446854130989,OPERATIONAL,,hotel,"hotel, lodging",,,,,,,,
