id,name,latitude,longitude,address,url,status,phone,primary-type,types,rating,rating-count,price-level,review 1,review 2,review 3,review 4,review 5
ChIJg8tutauF0S0Rw1cgbhpXReE,Warung Under Up,-8.218684699999999,114.9994984,"QXJX+GQH, Sidetapa, Banjar, Buleleng Regency, Bali 81152, Indonesia",https://maps.google.com/?cid=16232476202955200451,OPERATIONAL,+62 821-4406-8387,restaurant,"restaurant, food",5,6,,Full üëçüëçüëç,Good,,,
ChIJfc5Q-16D0S0RnMlthXPHsok,Bambu Flores Sidatapa,-8.2204635,114.9986155,"QXHX+RC9, Jl. Dusun Jl. Bantas Telusuri, Sidetapa, Kec. Banjar, Kabupaten Buleleng, Bali 81152, Indonesia",https://maps.google.com/?cid=9922212228024355228,OPERATIONAL,,tourist_attraction,tourist_attraction,,,,,,,,
ChIJb8rO5yaF0S0RfjsUvSStjjQ,Bakso Krama Bali,-8.2188262,115.00062120000001,"Q2J2+F69, Jl. Cempaga, Sidetapa, Kec. Banjar, Kabupaten Buleleng, Bali 81152, Indonesia",https://maps.google.com/?cid=3787154709967813502,OPERATIONAL,+62 822-3652-5410,indonesian_restaurant,"brunch_restaurant, breakfast_restaurant, indonesian_restaurant, restaurant, food",4.3,3,,,,,,
ChIJh76rKQCD0S0Rreg_QyrZx0Q,Putu pariasa house,-8.2235737,114.9984006,"QXGX+H9, Sidetapa, Banjar, Buleleng Regency, Bali 81152, Indonesia",https://maps.google.com/?cid=4956168690484635821,OPERATIONAL,+62 878-4090-0590,hotel,"hotel, lodging",,,,,,,,
ChIJqUTQ5ieD0S0RSbIiJyA5VEE,Warung Bambu Sidetape,-8.2225658,114.9960855,"Dusun Delod Pura, Banjar, Jl. Bantas Telusuri, Sidetapa, Kec. Seririt, Kabupaten Buleleng, Bali 81153, Indonesia",https://maps.google.com/?cid=4707450320767332937,OPERATIONAL,+62 812-3725-3512,restaurant,"restaurant, food",,,,,,,,
