id,name,latitude,longitude,address,url,status,phone,primary-type,types,rating,rating-count,price-level,review 1,review 2,review 3,review 4,review 5
ChIJk0qvfF8m0i0RMhdEfDeCd7w,Somya Pertiwi P4S,-8.3894839,115.141137,"Wongaya Betan 82152, Mengesta, Kec. Penebel, Kabupaten Tabanan, Bali 82152, Indonesia",https://maps.google.com/?cid=13580466376178669362,OPERATIONAL,+62 821-4595-8365,park,park,4.2,41,,Very beautifull rice field. Bali nature.,Beautiful,,,
ChIJIdXh6bcn0i0RWO-wPJEdE4M,Warung meduwi asri,-8.3857965,115.1442028,"Banjar Utu, Subak Umedui, J47V+MMP, Jatiluwih, Kec. Penebel, Kabupaten Tabanan, Bali 82152, Indonesia",https://maps.google.com/?cid=9444925353151754072,OPERATIONAL,,restaurant,"restaurant, food",5,3,,"Such a little hidden secret on the white trekking route. The owners are such kind people and I had a really nice and informative chat via google translator. They grow and sell home-grown avocados, cocoa, coffee and even vanilla and in their garden. Highly recommended to stop by!","If you are taking the White trekking route, would really recommend stopping by at ""Warung Meduwi Asri"". The husband-and-wife owner are really friendly, and would be more than glad to show you around their garden. You can purchase some coconuts from them as well, which will be freshly picked from a nearby tree.",,,
ChIJv3hok8kn0i0RXlS_W-o9dvg,Krisna home stay,-8.389706799999999,115.1415159,"J46R+4J6, Mengesta, Penebel, Tabanan Regency, Bali 82152, Indonesia",https://maps.google.com/?cid=17903565445428892766,OPERATIONAL,,private_guest_room,"private_guest_room, lodging",5,1,,Yeayy good,,,,
ChIJZ9uv9qYn0i0RFxW3EoByeaY,Yooos,-8.3886141,115.14336089999999,"Unnamed Road, J46V+H85, Mengesta, Kec. Penebel, Kabupaten Tabanan, Bali 82152, Indonesia",https://maps.google.com/?cid=11995744976873395479,OPERATIONAL,,hotel,"hotel, lodging",,,,,,,,
ChIJpU-AJzQn0i0Rf1pEm-iWxxk,Orlean villa,-8.386772299999999,115.1389408,"J47Q+7HW, Mengesta, Penebel, Tabanan Regency, Bali 82152, Indonesia",https://maps.google.com/?cid=1857619297095146111,CLOSED_TEMPORARILY,,camping_cabin,"camping_cabin, lodging",5,2,,Good,,,,
ChIJMQNMqDAn0i0RdQZqD1cUVFc,Pondok kidung sari,-8.3892591,115.1411078,"J46R+8FP, Wongaya Betan, Mengesta, Kec. Penebel, Kabupaten Tabanan, Bali 82152, Indonesia",https://maps.google.com/?cid=6292676943496742517,OPERATIONAL,,,lodging,,,,,,,,
ChIJbTe_UEUn0i0RZndRR29Vq3A,Yummy PAK,-8.388786699999999,115.1409801,"J46R+F9Q, Mengesta, Penebel, Tabanan Regency, Bali 82152, Indonesia",https://maps.google.com/?cid=8118676689691703142,OPERATIONAL,,cafe,"cafe, food",5,1,,,,,,
