id,name,latitude,longitude,address,url,status,phone,primary-type,types,rating,rating-count,price-level,review 1,review 2,review 3,review 4,review 5
ChIJN00DpjmD0S0RFjzPhvFhqcc,Griya Suci Dencarik,-8.194424099999999,114.9717049,"RX4C+6MP, Jl. Bajang Sari Jalan Raya Desa, Dencarik, Kec. Banjar, Kabupaten Buleleng, Bali 81152, Indonesia",https://maps.google.com/?cid=14387138174588501014,OPERATIONAL,,,lodging,4.3,43,,Awesome,Nice,,,
ChIJHS_YlGGD0S0RdZZ7oy5yX1M,Warung mustri dencarik,-8.1868197,114.97542010000001,"Jl. Seririt- Singaraja, Dencarik, Kec. Banjar, Kabupaten Buleleng, Bali 81152, Indonesia",https://maps.google.com/?cid=6007645972572378741,OPERATIONAL,+62 877-6228-3004,restaurant,"restaurant, food",4.8,8,,Good food,,,,
ChIJ7X5nDgWD0S0RyyfcD0XuKuY,New Lalapan dencarik,-8.188336399999999,114.97196740000001,"RX6C+MQ8, Dencarik, Banjar, Buleleng Regency, Bali 81152, Indonesia",https://maps.google.com/?cid=16585330558131513291,OPERATIONAL,+62 812-3074-0075,restaurant,"restaurant, food",,,,,,,,
ChIJ90CSpUSD0S0RrwH5crqmQOw,Babi guling asih,-8.1890579,114.96979230000001,"RX69+9WF, Dencarik, Banjar, Buleleng Regency, Bali, Indonesia",https://maps.google.com/?cid=17023789911183524271,CLOSED_TEMPORARILY,,indonesian_restaurant,"indonesian_restaurant, restaurant, food",,,,,,,,
ChIJ3-BcxluD0S0RkbI2KrxezFI,WARUNG LALAPAN BUK KADEK/PAK NGURAH,-8.188398099999999,114.97192459999998,"RX6C+JQV, jl. raya Jl. Seririt- Singaraja, Dencarik, Kec. Banjar, Kabupaten Buleleng, Bali 81152, Indonesia",https://maps.google.com/?cid=5966247768614154897,OPERATIONAL,+62 838-6252-1204,indonesian_restaurant,"indonesian_restaurant, restaurant, food",5,3,,,,,,
ChIJ1ay1xUKD0S0RXjrI23tLgd0,Victoryice,-8.1874595,114.97375609999999,"RX7F+2G6, Dencarik, Banjar, Buleleng Regency, Bali 81152, Indonesia",https://maps.google.com/?cid=15961121549718141534,OPERATIONAL,+62 812-3621-4081,cafe,"cafe, food",,,,,,,,
ChIJGbjpjF-D0S0RJrcVX_BWDBk,Warung B'O,-8.1936581,114.9725268,"RX4F+G2J, Jalan Raya, Bajangan, Dencarik, Kec. Banjar, Kabupaten Buleleng, Bali 81152, Indonesia",https://maps.google.com/?cid=1804913141056124710,OPERATIONAL,,restaurant,"restaurant, food",,,,,,,,
ChIJAasaRmWD0S0RanMxAAyKdsA,Ayam Betutu Om Sri Amerta,-8.1871112,114.97529499999999,"Jl. Seririt- Singaraja, Dencarik, Kec. Buleleng, Kabupaten Buleleng, Bali, Indonesia",https://maps.google.com/?cid=13868423886681502570,OPERATIONAL,+62 822-4712-3678,restaurant,"restaurant, food",,,,,,,,
ChIJyWtqcZ-D0S0RNi-O8EOqyTM,Warung Vira,-8.1910407,114.97352839999999,"Banjar dinas, RX5F+HCJ, Jl. Raya Bajangan, Dencarik, Kec. Banjar, Kabupaten Buleleng, Bali 81152, Indonesia",https://maps.google.com/?cid=3731700975028547382,CLOSED_TEMPORARILY,,restaurant,"restaurant, food",5,9,,,,,,
ChIJoSP-zOWD0S0Rp88Mtp6jpG8,Warung Makan Bajangan Corner,-8.189321,114.97391359999999,"Singaraja, Dencarik, Kec. Banjar, Kabupaten Buleleng, Bali 81116, Indonesia",https://maps.google.com/?cid=8044734736445001639,OPERATIONAL,+62 813-3719-3069,restaurant,"restaurant, food",5,1,,,,,,
ChIJD9_QCzaD0S0RTr6vodYEB3k,Chicken Wow,-8.1873674,114.97427709999998,"Dencarik, Banjar, Buleleng Regency, Bali, Indonesia",https://maps.google.com/?cid=8720944523308416590,OPERATIONAL,,restaurant,"restaurant, food",,,,,,,,
ChIJgWZ9ZhWD0S0RUVhi9Ew1yPU,Angkringan Moringa,-8.1924733,114.97250729999998,"Dencarik, Banjar, Buleleng Regency, Bali 81152, Indonesia",https://maps.google.com/?cid=17710464139268347985,OPERATIONAL,+62 878-6317-2772,cafe,"cafe, food",3.7,3,,Recommended !!,,,,
ChIJ69XgK8qD0S0R_AEp0GPdAdc,Bali 551,-8.1890659,114.96976970000001,"RX69+9WC, Jl. Seririt- Singaraja, Dencarik, Kec. Banjar, Kabupaten Buleleng, Bali 81153, Indonesia",https://maps.google.com/?cid=15492907613895066108,OPERATIONAL,,restaurant,"restaurant, food",,,,,,,,
ChIJP7hhewGD0S0RRhHX4Q9kRiQ,Warung Lesehan Bu Sri,-8.1884112,114.97092839999999,"RX6C+J9M, Jl. Seririt- Singaraja, Dencarik, Kec. Banjar, Kabupaten Buleleng, Bali 81152, Indonesia",https://maps.google.com/?cid=2613886653111406918,OPERATIONAL,+62 877-6296-1852,indonesian_restaurant,"indonesian_restaurant, restaurant, food",5,1,,,,,,
ChIJg4qxDDaD0S0RQxV0CS1FV8E,Lalapan Dencarik,-8.187320999999999,114.974112,"RX7F+3JH, jl. raya Jl. Seririt- Singaraja, Dencarik, Kec. Banjar, Kabupaten Buleleng, Bali 81152, Indonesia",https://maps.google.com/?cid=13931680032028366147,OPERATIONAL,+62 857-0796-3090,restaurant,"restaurant, food",4.3,19,,,,,,
ChIJQwX3QDaD0S0Rmks84CepHBg,Warung Dek Yi,-8.1886384,114.9738043,"Dencarik, Banjar, Buleleng Regency, Bali, Indonesia",https://maps.google.com/?cid=1737449544989035418,OPERATIONAL,,restaurant,"restaurant, food",,,,,,,,
ChIJ6YOJvKqD0S0ROaPitTGJzQ4,Warung Mankim NPC 07 purijepun,-8.1933718,114.9707023,"Dencarik lebehKec, RX4C+M74, Dencarik, Kec. Banjar, Kabupaten Buleleng, Bali 81152, Indonesia",https://maps.google.com/?cid=1066659533354607417,OPERATIONAL,,coffee_shop,"coffee_shop, cafe, store, food",5,2,,,,,,
ChIJlfxNeHuD0S0R049VogPiNwk,Kebun buah,-8.1875938,114.9735626,"RX6F+XC8, Dencarik, Banjar, solokah buleleng, Bali, Indonesia",https://maps.google.com/?cid=664247975296733139,OPERATIONAL,,private_guest_room,"private_guest_room, lodging",,,,,,,,
ChIJuwADLrqD0S0RVOcaHs9wq7s,Pecel lele lamongan,-8.1876875,114.9729375,"Dencarik, Banjar, Buleleng Regency, Bali 81152, Indonesia",https://maps.google.com/?cid=13523026340975667028,OPERATIONAL,+62 859-6900-7009,indonesian_restaurant,"indonesian_restaurant, restaurant, food",5,1,,,,,,
ChIJCXrDU9yD0S0R-JW-D3XOrog,Warung Gre Nour,-8.1941642,114.97262939999997,"Bajangan, RX4F+83J Bd, Dencarik, Kec. Banjar, Kabupaten Buleleng, Bali 81152, Indonesia",https://maps.google.com/?cid=9849036437276497400,OPERATIONAL,+62 877-6203-6029,restaurant,"restaurant, food",,,,,,,,
