id,name,latitude,longitude,address,url,status,phone,primary-type,types,rating,rating-count,price-level,review 1,review 2,review 3,review 4,review 5
ChIJK_cO3bBd0S0RsURllrXMaNI,JFC,-8.2738319,114.4973201,"PFGW+FW8, Jl. Raya Denpasar - Gilimanuk, Gilimanuk, Kec. Melaya, Kabupaten Jembrana, Bali 82252, Indonesia",https://maps.google.com/?cid=15161593225827140785,OPERATIONAL,+62 819-3621-3579,meal_takeaway,"meal_takeaway, restaurant, food",3.9,76,,"Was good, an option when you get stuck in traffic",Good...,Good,,
ChIJSYJQ6sdd0S0RONvzbZ3cWTI,Kedai Kopi Q~ta,-8.2730955,114.4949912,"Des. Melaya Krajan, Jl. Raya Denpasar - Gilimanuk, Melaya, Kec. Melaya, Kabupaten Jembrana, Bali 82252, Indonesia",https://maps.google.com/?cid=3628173543536319288,OPERATIONAL,+62 812-4650-8676,coffee_shop,"coffee_shop, cafe, restaurant, store, food",4.8,43,,"I stayed at Melaya Cabanas nearby, which Pak Nyoman (the owner of this cafe) is the caretaker of the place. I ordered food from Kedai Kopi Q~ta for breakfast, my husband really liked the Nasi Goreng Kambing. I ordered Toasted Bread with sprinkles and it was nice too. The orange juice was from a real orange.
I also stopped by this cafe while waiting for the bus to Denpasar. Bu Nyoman and Pak Nyoman were really kind. They gave us snacks and a cup of water while we waited, and we had a nice chat with them, too. Pak Nyoman was roasting coffee beans which smelled verrry good. My husband bought their ground coffee and he said it was real tasty, and the price was inexpensive!
Being in their cafe really makes you feel welcomed by the locals, which treat you warmly like you were their own old friend.

Thank you Pak&Bu Nyoman, and Kak Dyas (their son)!","It is an awesome little cafe with great atmosphere. Owners are very passionate about what they do.
Come and try local coffee & food and especially Balinese hospitality :)
Glad we popped in.","Nice Cafe, really good Coffee, delicious food and lovely owners! We loved the soup ikan and fresh crabs (special menu of the day when we were there). Also fried shrimps were so good! Nice atmosphere :)",Fantastic food and service by Pak Nyoman and Ibu Elizabeth,Good coffeeshop
ChIJN-xnJFVd0S0R9uHZOhqu3yw,Penginapan Menori Putih,-8.279185499999999,114.49675119999999,"PFCW+8PC depan Kantor pos, Jl. Raya Denpasar - Gilimanuk, Melaya, lurus 500meter, Kabupaten Jembrana, Bali 82252, Indonesia",https://maps.google.com/?cid=3233494485155045878,OPERATIONAL,+62 818-553-877,motel,"motel, lodging",4.8,9,,Good place...good price,Good placeüëçüèª,,,
ChIJ8d4A2cFd0S0RalJvDicMVIc,C'Bezt Fried Chicken Point Melaya,-8.276900099999999,114.50032279999999,"Jl. Raya Denpasar - Gilimanuk No.Br, Pangkung Dedari, Kec. Melaya, Kabupaten Jembrana, Bali 82252, Indonesia",https://maps.google.com/?cid=9751432455049400938,OPERATIONAL,+62 819-0708-4737,meal_takeaway,"fast_food_restaurant, meal_takeaway, restaurant, food",4.2,53,PRICE_LEVEL_INEXPENSIVE,Good,Good,,,
ChIJCVKtY79d0S0R0ltQTW_Hfgw,Warung Makan Muslim Sidodadi,-8.2736714,114.496562,"Pasar, PFGW+GJM, Melaya, Kec. Melaya, Kabupaten Jembrana, Bali 82252, Indonesia",https://maps.google.com/?cid=900376256373087186,OPERATIONAL,+62 821-4709-4216,restaurant,"restaurant, food",4.5,6,,,,,,
ChIJ8_a9h8Bd0S0R272FoV8G-CU,Penginapan Bahagia,-8.2743031,114.49744,"PFGW+7XG, Melaya, Jembrana Regency, Bali 82252, Indonesia",https://maps.google.com/?cid=2735943781429132763,OPERATIONAL,+62 857-3862-2648,lodging,lodging,4.1,13,,Good price to stay nearby local people,Nice,,,
ChIJJ8MAIihd0S0RlC0BdHgCXg8,Kebun kelengkeng new cristal,-8.27934,114.497325,"PFCW+9M7, Melaya, Jembrana Regency, Bali, Indonesia",https://maps.google.com/?cid=1107325274745286036,OPERATIONAL,+62 857-2544-3833,tourist_attraction,tourist_attraction,5,6,,Good,,,,
ChIJJ6oVugpd0S0R32t1tLe4pIE,Martabak INTI SARI Bu Sukma,-8.273757,114.4966508,"PFGW+GJM, Pasar, Melaya, Kec. Melaya, Kabupaten Jembrana, Bali 82252, Indonesia",https://maps.google.com/?cid=9341794626219371487,CLOSED_TEMPORARILY,,restaurant,"restaurant, food",,,,,,,,
ChIJycfkYr9d0S0RkAsIsvx86sQ,Bakso ANDA - Pasar Melaya,-8.2737288,114.4966106,"Pasar, Kec. Melaya, Kabupaten Jembrana, Bali 82252, Indonesia",https://maps.google.com/?cid=14189291000744643472,OPERATIONAL,+62 852-0514-0778,indonesian_restaurant,"indonesian_restaurant, restaurant, food",4.7,9,,,,,,
ChIJ19L_WIVd0S0RwLKAMbGF4us,"Bakso dan Mi Ayam 77 Bali, Cabang Melaya",-8.2738295,114.49732279999999,"Deretan Toko Barat, Jl. Raya Denpasar - Gilimanuk Puskesmas, Melaya, Kec. Negara, Kabupaten Jembrana, Bali 82252, Indonesia",https://maps.google.com/?cid=16997294939735896768,OPERATIONAL,+62 859-3535-4700,restaurant,"restaurant, food",4.2,6,,,,,,
ChIJHwF-Yb9d0S0RhZ3cyWvg5Hw,Warung Muslim Madura,-8.2736626,114.4964189,"Melaya, Jembrana Regency, Bali, Indonesia",https://maps.google.com/?cid=8999564708945894789,OPERATIONAL,,restaurant,"restaurant, food",,,,,,,,
ChIJH_YRcExd0S0R-v6587kukYs,SATE IKAN YAN SEMPRUL,-8.2755612,114.4994973,"PFFX+QQH Depan kantor pos, Melaya, Kec. Melaya, Kabupaten Jembrana, Bali 82252, Indonesia",https://maps.google.com/?cid=10056870819087908602,OPERATIONAL,+62 812-2429-5872,indonesian_restaurant,"indonesian_restaurant, restaurant, food",5,1,,,,,,
ChIJs9IeYGtd0S0R50ltIXLDIaw,Warung padmawati,-8.2762368,114.4999354,"PFFX+GX3, Jl. Raya Denpasar - Gilimanuk, Nusasari, Kec. Melaya, Kabupaten Jembrana, Bali 82252, Indonesia",https://maps.google.com/?cid=12403409743709555175,OPERATIONAL,+62 831-1975-5537,restaurant,"restaurant, food",3,3,,Good,,,,
ChIJ_wZ9esBd0S0RUcV-yoLzQs4,Kedai Kuliner Ikan Bakar,-8.2741872,114.4982407,"Melaya, Jembrana Regency, Bali, Indonesia",https://maps.google.com/?cid=14862709463344661841,OPERATIONAL,,indonesian_restaurant,"indonesian_restaurant, restaurant, food",,,,,,,,
ChIJ4_Lny7Rd0S0RmNE1cBiygqk,Kedai Cak Rozz,-8.2751738,114.49930379999999,"PFFX+WPM, Jl. Raya Denpasar - Gilimanuk, Gilimanuk, Kec. Melaya, Kabupaten Jembrana, Bali 82252, Indonesia",https://maps.google.com/?cid=12214520957413740952,OPERATIONAL,+62 878-6034-2668,restaurant,"restaurant, food",2.6,10,,,,,,
ChIJF_mzfOFd0S0Rh0dlHHwUMFQ,CILOK AYAM MANTAP,-8.2737725,114.4965371,"Jl. Raya Denpasar - Gilimanuk, Melaya, Kec. Melaya, Kabupaten Jembrana, Bali 82252, Indonesia",https://maps.google.com/?cid=6066371221352957831,OPERATIONAL,+62 819-3302-4074,restaurant,"restaurant, food",5,1,,,,,,
ChIJxdOXCepd0S0RsxhPniCnQbs,Warung Makan Muslim AZKHA,-8.2777461,114.50063879999999,"PGC2+W72, Jl. Raya Denpasar - Gilimanuk, Melaya, Kec. Negara, Kabupaten Jembrana, Bali 82252, Indonesia",https://maps.google.com/?cid=13493249717115492531,OPERATIONAL,,restaurant,"restaurant, food",3.2,11,,,,,,
ChIJSalwDaBd0S0RywkGhrsObD8,MIE KOBONG CABANG GILIMANUK,-8.2733885,114.49523099999999,"PFGW+J3X, Melaya, Jembrana Regency, Bali 82252, Indonesia",https://maps.google.com/?cid=4570043920444426699,OPERATIONAL,+62 821-3258-7286,restaurant,"brunch_restaurant, restaurant, food",5,3,,,,,,
ChIJb9_oQB9d0S0RgCvS1xl2GwI,Warung Ibu Dwik,-8.273962,114.496833,"PFGW+CP8, Jl. Raya Denpasar - Gilimanuk, Gilimanuk, Kec. Melaya, Kabupaten Jembrana, Bali 82252, Indonesia",https://maps.google.com/?cid=151844865814178688,OPERATIONAL,+62 859-3826-16189,restaurant,"restaurant, food",,,,,,,,
ChIJI6vtrmhd0S0RFCR5XYaBFcQ,Warung TRIPLE_Y,-8.275850499999999,114.4961891,"PFFW+MF4, Melaya, Jembrana Regency, Bali 82252, Indonesia",https://maps.google.com/?cid=14129341820038620180,OPERATIONAL,+62 812-3754-5889,cafe,"cafe, food",5,2,,Recommended place,,,,
