id,name,latitude,longitude,address,url,status,phone,primary-type,types,rating,rating-count,price-level,review 1,review 2,review 3,review 4,review 5
ChIJLzSSUl0F0i0ROhndR49Hzbc,Museum Sang Hyang Dedari,-8.4300964,115.4940879,"Banjar dinas griana kauh, HF9V+XJ8, North Duda, Selat, kab Karangasem, Bali 80862, Indonesia",https://maps.google.com/?cid=13244320759878064442,OPERATIONAL,+62 821-4658-7726,museum,museum,5,4,,"This museum is fascinating. It preserves the Sanghyang Dances, including Sanghyang Dedari dance, which currently is start to difficult to find in some parts of Bali. We came a bit late because around 10 days before our visit, the people celebrating harvesting ceremony where in the ceremony, the Sanghyang Dedari dance is performed in their ritual. It is a small museum but gives rich information on the preservation of the dance. If you visit Bali, I suggest you to come there. However, it is better to contact the officer first.",,,,
ChIJY-9GyCEF0i0RK-gtj7e6SD0,swanexplore,-8.431802,115.49567300000001,"Duda Utara, Selat, Duda Utara, Karangasem, Kabupaten Karangasem, Bali 80862, Indonesia",https://maps.google.com/?cid=4415984732180703275,OPERATIONAL,+62 831-1989-3930,hiking_area,"hiking_area, park",4.8,6,,,,,,
ChIJ93MaBYIF0i0R9hDMHSSm0jA,Rumah lala,-8.4330717,115.49889529999999,"HF8X+QHC, North Duda, Selat, Karangasem Regency, Bali 80862, Indonesia",https://maps.google.com/?cid=3518056932978725110,OPERATIONAL,,private_guest_room,"private_guest_room, lodging",,,,,,,,
ChIJneizV2oF0i0RdU1CEa7QQEY,AdiP,-8.4355721,115.49356379999999,"Unnamed Road, HF7V+QCG, Duda, Kec. Selat, Kabupaten Karangasem, Bali 80862, Indonesia",https://maps.google.com/?cid=5062275427196882293,OPERATIONAL,+62 853-3931-0045,private_guest_room,"private_guest_room, lodging",5,1,,,,,,
ChIJX8_k9oAF0i0ReiqUoaq99h0,Yandika,-8.4356681,115.49240449999999,"HF7R+PXJ, Duda, Selat, Karangasem Regency, Bali 80862, Indonesia",https://maps.google.com/?cid=2159121611923663482,OPERATIONAL,,hotel,"hotel, lodging",,,,,,,,
ChIJs9b54x8F0i0Rg1E3w7Yf1RU,Rumah DD,-8.433438299999999,115.49912649999999,"HF8X+HMJ, North Duda, Selat, Karangasem Regency, Bali 80862, Indonesia",https://maps.google.com/?cid=1573198514655547779,OPERATIONAL,,hostel,"hostel, lodging",,,,,,,,
ChIJH2evjbYF0i0RwRz5nqmda_A,Warung buk rima,-8.433535299999999,115.4997678,"Unnamed Road, HF8X+HWJ, Duda Utara, Kec. Selat, Kabupaten Karangasem, Bali 80862, Indonesia",https://maps.google.com/?cid=17324113743452904641,OPERATIONAL,+62 822-6618-6995,restaurant,"restaurant, food",,,,,,,,
ChIJjSyLKAAF0i0RzEawqLXt_fA,Warung Mek Sangeh,-8.4361625,115.49217189999999,"HF7R+GVM, Duda, Selat, Karangasem Regency, Bali 80862, Indonesia",https://maps.google.com/?cid=17365297102685488844,OPERATIONAL,+62 823-4020-5969,meal_takeaway,"meal_takeaway, restaurant, food",,,,,,,,
