id,name,latitude,longitude,address,url,status,phone,primary-type,types,rating,rating-count,price-level,review 1,review 2,review 3,review 4,review 5
ChIJfT2HxUMl0i0R2_ybK6Lt5w0,Griya manik tajen,-8.4380033,115.1524932,"H562+QXX, Tajen, Penebel, Tabanan Regency, Bali 82181, Indonesia",https://maps.google.com/?cid=1002030722885352667,OPERATIONAL,,museum,museum,5,1,,,,,,
ChIJXw_6e-gl0i0RM47Aw4mJFNc,Tuke house,-8.4370737,115.15306149999999,"H573+7G8, Tajen, Penebel, Tabanan Regency, Bali 82181, Indonesia",https://maps.google.com/?cid=15498163442476420659,OPERATIONAL,,private_guest_room,"private_guest_room, lodging",,,,,,,,
ChIJpz0b9kUk0i0RxIEF8g2W6xs,Warung Makan Devi,-8.4380502,115.1533737,"H563+Q8H, Jl. Merpati, Tajen, Kec. Penebel, Kabupaten Tabanan, Bali 82181, Indonesia",https://maps.google.com/?cid=2011866645190246852,OPERATIONAL,+62 822-3777-5338,restaurant,"restaurant, food",5,4,,We were lost & our hps were dead. We asked to recharge our HP. They gladly let us rest while waiting for our HP. Didn't ask us to buy food from them. Just a warm and friendly woman owner who chatted with me. So glad for the kind warung owners before we found our way back home.,,,,
ChIJs3swfeIl0i0RcIgsE8BtrTs,Griya Kebon Tajen,-8.4368412,115.15382450000001,"H573+7G8, Tajen, Penebel, Tabanan Regency, Bali 82181, Indonesia",https://maps.google.com/?cid=4300213890931525744,OPERATIONAL,,,lodging,5,2,,,,,,
ChIJe7SmtUwl0i0RYjfZTdnJwcA,Pandu warung,-8.4397383,115.1529369,"H563+453, Jl. Merpati, Tajen, Kec. Penebel, Kabupaten Tabanan, Bali 82181, Indonesia",https://maps.google.com/?cid=13889604660938487650,CLOSED_TEMPORARILY,,night_club,night_club,,,,,,,,
ChIJq3IYEWsl0i0R1c-GVJJRLdU,Jeruk Bali House,-8.4403153,115.1539362,"H553+VHF, Br Pande, Tajen, Kec. Penebel, Kabupaten Tabanan, Bali 82181, Indonesia",https://maps.google.com/?cid=15361023592955826133,OPERATIONAL,,,lodging,5,2,,,,,,
ChIJC86lHhwl0i0RJ8-je3jpnKs,Subak Tajen,-8.441196099999999,115.15072860000001,"H552+G7H, Tajen, Penebel, Tabanan Regency, Bali 82181, Indonesia",https://maps.google.com/?cid=12366015380532219687,OPERATIONAL,,park,park,5,1,,,,,,
ChIJQQBbY08k0i0RJn5Nc_9WyDU,Warung Biang Suka,-8.4390152,115.15300719999999,"H563+96R, Jl. Merpati, Tajen, Kec. Penebel, Kabupaten Tabanan, Bali 82181, Indonesia",https://maps.google.com/?cid=3875443134503419430,OPERATIONAL,,restaurant,"restaurant, food",5,2,,,,,,
ChIJGddYypEl0i0RuCxcOcdA_n4,Bedeng Cafe,-8.4376946,115.15345739999998,"H563+W9G, Jl. Merpati, Tajen, Kec. Penebel, Kabupaten Tabanan, Bali 82181, Indonesia",https://maps.google.com/?cid=9150822717268438200,OPERATIONAL,,cafe,"cafe, food",5,2,,,,,,
ChIJ-ag3-UUk0i0RdKMIuHbQ-u4,Warung Bu Ayu,-8.437501,115.15355149999999,"H563+XCV, Jl. Merpati, Tajen, Kec. Penebel, Kabupaten Tabanan, Bali 82181, Indonesia",https://maps.google.com/?cid=17220305333516804980,OPERATIONAL,+62 821-4690-9684,indonesian_restaurant,"indonesian_restaurant, restaurant, food",4,5,,Exellent,,,,
ChIJA8ODM5sl0i0R99d1U1yqKV8,Griya Telaga Tajen,-8.4368123,115.1540464,"H573+7JF, Jl. Merpati, Tajen, Kec. Penebel, Kabupaten Tabanan, Bali 82181, Indonesia",https://maps.google.com/?cid=6857199221162235895,OPERATIONAL,,private_guest_room,"private_guest_room, lodging",5,1,,,,,,
ChIJ0xNXPBAl0i0R5sYpOqktGAQ,Kebun Bunga Sedap Malam,-8.437259,115.15720100000001,"H574+3V, Tajen, Penebel, Tabanan Regency, Bali, Indonesia",https://maps.google.com/?cid=295035980441306854,OPERATIONAL,,park,park,,,,,,,,
