id,name,latitude,longitude,address,url,status,phone,primary-type,types,rating,rating-count,price-level,review 1,review 2,review 3,review 4,review 5
ChIJ3xVLsWcR0i0RW7YCbq-yh5g,Gogo Fried Chicken,-8.4964189,115.4031514,"GC33+C7J, Jl. Raya Besakih, Selat, Kec. Klungkung, Kabupaten Klungkung, Bali 80716, Indonesia",https://maps.google.com/?cid=10990949882155677275,OPERATIONAL,,meal_takeaway,"meal_takeaway, restaurant, food",3.1,36,,Gogo power rangers,,,,
ChIJQwiUsZ4R0i0Rdx2vTFjwM4Q,GLOBAL INT BALI Car Rental & Tours,-8.494013299999999,115.40345839999999,"GC43+C87, Tegak, Klungkung, Klungkung Regency, Bali 80716, Indonesia",https://maps.google.com/?cid=9526221898853064055,OPERATIONAL,+62 857-3826-7980,car_rental,car_rental,5,2,,,,,,
ChIJQRWp6z0R0i0R2CXrhQVijxo,Lawa Garden,-8.496165099999999,115.40828939999999,"Tegak, Klungkung, Klungkung Regency, Bali 80716, Indonesia",https://maps.google.com/?cid=1913856142516889048,OPERATIONAL,+62 822-3602-7304,park,park,,,,,,,,
ChIJkeifZeoQ0i0RNKy0z_Z3sI0,Bakso Cak Moy,-8.498665899999999,115.40319939999999,"GC23+G7P, Jl. Raya Besakih, Selat, Kec. Klungkung, Kabupaten Klungkung, Bali 80716, Indonesia",https://maps.google.com/?cid=10209792257179298868,OPERATIONAL,+62 821-4727-5479,indonesian_restaurant,"indonesian_restaurant, restaurant, food",4,6,,,,,,
ChIJSxSMD7UR0i0RAFMpOeCs2-s,Rumah anggi srinadia,-8.4955983,115.40608739999999,"Unnamed Road, GC34+QC8, Tegak, Kec. Klungkung, Kabupaten Klungkung, Bali 80716, Indonesia",https://maps.google.com/?cid=16995367697844359936,OPERATIONAL,+62 856-3846-376,indonesian_restaurant,"indonesian_restaurant, restaurant, food",,,,,,,,
ChIJ_5g0T5UQ0i0RmznVgPqyDjI,Warung Bu Jero,-8.495044,115.40337500000001,"Jalan Raya Besakih, Pasar Baru Selat No.10, Klungkung, Tegak, Kec. Klungkung, Kabupaten Klungkung, Bali 80761, Indonesia",https://maps.google.com/?cid=3607017140543371675,OPERATIONAL,+62 819-3919-6669,indonesian_restaurant,"indonesian_restaurant, restaurant, food",,,,,,,,
ChIJMT6ZQgAR0i0RzwxEj45uaMc,Rumah Tegar Surya,-8.495085099999999,115.406493,"GC34+XH9, Tegak, Klungkung, Klungkung Regency, Bali, Indonesia",https://maps.google.com/?cid=14368856169693580495,OPERATIONAL,,bar,bar,,,,,,,,
ChIJIbKFWroR0i0RAopZeOP5OwA,Sewa Mobil dan supir,-8.4936016,115.40282810000001,"Jl. Raya Besakih, Dusun Cucukan, Selat, Kec. Klungkung, Kabupaten Klungkung, Bali 80711, Indonesia",https://maps.google.com/?cid=16881778997955074,OPERATIONAL,+62 857-3975-5401,car_rental,car_rental,,,,,,,,
ChIJ2QUvsxcR0i0RRqa-BirB5R4,Home Haris,-8.4940892,115.4067498,"GC44+9M9, Tegak, Klungkung, Klungkung Regency, Bali, Indonesia",https://maps.google.com/?cid=2226397977050523206,CLOSED_TEMPORARILY,,night_club,night_club,,,,,,,,
ChIJl-6dKPoR0i0RZScQQFH_pf0,Grab Food,-8.4940892,115.4067498,"GC44+9M9, Tegak, Klungkung, Klungkung Regency, Bali 80716, Indonesia",https://maps.google.com/?cid=18277295387185260389,OPERATIONAL,,coffee_shop,"coffee_shop, cafe, food, store",5,1,,"This is an exceptional little place to visit, rustic yet modern decor and a wonderful view. The dishes on the menu are simply sublime, Gordon Ramsey will definitely have a massive foodgasm when he shows up to give his review. Service is great too, the waitresses will give you a shoulder massage while you eagerly await for the world class chef to prepare your delicious food. I will definitely be visiting again.",,,,
ChIJY0FQ0WsR0i0RgWy5SEXyIpE,Rumah kentussss,-8.4940872,115.40671390000001,"GC44+9M8, Tegak, Klungkung, Klungkung Regency, Bali, Indonesia",https://maps.google.com/?cid=10458187664094489729,OPERATIONAL,,park,park,,,,,,,,
ChIJV27yLVIR0i0R9pVrYZVUMr4,Ade House,-8.494949799999999,115.40528669999999,"Banjar Kelod Kangin, GC44+35H, Tegak, Klungkung, Klungkung Regency, Bali, Indonesia",https://maps.google.com/?cid=13705109616603141622,OPERATIONAL,,private_guest_room,"private_guest_room, lodging",,,,,,,,
ChIJ56-Lm8AR0i0Rzbboqzm_YGo,Griya Dude Aponda Michael,-8.4940892,115.4067498,"GC44+9M9, Tegak, Klungkung, Klungkung Regency, Bali 80716, Indonesia",https://maps.google.com/?cid=7665336820202780365,CLOSED_TEMPORARILY,,lodging,lodging,,,,,,,,
ChIJ4XVJfwAR0i0RlspA3ATYM0s,Warung Bu Dianti,-8.495462999999999,115.408802,"GC35+QJV, Tegak, Klungkung, Klungkung Regency, Bali 80716, Indonesia",https://maps.google.com/?cid=5418912292043541142,OPERATIONAL,,coffee_shop,"coffee_shop, cafe, food, store",,,,,,,,
