id,name,latitude,longitude,address,url,status,phone,primary-type,types,rating,rating-count,price-level,review 1,review 2,review 3,review 4,review 5
ChIJw5G9KACR0S0RgpZjTKA4KMc,Cekik Amerta Bhuana Waterfall,-8.169756399999999,115.12240039999998,"Padangbulia, Sukasada, Buleleng Regency, Bali 81161, Indonesia",https://maps.google.com/?cid=14350782473743603330,OPERATIONAL,,tourist_attraction,tourist_attraction,5,13,,,,,,
ChIJDw-exSCQ0S0RRRlsCgl7HDw,Warung Moeayu 2,-8.1706042,115.122873,"R4HF+Q45, Jalan Raya, Gitgit, Kec. Sukasada, Kabupaten Buleleng, Bali 81161, Indonesia",https://maps.google.com/?cid=4331472220383353157,OPERATIONAL,,restaurant,"restaurant, food",,,,,,,,
ChIJ7QxR3g-R0S0RbUU58WO7nvw,Kebun cengkeh pebantenan,-8.1673992,115.1207017,"R4MC+27W, Jalan Raya, Ambengan, Kec. Sukasada, Kabupaten Buleleng, Bali 81161, Indonesia",https://maps.google.com/?cid=18203192781801342317,OPERATIONAL,,hiking_area,"hiking_area, park",,,,,,,,
ChIJEa6-NbuR0S0RHxMBNHSvo-E,Contana Food,-8.165760299999999,115.11927700000001,"R4M9+MPR, Ambengan, Sukasada, Buleleng Regency, Bali 81161, Indonesia",https://maps.google.com/?cid=16259031993361175327,OPERATIONAL,+62 857-3787-5481,cafe,"cafe, food",5,2,,,,,,
ChIJE5LlYguR0S0Rmk5rxppcXrU,Warung Makan Aysa,-8.1655334,115.11878979999999,"R4M9+QGM, Jl. Raya Desa, Ambengan, Kec. Sukasada, Kabupaten Buleleng, Bali 81161, Indonesia",https://maps.google.com/?cid=13068984988499398298,OPERATIONAL,+62 852-5301-1500,restaurant,"restaurant, food",4.7,7,,Great place to eat after Trekking,,,,
ChIJDZJolFSR0S0RDL8hwZALkss,Warung Titiran,-8.1664449,115.1199948,"R4M9+CXH, Jl. Raya Sukasada, Sukasada, Kec. Sukasada, Kabupaten Buleleng, Bali 81161, Indonesia",https://maps.google.com/?cid=14668799652642537228,CLOSED_TEMPORARILY,,restaurant,"restaurant, food",,,,,,,,
