id,name,latitude,longitude,address,url,status,phone,primary-type,types,rating,rating-count,price-level,review 1,review 2,review 3,review 4,review 5
ChIJyYlMV8Ub0i0RkH-nCdEB2fo,PURI PENIDA,-8.4371188,115.38608269999999,"H97P+5C4, Jl. Tembuku, Tembuku, Kec. Tembuku, Kabupaten Bangli, Bali 80671, Indonesia",https://maps.google.com/?cid=18075480576749961104,OPERATIONAL,,lodging,lodging,4.7,3,,,,,,
ChIJV1lMj24b0i0RQkoFaPc1CZ8,Warung bakso babi sukla,-8.4373144,115.3858202,"H97P+38G, Jl. Tembuku, Tembuku, Kec. Tembuku, Kabupaten Bangli, Bali 80671, Indonesia",https://maps.google.com/?cid=11459750063539309122,CLOSED_TEMPORARILY,,indonesian_restaurant,"indonesian_restaurant, restaurant, food",,,,,,,,
ChIJGce-kMob0i0Rb22ZZex0khc,Warung Bakso &Mie Ayam,-8.4372669,115.3857415,"Jl. Tembuku, Tembuku, Kec. Tembuku, Kabupaten Bangli, Bali 80671, Indonesia",https://maps.google.com/?cid=1698548568137756015,OPERATIONAL,+62 877-0173-0092,indonesian_restaurant,"indonesian_restaurant, restaurant, food",,,,,,,,
ChIJ2Vj0WIwb0i0RWnYsQOWry6g,Warung putu widya,-8.4375447,115.38576619999999,"H96P+X8J, Jl. Tembuku, Tembuku, Kec. Tembuku, Kabupaten Bangli, Bali 80671, Indonesia",https://maps.google.com/?cid=12163004219756672602,OPERATIONAL,+62 812-3744-8971,restaurant,"restaurant, food",1,1,,,,,,
ChIJKVpDxVkb0i0R_HkMOZxyUi8,Kedai penida kaja,-8.4291326,115.3847122,"H9CM+8VW, Jl. Tembuku, Tembuku, Kec. Tembuku, Kabupaten Bangli, Bali 80671, Indonesia",https://maps.google.com/?cid=3409913883170470396,OPERATIONAL,,coffee_shop,"coffee_shop, cafe, store, food",5,2,,,,,,
