id,name,latitude,longitude,address,url,status,phone,primary-type,types,rating,rating-count,price-level,review 1,review 2,review 3,review 4,review 5
ChIJw-83MAAp0i0RMpqgwwNeT14,Bali jungle cabin,-8.390887,115.089353,"J36Q+C2, Sangketan, Penebel, Tabanan Regency, Bali, Indonesia",https://maps.google.com/?cid=6795753732985362994,OPERATIONAL,+62 857-9246-7707,private_guest_room,"private_guest_room, lodging",,,,,,,,
ChIJV0GPdwAp0i0R7BCAI9DVDlM,Kebun Raja Musang,-8.3934768,115.08786529999999,"J34Q+J45, Sangketan, Penebel, Tabanan Regency, Bali 82152, Indonesia",https://maps.google.com/?cid=5984956044747477228,OPERATIONAL,,park,park,,,,,,,,
ChIJg0AhdQAp0i0R7FuyvRdzsLg,Kukur B'ten Manggis,-8.3950981,115.088792,"J33Q+XG7, Sangketan, Penebel, Tabanan Regency, Bali 82152, Indonesia",https://maps.google.com/?cid=13308263444683840492,OPERATIONAL,,park,park,,,,,,,,
ChIJoQVPSe0p0i0Rkx5TqozDf5Q,Kawa Waka Farm,-8.3940833,115.08869439999998,"J34Q+594, Sangketan, Penebel, Tabanan Regency, Bali 82152, Indonesia",https://maps.google.com/?cid=10700486248575999635,OPERATIONAL,,park,park,,,,,,,,
ChIJJ8GuGwAp0i0RaY0Boge4jzo,Jill & Bill House,-8.3933328,115.08790929999999,"J34Q+M57, Sangketan, Penebel, Tabanan Regency, Bali 82152, Indonesia",https://maps.google.com/?cid=4219793718791736681,OPERATIONAL,,,lodging,,,,,,,,
