id,name,latitude,longitude,address,url,status,phone,primary-type,types,rating,rating-count,price-level,review 1,review 2,review 3,review 4,review 5
ChIJKYtZU2470i0RmqWWa3rjfMY,C'Bezt Friedchicken Wiros Mengwi Badung,-8.519471,115.17426119999999,"Jalan Wisnu Desa Werdi Bhuana Mengwi, F5JF+6P6, Werdi Bhuwana, Kec. Mengwi, Kabupaten Badung, Bali 80351, Indonesia",https://maps.google.com/?cid=14302556631552402842,OPERATIONAL,+62 859-3303-20661,fast_food_restaurant,"fast_food_restaurant, restaurant, food",4.1,99,,Endulll,,,,
ChIJ6wP202870i0RyF9LwnLCyK0,Warung Ikan Bakar Jimbaran Mengwi,-8.5212431,115.17431020000001,"Jl. Denpasar-Singaraja, Werdi Bhuwana, Kec. Mengwi, Kabupaten Badung, Bali 80351, Indonesia",https://maps.google.com/?cid=12522472562045444040,OPERATIONAL,+62 812-3892-7077,restaurant,"restaurant, food",4.2,223,,"Wow soooo tasty and fresh
I ordered prawn (40 k porsi) and it was juicy, smells really good
I was surprised","When we came the chef that cooks dishes went out, so only BBQ grilled menu exists... Go figure. But everything grilled is tasty, fish, prawn, clam, squid and reasonably priced. Ample parking area and toilet. Recommended for otw to bedugul.",Good sauce. Pleasant dining experience. Helpful staff who drove me back to my place a short distance away as there were no Gojeg anywhere. :)),Had great grilled food here. Affordable and delicious ü§§,"Nice grilled fish(cheap only IDR 40k 400gr), and ""cah kangkung"", the others is just standard..."
ChIJu_6Ovpg70i0RZSSOIbQkFCA,HEAVENLY HELL21,-8.5198919,115.17484459999999,"F5HF+XRQ, Jl. Raya Denpasar, Werdi Bhuwana, Kec. Mengwi, Kabupaten Badung, Bali 80351, Indonesia",https://maps.google.com/?cid=2311512864823583845,OPERATIONAL,+62 877-7831-5960,restaurant,"restaurant, food",5,2,,,,,,
ChIJ5eyaij470i0R9S3b6gPlIdk,Seblak mommy,-8.5190966,115.17319309999999,"F5JF+978 banjar denkayu baleran, Jl. Wisnu Marga, Werdi Bhuwana, Kec. Mengwi, Kabupaten Badung, Bali 82181, Indonesia",https://maps.google.com/?cid=15646038385449709045,OPERATIONAL,+62 859-4139-7544,indonesian_restaurant,"indonesian_restaurant, restaurant, food",5,10,,,,,,
ChIJZ7wC6NE70i0Rdz-immL-8Yg,BAKMI BABI NAK TABANAN,-8.5196656,115.1747403,"F5JF+4VQ, Jl. Raya Denpasar, Werdi Bhuwana, Kec. Mengwi, Kabupaten Badung, Bali, Indonesia",https://maps.google.com/?cid=9867947958000041847,OPERATIONAL,,brunch_restaurant,"brunch_restaurant, restaurant, food",5,4,,,,,,
ChIJ7RqxM8Y70i0R9jG_bSiTbpY,Waroeng Bubur Bali MeSari,-8.5214643,115.17449830000001,"Br. Denkayu Baleran, Werdi Bhuwana, Kec. Mengwi, Kabupaten Badung, Bali 80351, Indonesia",https://maps.google.com/?cid=10839763154976584182,OPERATIONAL,+62 815-6262-892,restaurant,"restaurant, food",4.9,9,,Nice owner + amazing food,,,,
ChIJN_rus3E70i0RDD66zHJUb4c,Bakso Babi Belayu,-8.5231357,115.17376770000001,"F5GF+PGR, Jl. Denpasar-Singaraja, Werdi Bhuwana, Kec. Mengwi, Kabupaten Badung, Bali 80351, Indonesia",https://maps.google.com/?cid=9759111769572916748,OPERATIONAL,+62 819-9964-3191,indonesian_restaurant,"indonesian_restaurant, restaurant, food",4.6,159,PRICE_LEVEL_INEXPENSIVE,"Bakso Special (With the Lot!) üòÅüòã
Meat is cooked perfectly, clean, no bones in the soup, must try!

Wonderful people too.","The taste of the food are good, the meat from the meatball are well produce, you won't find any bones on it,, the soup taste are nice,, it's better to add more ketchup and spicy sauce on that soup,, it will be perfect taste! The location are near with the main road of Badung - Singaraja, you can't expect this place 100% clean from dust, but from what i see the owner and others employee are responsible and very welcome to the costumer,, it just need more parking place and exact time of opening and closing. Overall are good! Expecially the price ^_^
You should try this!",So far the best in the area,Ntappps,Taste good üëç
ChIJx_pMCm870i0RU6i3-qZmdWE,Pondok Bakso Pak Jhon I,-8.518823700000002,115.17517070000001,"F5JG+F3F, Jl. Raya Denpasar, Werdi Bhuwana, Kec. Mengwi, Kabupaten Badung, Bali 80351, Indonesia",https://maps.google.com/?cid=7022632061311101011,OPERATIONAL,+62 857-3967-7301,indonesian_restaurant,"indonesian_restaurant, restaurant, food",4.3,176,PRICE_LEVEL_INEXPENSIVE,Ok...ok,Very basic taste.,Good,Nice,Jossssssssssssssssssssssssssssssssssssssss
ChIJi7rjrW870i0RaIxItj_DSPY,ACK Fried Chicken,-8.519548,115.17445,"Jalan Wisnu Desa Werdi Bhuana Mengwi, F5JF+5QP, Werdi Bhuwana, Kec. Mengwi, Kabupaten Badung, Bali 80351, Indonesia",https://maps.google.com/?cid=17746649010062003304,OPERATIONAL,+62 877-6183-6731,meal_takeaway,"fast_food_restaurant, meal_takeaway, restaurant, food",3.7,33,,Not so a nice place,Taste is worth with the price,,,
ChIJ0_dDuvk70i0RJYUitksoGDE,warung serlok,-8.5184777,115.17243409999999,"F5JC+JX3, Jl. Denpasar-Singaraja, Werdi Bhuwana, Kec. Mengwi, Kabupaten Badung, Bali 80351, Indonesia",https://maps.google.com/?cid=3537621812942898469,OPERATIONAL,,bar,bar,5,1,,,,,,
ChIJp54_r2870i0RSMTDFNAyvxQ,Warung Sop Ikan Rindu,-8.5193362,115.17474100000001,"F5JF+7V9, Werdi Bhuwana, Mengwi, Badung Regency, Bali 80351, Indonesia",https://maps.google.com/?cid=1494969470593254472,OPERATIONAL,,indonesian_restaurant,"indonesian_restaurant, restaurant, food",4.4,10,,,,,,
ChIJC4y_pm870i0RJKiRsFzBjdo,Soto Ayam Surabaya Citra Rasa Cak Ri,-8.5191611,115.1751201,"F5JG+82Q, Jl. Denpasar-Singaraja, Werdi Bhuwana, Kec. Mengwi, Kabupaten Badung, Bali 80351, Indonesia",https://maps.google.com/?cid=15748456075827980324,OPERATIONAL,+62 813-3812-3119,indonesian_restaurant,"indonesian_restaurant, restaurant, food",4.4,35,,Recommended banget,,,,
ChIJa2ojYcQ70i0RAu0v-MA8BqA,Bakso Bali 100% Sukla,-8.5193547,115.17362639999999,"F5JF+79W, Jl. Wisnu Marga, Werdi Bhuwana, Kec. Mengwi, Kabupaten Badung, Bali 80351, Indonesia",https://maps.google.com/?cid=11530970695424011522,OPERATIONAL,,restaurant,"restaurant, food",4.5,4,,,,,,
ChIJc0mJZRU70i0RF7_8qRfbMz8,Warung sate kambing anang nadi,-8.5202404,115.17452189999999,"Ubah lokasi, Jl. Raya Denpasar No.9, Werdi Bhuwana, Kec. Mengwi, Kabupaten Badung, Bali 80351, Indonesia",https://maps.google.com/?cid=4554224542884347671,OPERATIONAL,,restaurant,"restaurant, food",4.9,49,,,,,,
ChIJowpQYZ070i0RiYHQiCLHRa4,SARI ULAM,-8.5193663,115.17364749999999,"F5JF+79W, Jl. Wisnu Marga, Werdi Bhuwana, Kec. Mengwi, Kabupaten Badung, Bali 80351, Indonesia",https://maps.google.com/?cid=12557662087130677641,CLOSED_TEMPORARILY,,seafood_restaurant,"seafood_restaurant, restaurant, food",,,,,,,,
ChIJ8VkLSTk70i0RWLH8geSIrE4,Warung Babi Guling Men Yubi,-8.519565199999999,115.17478360000001,"Jl. Raya Denpasar, Werdi Bhuwana, Kec. Mengwi, Kabupaten Badung, Bali 80351, Indonesia",https://maps.google.com/?cid=5669056545967354200,OPERATIONAL,+62 815-4761-2129,indonesian_restaurant,"indonesian_restaurant, restaurant, food",4.6,8,,,,,,
ChIJD3DsN7Q70i0RY4wbpL5ij_g,MARTABAK KENAN,-8.519575099999999,115.17410029999998,"F5JF+5J9, Jl. Wisnu, Werdi Bhuwana, Kec. Mengwi, Kabupaten Badung, Bali, Indonesia",https://maps.google.com/?cid=17910642814012329059,OPERATIONAL,+62 831-1558-6885,restaurant,"restaurant, food",5,2,,,,,,
ChIJacgI0Lo70i0RXxOhwBBtoKw,Villa Kalinda Sungi,-8.5209572,115.1696807,"Banjar, Jl. Umabian, Peken, Kec. Marga, Kabupaten Tabanan, Bali 82181, Indonesia",https://maps.google.com/?cid=12439062089515995999,OPERATIONAL,,,lodging,5,1,,,,,,
ChIJrxRnsG870i0RKsD0Tm4EzGI,Warung Pecel Lele Pak Ryan,-8.519677,115.1747486,"F5JF+4VH, Jl. Denpasar-Singaraja, Werdi Bhuwana, Kec. Mengwi, Kabupaten Badung, Bali 80351, Indonesia",https://maps.google.com/?cid=7119069982783488042,OPERATIONAL,+62 822-3102-6812,indonesian_restaurant,"indonesian_restaurant, restaurant, food",3,1,,,,,,
ChIJPyBLUxQ70i0R397slGntUCk,Ud.dwipa&andini bali style 2,-8.5175773,115.17067349999999,"Jl. Wisnu Marga, Werdi Bhuwana, Kec. Marga, Kabupaten Tabanan, Bali 82181, Indonesia",https://maps.google.com/?cid=2977140391417798367,OPERATIONAL,+62 812-5266-2479,store,"art_gallery, store",3.5,2,,,,,,
