id,name,latitude,longitude,address,url,status,phone,primary-type,types,rating,rating-count,price-level,review 1,review 2,review 3,review 4,review 5
ChIJ3fNlxmnV0y0RwNBOhdxiL3Q,Bunut Bolong,-8.376673,114.8892152,"JVFQ+8MP, Jl. Pekutatan, Manggissari, Kec. Pekutatan, Kabupaten Jembrana, Bali, Indonesia",https://maps.google.com/?cid=8372018931573903552,OPERATIONAL,,tourist_attraction,tourist_attraction,4.5,2,,,,,,
ChIJD9tDQxPV0y0RjSl5rnAqN60,Manggissari greenland,-8.3754387,114.89287649999999,"Manggissari, Pekutatan, Jembrana Regency, Bali 82262, Indonesia",https://maps.google.com/?cid=12481491555732498829,OPERATIONAL,+62 819-1111-9168,tourist_attraction,tourist_attraction,5,5,,Relax,The view is Good,,,
ChIJU8LTc7TV0y0RZS0XV06Vjkg,Oemah Omang Guest House,-8.3750383,114.8932043,"Banjar, Manggissari, Kec. Pekutatan, Kabupaten Jembrana, Bali 82262, Indonesia",https://maps.google.com/?cid=5228280381124848997,OPERATIONAL,+62 812-3778-7097,guest_house,"guest_house, lodging",,,,,,,,
ChIJS3fOYXvV0y0R4Bal7qRnpLw,Sadye comonity,-8.3769767,114.88969859999999,"JVFQ+6V4, Manggissari, Pekutatan, Jembrana Regency, Bali 82262, Indonesia",https://maps.google.com/?cid=13593103533387093728,OPERATIONAL,,coffee_shop,"coffee_shop, cafe, food, store",,,,,,,,
ChIJEauzskrV0y0RoVNAbTo4tJA,Wr. Menu Men Lempung,-8.3748572,114.8934478,"JVGV+394, Manggissari, Pekutatan, Jembrana Regency, Bali 82262, Indonesia",https://maps.google.com/?cid=10427020860861731745,OPERATIONAL,+62 878-3970-3023,restaurant,"restaurant, food",,,,,,,,
ChIJuSsZfabV0y0RN4BJZf8ic_4,SEMETON DUKUH SAKTI,-8.3745411,114.89348869999999,"JVGV+59Q, Manggissari, Pekutatan, Jembrana Regency, Bali 82262, Indonesia",https://maps.google.com/?cid=18335036988266741815,OPERATIONAL,,campground,"campground, park, lodging",,,,,,,,
ChIJzzctmbXV0y0REjTvcVoO4tU,Pondok Nang Kocong Gen's,-8.3743208,114.89312559999998,"JVGV+77C, Manggissari, Pekutatan, Jembrana Regency, Bali 82262, Indonesia",https://maps.google.com/?cid=15411896656436605970,OPERATIONAL,,lodging,lodging,5,2,,This place is good for rest,,,,
