id,name,latitude,longitude,address,url,status,phone,primary-type,types,rating,rating-count,price-level,review 1,review 2,review 3,review 4,review 5
ChIJiwuAcww70i0R26dkYKIh7iM,Penginapan Pondok Ratna,-8.5271894,115.1609289,"Beringkit, Marga, Tabanan Regency, Bali 82121, Indonesia",https://maps.google.com/?cid=2589043817070241755,OPERATIONAL,+62 895-3659-28767,,lodging,4.1,19,,,,,,
ChIJ6_YldTw70i0RpLhDEE9niiA,Pondok Uma Kelod,-8.526947300000002,115.1601002,"Unnamed Road, F5F6+62H, Beringkit, Kec. Marga, Kabupaten Tabanan, Bali 82121, Indonesia",https://maps.google.com/?cid=2344800145272715428,OPERATIONAL,,lodging,lodging,5,7,,Good vibes,,,,
ChIJ2Us_GAA70i0Ro5tnO0t6W4E,Rumah ayu,-8.5269712,115.16150939999999,"F5F6+6J6, Beringkit, Marga, Tabanan Regency, Bali 82121, Indonesia",https://maps.google.com/?cid=9321178317311155107,OPERATIONAL,,hostel,"hostel, lodging",5,1,,,,,,
ChIJfQRGVS470i0RyU2ZngOztPw,Griya Kost,-8.529653699999999,115.16166319999999,"F5C6+4MF, Beringkit, Marga, Tabanan Regency, Bali 82121, Indonesia",https://maps.google.com/?cid=18209376021492878793,OPERATIONAL,+62 813-3826-6806,private_guest_room,"private_guest_room, lodging",,,,,,,,
ChIJx9ilmwE70i0RxCfGHh24qR8,Kai,-8.527582599999999,115.1591306,"Indonesia, Bali, Tabanan Regency, Marga, Beringkit, Unnamed Road",https://maps.google.com/?cid=2281557121449732036,CLOSED_TEMPORARILY,,cafe,"cafe, food",5,2,,,,,,
ChIJD3Kp6ws70i0R4LzMZ8M4qxI,Warung Buk Murni,-8.5285817,115.1605545,"Beringkit, Marga, Tabanan Regency, Bali, Indonesia",https://maps.google.com/?cid=1345231325611474144,OPERATIONAL,,restaurant,"restaurant, food",,,,,,,,
ChIJPXpAL-870i0RFtp9PYf3CbE,Wr Bu Resya,-8.5263236,115.1619262,"F5F6+FQF, Br. Jebaud, Peken, Kec. Marga, Kabupaten Tabanan, Bali 82121, Indonesia",https://maps.google.com/?cid=12756999579727944214,OPERATIONAL,,restaurant,"restaurant, food",,,,,,,,
ChIJn8KWgTg70i0R3rcfz3N5oi0,Pondok Rasta,-8.528996,115.16211799999999,"Unnamed Road, F5C6+CR5, Beringkit, Kec. Marga, Kabupaten Tabanan, Bali 82121, Indonesia",https://maps.google.com/?cid=3288324216237045726,OPERATIONAL,,,lodging,4.8,4,,,,,,
ChIJJ4ceAQA70i0ReExyyANd3VA,Pondok N,-8.527476499999999,115.1615801,"F5F6+2J4, Beringkit, Marga, Tabanan Regency, Bali, Indonesia",https://maps.google.com/?cid=5826915763716508792,OPERATIONAL,,,lodging,5,1,,,,,,
