id,name,latitude,longitude,address,url,status,phone,primary-type,types,rating,rating-count,price-level,review 1,review 2,review 3,review 4,review 5
ChIJlzRecQDf0y0R3q5X0E9ue9Y,DANY RENT CAR,-8.3749596,114.59652820000001,"Jl. Sirsak, Tegal Badeng Tim., Kec. Negara, Kabupaten Jembrana, Bali 82214, Indonesia",https://maps.google.com/?cid=15455067835328868062,OPERATIONAL,,car_rental,car_rental,5,5,,,,,,
ChIJBcF_mmDf0y0Rj6OVbn06SII,Warung Makan HJ. Misriati,-8.3718811,114.59475629999999,"Tim., JHHV+6WR, Tegal Badeng Tim., Kec. Negara, Kabupaten Jembrana, Bali 82214, Indonesia",https://maps.google.com/?cid=9387817733654422415,OPERATIONAL,+62 852-3885-0185,restaurant,"restaurant, food",4.6,8,,"Quite cheap, and nice taste",,,,
ChIJrVdll17f0y0RHOqIpDJeR7Q,Jaya Fried Chicken,-8.372582399999999,114.59975550000001,"JHGX+XW6, Jl. Raya Negara-Pengambengan, Tegal Badeng Tim., Kec. Negara, Kabupaten Jembrana, Bali 82215, Indonesia",https://maps.google.com/?cid=12990455221775297052,OPERATIONAL,,restaurant,"restaurant, food",3.3,6,,,,,,
ChIJjw1BfMvf0y0RRU3rXsVZzFQ,Warung sate babi beten singapur,-8.3710917,114.59753810000001,"JHHX+H27, East Tegal Badeng, Negara, Jembrana Regency, Bali 82214, Indonesia",https://maps.google.com/?cid=6110357498670828869,OPERATIONAL,+62 831-6306-8815,indonesian_restaurant,"indonesian_restaurant, restaurant, food",5,1,,,,,,
ChIJQz-jhF7f0y0RspQTy_6I1O4,BAKSO SAHABAT,-8.3729897,114.59908159999999,"East Tegal Badeng, Negara, Jembrana Regency, Bali, Indonesia",https://maps.google.com/?cid=17209530703999636658,OPERATIONAL,,restaurant,"restaurant, food",,,,,,,,
ChIJR8KcFV7f0y0R-rvfRJhxoJI,Bakso Pak Hari,-8.3722268,114.59681920000001,"Tim.,, JHHW+4P4, Tegal Badeng Tim., Kec. Negara, Kabupaten Jembrana, Bali 82214, Indonesia",https://maps.google.com/?cid=10565569624615664634,OPERATIONAL,,indonesian_restaurant,"indonesian_restaurant, restaurant, food",4.1,18,PRICE_LEVEL_INEXPENSIVE,Good,,,,
ChIJsT8hvszf0y0R-nna56YKcKE,Drip coffee,-8.3732771,114.59935300000001,"East Tegal Badeng, Negara, Jembrana Regency, Bali 82215, Indonesia",https://maps.google.com/?cid=11632809549468695034,CLOSED_TEMPORARILY,,coffee_shop,"coffee_shop, cafe, food, store",,,,,,,,
ChIJxaR_Hsff0y0R6j8hqeL2JHg,MOJIROCK 7123,-8.371812499999999,114.59631250000001,"East Tegal Badeng, Negara, Jembrana Regency, Bali, Indonesia",https://maps.google.com/?cid=8657315837073506282,OPERATIONAL,+62 823-4134-1867,bar,bar,4,4,,Best drinkz,,,,
ChIJ43Lqal7f0y0R34nXB1S4Ys4,Pk Jm Speed Shop,-8.3722567,114.59711530000001,"JHHW+3RX, Jl. Beringin, Tegal Badeng Tim., Kec. Negara, Kabupaten Jembrana, Bali 82214, Indonesia",https://maps.google.com/?cid=14871651590579128799,OPERATIONAL,,night_club,night_club,1,1,,,,,,
ChIJi_WtWgvf0y0RlCT201Lg9Zw,Warung Makan Bu Nur,-8.3727181,114.59851919999998,"JHGX+WC6, East Tegal Badeng, Negara, Jembrana Regency, Bali 82214, Indonesia",https://maps.google.com/?cid=11310192685558932628,OPERATIONAL,+62 878-6317-0898,restaurant,"restaurant, food",4.8,4,,,,,,
ChIJa7XUqabf0y0RD9leKdWTaKk,Warung Guru Sembawa,-8.3689667,114.5958616,"JHJW+C89, East Tegal Badeng, Negara, Jembrana Regency, Bali 82214, Indonesia",https://maps.google.com/?cid=12207169333719128335,CLOSED_TEMPORARILY,,indonesian_restaurant,"indonesian_restaurant, restaurant, food",,,,,,,,
ChIJSaAcfGzf0y0RL4RBZMdnW8Q,Mie Kacu bang saroh,-8.372719,114.5952173,"JHGW+W38, East Tegal Badeng, Negara, Jembrana Regency, Bali 82214, Indonesia",https://maps.google.com/?cid=14149016760392713263,OPERATIONAL,+62 896-8173-2161,restaurant,"restaurant, food",5,1,,,,,,
ChIJjcKJCWPf0y0Rh35XCr25Jf0,GUBUG KITA,-8.3716065,114.5936027,"JHHV+9C5, Jl. Nakula, Tegal Badeng Tim., Kec. Negara, Kabupaten Jembrana, Bali 82214, Indonesia",https://maps.google.com/?cid=18241190087307525767,OPERATIONAL,,restaurant,"restaurant, food",5,4,,,,,,
ChIJAQH6Iyzf0y0RajGZg8W5B1w,Sovenir aksesoris rajut NADIFA CRAFT,-8.372126399999999,114.59494229999999,"Jl. Nakula, Banjar Tangi, Tegal Badeng Tim., Kec. Negara, Kabupaten Jembrana, Bali 82251, Indonesia",https://maps.google.com/?cid=6631473234293895530,OPERATIONAL,+62 822-3506-7064,restaurant,"restaurant, food",,,,,,,,
ChIJuampHEnf0y0RM9b3YQWKWqA,Nong-Krong wifi,-8.371615,114.5932642,"JHHV+982, Jl. Beringin, Tegal Badeng Tim., Kec. Negara, Kabupaten Jembrana, Bali 82214, Indonesia",https://maps.google.com/?cid=11554699549695530547,OPERATIONAL,+62 853-3320-4678,cafe,"cafe, food",,,,,,,,
ChIJuV8wzV_f0y0RupMuy81oYGc,Bakso dan Soto Lestari 1,-8.3721597,114.59694950000001,"JHHW+4QP, Jl. Nakula, Tegal Badeng Tim., Kec. Negara, Kabupaten Jembrana, Bali 82214, Indonesia",https://maps.google.com/?cid=7449069016757212090,OPERATIONAL,+62 819-1644-0609,indonesian_restaurant,"indonesian_restaurant, restaurant, food",5,2,,,,,,
ChIJkxxFjj3f0y0RS5MiNN6_HYA,Warung Artho Moro,-8.3717872,114.5960607,"JHHW+7CM, East Tegal Badeng, Negara, Jembrana Regency, Bali 82214, Indonesia",https://maps.google.com/?cid=9231745772257710923,OPERATIONAL,+62 853-3782-6399,restaurant,"restaurant, food",5,1,,,,,,
ChIJK5y5QE7f0y0RsVAUt_UnB3Q,TargetKu 01,-8.3723686,114.59763369999999,"JHHX+332 Tim, Tegal Badeng Tim., Kec. Negara, Kabupaten Jembrana, Bali 82214, Indonesia",https://maps.google.com/?cid=8360695169528647857,OPERATIONAL,,motel,"motel, lodging",,,,,,,,
ChIJd7-K-yHf0y0R4Tofh4BDQXQ,Mie Ayam Rizkia,-8.3731312,114.59921430000001,"JHGX+PMW, Jl. Raya Negara-Pengambengan, Tegal Badeng Tim., Kec. Negara, Kabupaten Jembrana, Bali 82214, Indonesia",https://maps.google.com/?cid=8377051001187678945,OPERATIONAL,+62 852-3756-7677,restaurant,"restaurant, food",3.3,3,,A spexial experience to be here,,,,
ChIJo5u9-tLf0y0RcAbq0XmUIC4,Warung Nasi LSB,-8.3718293,114.59431149999999,"JHHV+7PJ, Jl. Beringin, Tegal Badeng Tim., Kec. Negara, Kabupaten Jembrana, Bali 82214, Indonesia",https://maps.google.com/?cid=3323819775933154928,OPERATIONAL,,brunch_restaurant,"brunch_restaurant, restaurant, food",,,,,,,,
