id,name,latitude,longitude,address,url,status,phone,primary-type,types,rating,rating-count,price-level,review 1,review 2,review 3,review 4,review 5
ChIJpSfcSgBd0S0R_M7GDuiKPvY,Nusa Sari Rice Field,-8.276621,114.52246,"PGFC+9X, Nusasari, Melaya, Jembrana Regency, Bali, Indonesia",https://maps.google.com/?cid=17743772311171288828,OPERATIONAL,,tourist_attraction,tourist_attraction,,,,,,,,
ChIJ3wen1Opn0S0Rx6oIwhpostk,Pos tukul,-8.2754162,114.52760680000002,"Nusasari, Melaya, Jembrana Regency, Bali 82252, Indonesia",https://maps.google.com/?cid=15686714916218645191,OPERATIONAL,,coffee_shop,"coffee_shop, cafe, food, store",5,1,,,,,,
ChIJWT0k1Vhn0S0R6gqHYAv3KO8,WARUNG BU DIVA,-8.2769565,114.52707459999999,"PGFG+6R8, Jl. Beringin Kaja, Nusasari, Kec. Melaya, Kabupaten Jembrana, Bali 82252, Indonesia",https://maps.google.com/?cid=17233295602369366762,OPERATIONAL,,restaurant,"restaurant, food",,,,,,,,
ChIJ2ffQEwBn0S0RH3k7XwUwMZI,Wr. Ananda,-8.2758573,114.52745209999999,"PGFG+MX4, Jl. Beringin Kaja, Nusasari, Kec. Melaya, Kabupaten Jembrana, Bali 82252, Indonesia",https://maps.google.com/?cid=10534253803027003679,OPERATIONAL,,brunch_restaurant,"brunch_restaurant, restaurant, food",,,,,,,,
ChIJl4tTKtln0S0R1OV8eerEKWQ,Angkringan Ice Boba,-8.2755665,114.5278616,"PGFH+Q4H, Jl. Beringin Kaja, Nusasari, Kec. Melaya, Kabupaten Jembrana, Bali 82252, Indonesia",https://maps.google.com/?cid=7217516389177550292,OPERATIONAL,,bar,bar,3.7,3,,,,,,
ChIJuwX_UwBn0S0Rk5RMsxmYE0U,Luh lendri house,-8.2745927,114.52755789999999,"PGFH+V3V, Jl. Beringin Kaja, Nusasari, Kec. Melaya, Kabupaten Jembrana, Bali 82252, Indonesia",https://maps.google.com/?cid=4977489249324274835,OPERATIONAL,,private_guest_room,"private_guest_room, lodging",4,1,,,,,,
