id,name,latitude,longitude,address,url,status,phone,primary-type,types,rating,rating-count,price-level,review 1,review 2,review 3,review 4,review 5
ChIJTaroMEmF0S0RYeCog6SVq7I,Surya Candra,-8.1840698,115.04881270000001,"dekat, Jl. Damai II, Kayu Putih, Kec. Sukasada, Kabupaten Buleleng, Bali 81152, Indonesia",https://maps.google.com/?cid=12874548493584752737,OPERATIONAL,+62 852-3956-2839,restaurant,"restaurant, food",5,1,,,,,,
ChIJD1rzq26F0S0RbTBLjx9ZwYY,Kayuputih dusun panti,-8.1840039,115.04847509999999,"R28X+99X, Jl. Damai II, Kayu Putih, Kec. Sukasada, Kabupaten Buleleng, Bali 81152, Indonesia",https://maps.google.com/?cid=9710140263670427757,OPERATIONAL,,restaurant,"restaurant, food",5,1,,,,,,
ChIJiwOvKdaE0S0RGmZjEDv5GSY,Villa Cahaya Utara,-8.184423299999999,115.0461563,"R28W+6FM, Kayu Putih, Sukasada, Buleleng Regency, Bali 81152, Indonesia",https://maps.google.com/?cid=2745499479932364314,OPERATIONAL,+62 895-6396-7801,cottage,"cottage, lodging",4.3,14,,Mold in kitchen and laundry room. Roof is leaky. The drains are smelly.,"Amazing place for relaxing, best services, rooms are very clean, delicious food.",Lovely villa for romantic getaway or family vacation!,The place is amazing perfect for relaxing travelers and Honeymooners,Nice Villa.
ChIJsRbQJJuF0S0R9iRGzt4vymc,Ikigai,-8.1835375,115.0469844,"R28W+HQQ, Kayu Putih, Sukasada, Buleleng Regency, Bali 81152, Indonesia",https://maps.google.com/?cid=7478842765192078582,OPERATIONAL,,,lodging,5,2,,,,,,
ChIJz6PFvimF0S0R72JiXK3yuAw,Warung Ary Santini,-8.1838362,115.04830260000001,"R28X+F87, Jl. Damai II, Kayu Putih, Kec. Sukasada, Kabupaten Buleleng, Bali 81152, Indonesia",https://maps.google.com/?cid=916749350563111663,OPERATIONAL,,restaurant,"restaurant, food",,,,,,,,
ChIJPcoxfiqF0S0Rf59-fLIMQ1Q,Villa Maya - Jon,-8.179941,115.046818,"R2CW+2PG, Kayu Putih, Sukasada, Buleleng Regency, Bali 81152, Indonesia",https://maps.google.com/?cid=6071710683357945727,OPERATIONAL,,hotel,"hotel, lodging",5,5,,Nice place and lovely view,Good Place,,,
