id,name,latitude,longitude,address,url,status,phone,primary-type,types,rating,rating-count,price-level,review 1,review 2,review 3,review 4,review 5
ChIJkeGWc22B0S0RP67vzYWptSw,Desa Tinggarsari,-8.2872045,114.98190419999999,"PX7J+4Q6, Jl. Tinggar Sari, Tinggarsari, Kec. Busung Biu, Kabupaten Buleleng, Bali 81154, Indonesia",https://maps.google.com/?cid=3221667500604239423,OPERATIONAL,,tourist_attraction,tourist_attraction,5,9,,The village have beautiful panorama and very fresh air.,,,,
ChIJIddY9c-B0S0Rmcs4bCfzoGM,Warung Oka Jaya,-8.2874398,114.9813121,"PX7J+2GF, Gg. Angsoka, Tinggarsari, Kec. Busung Biu, Kabupaten Buleleng, Bali 81154, Indonesia",https://maps.google.com/?cid=7179005156673506201,OPERATIONAL,+62 812-3827-5191,restaurant,"restaurant, food",,,,,,,,
ChIJ2YiBWTaB0S0RLVb95kpJn6E,Arsana Village,-8.2873261,114.9809707,"PX7J+399, Tinggarsari, Busung Biu, Buleleng Regency, Bali, Indonesia",https://maps.google.com/?cid=11646107747455161901,OPERATIONAL,,private_guest_room,"private_guest_room, lodging",,,,,,,,
ChIJzeScuDGB0S0R54sR1ihtO-A,Warung 2GIGA,-8.287576999999999,114.98337850000001,"PX6M+X96, Tinggarsari, Busung Biu, Buleleng Regency, Bali 81154, Indonesia",https://maps.google.com/?cid=16157628110279379943,OPERATIONAL,,brunch_restaurant,"brunch_restaurant, restaurant, food",,,,,,,,
ChIJb3EwYgCB0S0R5pBxkLgwYaY,Warung Muslim Sate & Lalapan,-8.287287899999999,114.9819526,"PX7J+3QQ, Jl. Tinggar Sari, Tinggarsari, Kec. Busung Biu, Kabupaten Buleleng, Bali 81154, Indonesia",https://maps.google.com/?cid=11988917252292448486,OPERATIONAL,,brunch_restaurant,"brunch_restaurant, restaurant, food",,,,,,,,
ChIJM2VVICeB0S0RxTzsROXZs4c,Warung Merta Sari,-8.2876848,114.980998,"Desa tinggarsari Banjar, dinas kauhan, Sebelum pura dalem belok kanan, Tinggarsari, Kec. Busung Biu, Kabupaten Buleleng, Bali 81154, Indonesia",https://maps.google.com/?cid=9778398794678549701,OPERATIONAL,+62 857-3826-5408,restaurant,"restaurant, food",,,,,,,,
ChIJhyXMjaKB0S0RUmvskNF-FCk,MARKAS SGC,-8.2861772,114.98218759999997,"PX7J+GVG, Tinggarsari, Busung Biu, Buleleng Regency, Bali, Indonesia",https://maps.google.com/?cid=2960130293633936210,OPERATIONAL,,hostel,"hostel, lodging",,,,,,,,
