id,name,latitude,longitude,address,url,status,phone,primary-type,types,rating,rating-count,price-level,review 1,review 2,review 3,review 4,review 5
ChIJr4W3Cvgv0i0R_WDwhy854EE,Warung Fajar,-8.4759935,115.1079575,"G4F5+J54, Jl. Raya Timpag, Timpag, Kec. Kerambitan, Kabupaten Tabanan, Bali 82161, Indonesia",https://maps.google.com/?cid=4746856883555426557,OPERATIONAL,+62 878-6388-1857,restaurant,"restaurant, food",4.2,16,,Lovely owners and local food,nice place to eat,Le Farm Agro,,
ChIJL-PLWdIl0i0RTW_e-KFsF0g,SWEET HOME TELAGA TUNJUNG,-8.4749959,115.10688780000001,"Jl. Raya Timpag, Timpag, Kec. Kerambitan, Kabupaten Tabanan, Bali 82161, Indonesia",https://maps.google.com/?cid=5194740138116017997,OPERATIONAL,+62 877-6189-6457,private_guest_room,"private_guest_room, lodging",,,,,,,,
ChIJFxQFSwAl0i0RmrW-FzAQ4c4,Subak Pacut,-8.4710853,115.10799670000002,"G4H5+H5, Rejasa, Penebel, Tabanan Regency, Bali, Indonesia",https://maps.google.com/?cid=14907214040315901338,OPERATIONAL,,park,park,,,,,,,,
ChIJK2Q1YAAl0i0RBswR0DkV8mI,Subak Rejasa,-8.4708946,115.11106209999998,"G4H6+JC, Rejasa, Penebel, Tabanan Regency, Bali, Indonesia",https://maps.google.com/?cid=7129784498129062918,OPERATIONAL,,park,park,,,,,,,,
ChIJjcqpdHkl0i0RMrx1jrVEHoM,Empelan subak timpag,-8.473079,115.1074032,"G4G4+QX6, Timpag, Kerambitan, Tabanan Regency, Bali, Indonesia",https://maps.google.com/?cid=9448064614839729202,OPERATIONAL,,park,park,,,,,,,,
ChIJ73nSfQcl0i0RDx2cMKj_Auw,Warung Manah,-8.476068099999999,115.10698110000001,"Jl. Raya Timpag, Timpag, Kec. Kerambitan, Kabupaten Tabanan, Bali, Indonesia",https://maps.google.com/?cid=17006436240739540239,OPERATIONAL,+62 819-4471-0522,restaurant,"restaurant, food",5,2,,,,,,
