id,name,latitude,longitude,address,url,status,phone,primary-type,types,rating,rating-count,price-level,review 1,review 2,review 3,review 4,review 5
ChIJldtdpcg30i0R_9sxhy2dlg8,R.P House,-8.5827213,115.08938819999999,"C38Q+WQ6, Bengkel, Kediri, Tabanan Regency, Bali 82115, Indonesia",https://maps.google.com/?cid=1123257975942798335,OPERATIONAL,,private_guest_room,"private_guest_room, lodging",5,2,,,,,,
ChIJaXge4zE30i0RvFpq-o70Xsw,Nyomin punk,-8.5828369,115.0890323,"C38Q+VJ7, Gg. V, Bengkel, Kec. Kediri, Kabupaten Tabanan, Bali 82115, Indonesia",https://maps.google.com/?cid=14726476726471908028,OPERATIONAL,,camping_cabin,"camping_cabin, lodging",3.7,3,,,,,,
ChIJHcdKHgA30i0Rw2xUw0LXlRw,Rumah Arka,-8.583259,115.08877500000001,"C38Q+RC5, Bengkel, Kediri, Tabanan Regency, Bali 82115, Indonesia",https://maps.google.com/?cid=2059789086336773315,OPERATIONAL,,private_guest_room,"private_guest_room, lodging",,,,,,,,
ChIJ7dJ0y4o30i0R6uERw6ds0Lw,Yudhakusuma,-8.5843504,115.08836249999999,"C38Q+GC2, Bengkel, Kediri, Tabanan Regency, Bali 82115, Indonesia",https://maps.google.com/?cid=13605493942074335722,OPERATIONAL,,bar,"bar, restaurant, food",,,,,,,,
ChIJX7XW-fg30i0RaE5_25imbQk,Rumah Anggi,-8.5830588,115.08810439999999,"C38Q+Q6H, Bengkel, Kediri, Tabanan Regency, Bali 82115, Indonesia",https://maps.google.com/?cid=679382294250606184,OPERATIONAL,,,lodging,,,,,,,,
ChIJ-UbuOEA30i0R3vMzAZvxUso,rumah samuel,-8.581700999999999,115.0879978,"C39Q+867, Bengkel, Kediri, Tabanan Regency, Bali 82115, Indonesia",https://maps.google.com/?cid=14578980591794123742,OPERATIONAL,,hotel,"hotel, lodging",,,,,,,,
ChIJn0xh0iE50i0R9Xlwilsul94,Villa Pondok Beten Jepun,-8.582270399999999,115.09560889999999,"Unnamed Road, C39W+36X, Bengkel, Kec. Kediri, Kabupaten Tabanan, Bali 82115, Indonesia",https://maps.google.com/?cid=16039339568602839541,OPERATIONAL,+62 812-4611-398,,lodging,,,,,,,,
ChIJ47ZbKiA50i0R-CkHGcHu84M,Pondok penyarikan 1,-8.5832868,115.09562899999999,"C38W+M7R, Bengkel, Kediri, Tabanan Regency, Bali 82115, Indonesia",https://maps.google.com/?cid=9508205751425247736,OPERATIONAL,,hostel,"hostel, lodging",3,1,,,,,,
