id,name,latitude,longitude,address,url,status,phone,primary-type,types,rating,rating-count,price-level,review 1,review 2,review 3,review 4,review 5
ChIJ49MoztqT0S0RXNI5eWNa5ck,Lapangan Bulian,-8.1151952,115.20025349999999,"V6M2+W4C, Bulian, Kubutambahan, Buleleng Regency, Bali 81172, Indonesia",https://maps.google.com/?cid=14548133554572350044,OPERATIONAL,,park,park,4.4,10,,,,,,
ChIJS9VDNxCT0S0Re0fS18m2kdo,Warung makan asih and spa (warung asih),-8.1149793,115.1988484,"Bulian, Kubutambahan, Singaraja, Bali 81172, Indonesia",https://maps.google.com/?cid=15749570349916899195,OPERATIONAL,+62 878-5060-0073,restaurant,"restaurant, food",5,1,,,,,,
ChIJeWiwa26T0S0RfXdorghJ4wo,Sila Jaje Bali,-8.115743,115.19990709999999,"V5MX+PX3 dinas dauh, Margi Setra, Bulian, Kec. Banjar, Kabupaten Buleleng, Bali 81172, Indonesia",https://maps.google.com/?cid=784551061727246205,CLOSED_TEMPORARILY,,meal_takeaway,"meal_takeaway, restaurant, food",,,,,,,,
ChIJDdNbv9qT0S0R0tIXB1bvoi4,WARUNG MAKAN APIRING MUJUNG,-8.115867999999999,115.1996028,"Bulian, Kubutambahan, Buleleng Regency, Bali, Indonesia",https://maps.google.com/?cid=3360511424737039058,OPERATIONAL,,restaurant,"restaurant, food",,,,,,,,
ChIJ7T2ZpIiT0S0R3yUhM6uWIYE,Tukad tibu gunting,-8.1140625,115.2033125,"V6P3+98, Bulian, Kubutambahan, Buleleng Regency, Bali, Indonesia",https://maps.google.com/?cid=9304883967165539807,OPERATIONAL,,tourist_attraction,tourist_attraction,,,,,,,,
