id,name,latitude,longitude,address,url,status,phone,primary-type,types,rating,rating-count,price-level,review 1,review 2,review 3,review 4,review 5
ChIJI1YOpeMm0i0Rv9b__ecS87Y,Jungle Bali ATV,-8.3706698,115.1578864,"Senganan, Kawan, Kec. Penebel, Kabupaten Tabanan, Bali 82191, Indonesia",https://maps.google.com/?cid=13182901321851721407,CLOSED_TEMPORARILY,,,"restaurant, food",4.3,31,,"Awesome team! We had so much fun, everyone is so friendly and helpful. I was a bit scared, the guys jump on and help the entire way. Great lunch and amazing views!!!!","Fantastic day. Definitely not what we expected - it was more thrilling than we thought it would be. The tour guides were very friendly and helpful and made the experience really fun. Must do activity for those with a sense of adventure. No prior quad bike experience necessary, the guys will help you along the way. Lunch was great and the scenery beautiful. Well worth the money!",A challenging experience of driving the quad to around the rice field and the cocoa plantation on small river.,Had a great time with this company. The staff were really helpful and the route was really fun.  I was expecting it to be much more boring of a trail and was pleasantly surprised that it was a real fun trip. I will be recommending this company to my friends,"Great experience and great view, i hope after pandemic can come again, see you soonüëãüèª"
ChIJ2WTDsw4n0i0RPsAwRm9ANuw,JFC Senganan,-8.3708841,115.1609233,"J5H6+J9V, Jalan Raya, Senganan, Kec. Penebel, Kabupaten Tabanan, Bali 82181, Indonesia",https://maps.google.com/?cid=17020862688356515902,OPERATIONAL,+62 877-0291-7830,restaurant,"restaurant, food",2.3,9,,,,,,
ChIJxYzVOyIn0i0Rb74m6VNRA9s,Paica Kuliner,-8.3722102,115.1587079,"Jl. Raya Senganan No.50, Senganan, Kec. Penebel, Kabupaten Tabanan, Bali 82191, Indonesia",https://maps.google.com/?cid=15781546940072115823,OPERATIONAL,+62 817-120-577,restaurant,"restaurant, food",4.9,7,,,,,,
ChIJT3vfJR4n0i0RMrlSUaOmk78,Warung Buk Risti,-8.3707534,115.1613882,"J5H6+MHR, Jl. Raya Senganan, Senganan, Kec. Penebel, Kabupaten Tabanan, Bali 82181, Indonesia",https://maps.google.com/?cid=13804560503194958130,OPERATIONAL,+62 859-3837-6468,restaurant,"restaurant, food",,,,,,,,
ChIJm92N3-Em0i0R1psD8E04qrc,Warung Nyoman,-8.3711369,115.1608779,"J5H6+G9R, Jl. Raya Senganan, Senganan, Kec. Penebel, Kabupaten Tabanan, Bali 82181, Indonesia",https://maps.google.com/?cid=13234452362372029398,OPERATIONAL,+62 819-3307-6347,restaurant,"restaurant, food",4.5,4,,Great typical Indonesian Warung. Welcoming and hearty owners. We had the Bakso and it was just great. If you wanna have a typical Bali experience it doesn‚Äôt get better than this,,,,
ChIJhztKRdcn0i0R7_ihwA-XzMM,Warung Bu Hendra,-8.370741599999999,115.16204189999999,"J5H6+PR3, Senganan, Penebel, Tabanan Regency, Bali 82191, Indonesia",https://maps.google.com/?cid=14108817826557065455,OPERATIONAL,,indonesian_restaurant,"indonesian_restaurant, restaurant, food",4.5,2,,,,,,
ChIJ7xpCRCcn0i0RLCJPRZ1r_kU,Warung dahana,-8.369886,115.16173500000001,"J5J6+2MX, Jl. Raya Senganan, Senganan, Kec. Penebel, Kabupaten Tabanan, Bali 82191, Indonesia",https://maps.google.com/?cid=5043586955918385708,OPERATIONAL,,restaurant,"restaurant, food",,,,,,,,
ChIJNfVdoZ0n0i0RhRqBBnbd1mE,Caka Kopi,-8.3714345,115.16204970000001,"J5H6+CRF, Jl. Raya keridan, Senganan, Kec. Penebel, Kabupaten Tabanan, Bali 82191, Indonesia",https://maps.google.com/?cid=7050065765680093829,OPERATIONAL,,coffee_shop,"coffee_shop, cafe, store, food",4,1,,,,,,
ChIJvRb8kh4n0i0Rk-T5ZMOW1lw,Salon & Paon Rezty,-8.367639,115.16050089999999,"J5J6+W6R, Jl. Jatiluwih-Mengesta, Senganan, Kec. Penebel, Kabupaten Tabanan, Bali 82152, Indonesia",https://maps.google.com/?cid=6689700062462338195,OPERATIONAL,+62 819-1799-5900,cafe,"cafe, food",4.3,13,,"Good thing for good people, trust me this place is clean
It has a clean bathroom, good services and she nice.
For the menu, just don't be worry about the menu they have the best menu in the world.
Come and prove it
And show them how nice this is place",Recommended... üëç,,,
ChIJc0l9KB4n0i0RmstNxMpZfFg,BABI GULING ANGGUN HENDRA 2,-8.3709062,115.1615398,"Jl. Raya Senganan No.37, Senganan, Kec. Penebel, Kabupaten Tabanan, Bali 82191, Indonesia",https://maps.google.com/?cid=6376069899861478298,OPERATIONAL,,restaurant,"restaurant, food",,,,,,,,
ChIJpaykujYn0i0RsIEJ5ZMx1CA,Warung Bu Ica,-8.3722354,115.1590428,"Jl. Raya Senganan No.50, Senganan, Kec. Penebel, Kabupaten Tabanan, Bali 82191, Indonesia",https://maps.google.com/?cid=2365570215548912048,CLOSED_TEMPORARILY,,indonesian_restaurant,"indonesian_restaurant, restaurant, food",,,,,,,,
ChIJmSQtnVAn0i0RAzdKPOYe7Ic,Warung Nasi Lawar Pak Helga,-8.372217,115.15871159999999,"Jl. Raya Senganan No.50, Senganan, Kec. Penebel, Kabupaten Tabanan, Bali 82191, Indonesia",https://maps.google.com/?cid=9794237263826794243,CLOSED_TEMPORARILY,+62 821-4678-9809,indonesian_restaurant,"indonesian_restaurant, restaurant, food",,,,,,,,
ChIJs8QU46sn0i0RMlwtPEK-H7c,Warung Mina Halal Muslim,-8.3706258,115.1614948,"J5H6+PHX, Pasar, Senganan, Penebel, Tabanan Regency, Bali, Indonesia",https://maps.google.com/?cid=13195474624905567282,CLOSED_TEMPORARILY,,restaurant,"restaurant, food",,,,,,,,
ChIJf4_ZLh4n0i0R5RxXKyae_0Y,WARUNG POJOK BUJERO,-8.370626399999999,115.16168329999999,"Jl. Raya Senganan No.67, Senganan, Kec. Penebel, Kabupaten Tabanan, Bali 82191, Indonesia",https://maps.google.com/?cid=5115981588489247973,OPERATIONAL,,restaurant,"restaurant, food",,,,,,,,
ChIJk5y0cnkn0i0RZMnQImMjW9U,Pondok Chandra & Richy,-8.373731099999999,115.15687220000001,"Jl. Raya Senganan, Senganan, Kec. Penebel, Kabupaten Tabanan, Bali, Indonesia",https://maps.google.com/?cid=15373920661652162916,OPERATIONAL,,,lodging,5,1,,,,,,
ChIJfy8KgfEn0i0RghUM5cCC3qs,Nasi Jinggo Bu Yoga,-8.3706392,115.16253939999999,"Br. Dinas Senganan Kanginan, Senganan, Kec. Penebel, Kabupaten Tabanan, Bali 82152, Indonesia",https://maps.google.com/?cid=12384479790303548802,OPERATIONAL,+62 813-3853-7886,indonesian_restaurant,"indonesian_restaurant, restaurant, food",5,1,,,,,,
ChIJqTYkAAAn0i0RrG6UCyHX6fs,Rumah Rakta dan Ibas HOKI CENDOL,-8.3672307,115.15981420000001,"J5J6+X5V, Jl. Jatiluwih-Mengesta, Senganan, Kec. Penebel, Kabupaten Tabanan, Bali 82152, Indonesia",https://maps.google.com/?cid=18152276310021664428,OPERATIONAL,,coffee_shop,"coffee_shop, cafe, store, food",,,,,,,,
ChIJP3mirh4n0i0RdFKuc5RM4Vg,Pipin's House Bendul,-8.366486199999999,115.159734,"J5M5+CV5, Jalan Batu Luwih, Kawan, Angseri, Kec. Baturiti, Kabupaten Tabanan, Bali 80361, Indonesia",https://maps.google.com/?cid=6404484345577230964,OPERATIONAL,+62 852-3717-8461,hotel,"hotel, lodging",4,1,,,,,,
ChIJSZHC1mEn0i0RVD1Ik0Us5CU,Warung Nang Esta,-8.372987,115.155969,"J5G4+QMG, kawan, Babahan, Kec. Penebel, Kabupaten Tabanan, Bali 82191, Indonesia",https://maps.google.com/?cid=2730355951428713812,OPERATIONAL,,brunch_restaurant,"brunch_restaurant, restaurant, food",,,,,,,,
