id,name,latitude,longitude,address,url,status,phone,primary-type,types,rating,rating-count,price-level,review 1,review 2,review 3,review 4,review 5
ChIJh2uwfmIR0i0RJL3Cq7FlCw0,Warung Muslim Bu Apid,-8.5552862,115.41082879999999,"CCV6+V8P, Jl. Waturenggong, Kp. Gelgel, Kec. Klungkung, Kabupaten Klungkung, Bali 80761, Indonesia",https://maps.google.com/?cid=939956761002163492,OPERATIONAL,+62 878-6162-5937,indonesian_restaurant,"indonesian_restaurant, restaurant, food",4.8,67,PRICE_LEVEL_INEXPENSIVE,Muslim restaurant. Halal...,Great...deliciousüëçüëçüëç,,,
ChIJcyaOS9gT0i0RvINC1jQSZo4,Pura Dalem Kerti,-8.5577647,115.41231289999999,"CCR6+VWW, Jl. Gelgel-Jumpai, Gelgel, Kec. Klungkung, Kabupaten Klungkung, Bali 80761, Indonesia",https://maps.google.com/?cid=10260908819152536508,OPERATIONAL,+62 878-5702-3150,hindu_temple,"hindu_temple, tourist_attraction, place_of_worship",4.7,21,,,,,,
ChIJEcfz1tET0i0REg2H4PT07Rg,Kedai Lompang,-8.5604443,115.41328609999998,"CCQ7+R8F, Jl. Gelgel-Jumpai, Gelgel, Kec. Klungkung, Kabupaten Klungkung, Bali, Indonesia",https://maps.google.com/?cid=1796361158966840594,OPERATIONAL,,coffee_shop,"coffee_shop, cafe, food, store",3.5,2,,,,,,
ChIJu-TYb98T0i0R1rc4A3CaqsU,"Perumahan jati indah,BUMDesa Nurul Huda",-8.5571088,115.412444,"CCV6+5X4, Gelgel, Klungkung, Klungkung Regency, Bali 80761, Indonesia",https://maps.google.com/?cid=14243366577393678294,CLOSED_TEMPORARILY,,lodging,lodging,,,,,,,,
ChIJG-cTOgAR0i0Rmd7yZUgBnOU,KIEMI spesial mie ayam & pempek,-8.5554375,115.41168749999999,"Jl. Watu Renggong, Kp. Gelgel, Kec. Klungkung, Kabupaten Klungkung, Bali, Indonesia",https://maps.google.com/?cid=16545100541512048281,OPERATIONAL,+62 881-0381-38843,restaurant,"restaurant, food",,,,,,,,
ChIJzwGHMFIT0i0RjasuR8Fc034,Depot bakso wahyu,-8.557366,115.41159900000001,"CCV6+3J5, Jl. Gelgel-Jumpai, Gelgel, Kec. Klungkung, Kabupaten Klungkung, Bali 80761, Indonesia",https://maps.google.com/?cid=9138750054057552781,OPERATIONAL,+62 821-4692-8599,indonesian_restaurant,"indonesian_restaurant, restaurant, food",5,2,,,,,,
ChIJ_zhbI_IT0i0RRv3r4CQKSvU,Warung D'Uma Kubu,-8.5590873,115.4170578,"CCR8+9R7, Jl. Raya Gandamayu, Gelgel, Kec. Klungkung, Kabupaten Klungkung, Bali 80761, Indonesia",https://maps.google.com/?cid=17674950841077595462,OPERATIONAL,+62 878-6318-2197,coffee_shop,"coffee_shop, cafe, food, store",5,3,,,,,,
ChIJZ_jtaNcT0i0RCX8P7lxYM0s,Kiesi,-8.5555746,115.4116904,"CCV6+QMG, Kampung Gelgel, Klungkung, Klungkung Regency, Bali 80761, Indonesia",https://maps.google.com/?cid=5418771932811067145,OPERATIONAL,,indonesian_restaurant,"indonesian_restaurant, restaurant, food",,,,,,,,
ChIJTZidd9gT0i0RPU8VDed7M3M,Wong Lamongan Lalapan Cak Komek,-8.555505499999999,115.41188910000001,"Kampung Gelgel, Klungkung, Klungkung Regency, Bali, Indonesia",https://maps.google.com/?cid=8301114770461118269,OPERATIONAL,,restaurant,"restaurant, food",,,,,,,,
ChIJvx2WSHQT0i0Ridum7cCYhl8,Warung Garuda,-8.5558105,115.4109115,"Jl. Waturenggong Gang Usman bin Affan No.17, Kp. Gelgel, Kec. Klungkung, Kabupaten Klungkung, Bali 80761, Indonesia",https://maps.google.com/?cid=6883357034870659977,OPERATIONAL,,indonesian_restaurant,"indonesian_restaurant, restaurant, food",5,3,,,,,,
ChIJL2rnukgR0i0RqdKmWy_ZNnU,Wisata Warna Warni Kampung islam gelgel,-8.5553482,115.4109669,"Jl. Waturenggong Gang Usman bin Affan No.17, Kp. Gelgel, Kec. Klungkung, Kabupaten Klungkung, Bali 80761, Indonesia",https://maps.google.com/?cid=8446176948604293801,OPERATIONAL,,tourist_attraction,tourist_attraction,4.6,8,,,,,,
ChIJDf7YLeER0i0R-m5kAJ5LF0c,Susika seafood & Lalapan,-8.5554306,115.41094079999998,"depan masjid nurul huda, Jl desa, Kp. Gelgel, Kec. Klungkung, Kabupaten Klungkung, Bali 80711, Indonesia",https://maps.google.com/?cid=5122646243140726522,OPERATIONAL,+62 853-3910-3737,restaurant,"restaurant, food",5,2,,,,,,
ChIJ-3pcRFgT0i0RcIayIrrqtYE,SudutCafeTaria,-8.555985300000001,115.4123717,"CCV7+G27, Jl. Gelgel-Jumpai, Gelgel, Kec. Klungkung, Kabupaten Klungkung, Bali 80761, Indonesia",https://maps.google.com/?cid=9346634686844274288,CLOSED_TEMPORARILY,+62 877-6314-41240,bar,bar,,,,,,,,
ChIJrbsYj-4T0i0RfTl6ZWw9gj0,cafetaria,-8.555985,115.4123617,"CCV7+G27, Jl. Gelgel-Jumpai, Gelgel, Kec. Klungkung, Kabupaten Klungkung, Bali 80761, Indonesia",https://maps.google.com/?cid=4432172519054260605,OPERATIONAL,,bar,bar,,,,,,,,
ChIJ3YLt46IT0i0RbgTZagJPwm8,Warung Bu Yuni,-8.556543099999999,115.4103255,"CCV6+94P, Gelgel, Klungkung, Klungkung Regency, Bali 80761, Indonesia",https://maps.google.com/?cid=8053085955493004398,OPERATIONAL,,restaurant,"restaurant, food",5,3,,,,,,
ChIJFdEIf2IR0i0Rb3FkqArgJB0,Warung Muslim Bu Siti Wasilah,-8.5554344,115.41093649999999,"CCV6+R9F, Jl. Waturenggong, Kp. Gelgel, Kec. Klungkung, Kabupaten Klungkung, Bali 80761, Indonesia",https://maps.google.com/?cid=2100049662640943471,OPERATIONAL,,restaurant,"restaurant, food",1,1,,,,,,
ChIJVeqemGIR0i0RfNL99V2khfs,Warung Makan Bu Sri,-8.555023,115.4126215,"CCV7+X2X, jl.umasekan br.minggir, Gelgel, Kec. Klungkung, Kabupaten Klungkung, Bali 80761, Indonesia",https://maps.google.com/?cid=18124072998888395388,OPERATIONAL,+62 895-3261-05612,restaurant,"restaurant, food",,,,,,,,
ChIJKVwzJgAT0i0R2wHP2Sxe3Ss,Tongkrongan trio x1,-8.5566067,115.4107587,"CCV6+982, Kampung Gelgel, Klungkung, Klungkung Regency, Bali 80761, Indonesia",https://maps.google.com/?cid=3160786060209750491,OPERATIONAL,,park,park,,,,,,,,
ChIJCxTZRdoR0i0RPkSLeqq4l6g,Warung lbu Putu,-8.5548003,115.4125051,"CCW7+32C, Jl. Prajurit, Gelgel, Kec. Klungkung, Kabupaten Klungkung, Bali 80761, Indonesia",https://maps.google.com/?cid=12148381562195100734,OPERATIONAL,+62 877-6173-6100,coffee_shop,"coffee_shop, cafe, food, store",,,,,,,,
