id,name,latitude,longitude,address,url,status,phone,primary-type,types,rating,rating-count,price-level,review 1,review 2,review 3,review 4,review 5
ChIJMye2SvU90i0R-1QYuF3GdzE,Subak Uma Lambing Badung,-8.557739,115.22605369999998,"C6RG+WC3, Sibang Kaja, Abiansemal, Badung Regency, Bali, Indonesia",https://maps.google.com/?cid=3564535735909897467,OPERATIONAL,,park,park,5,5,,,,,,
ChIJ-7hpjyQ80i0RuDkc7Jg05g0,ACK Fried Chicken,-8.560914,115.21936,"Jl. Raya Sibang kaja, Abiansemal, kabupaten Badung, Bali 80352, Sibang Kaja, Kec. Abiansemal, Kabupaten Badung, Bali 80352, Indonesia",https://maps.google.com/?cid=1001545798537460152,OPERATIONAL,+62 812-3876-8409,meal_takeaway,"fast_food_restaurant, meal_takeaway, restaurant, food",3.1,26,,So nice the chicken also have a nice taste,,,,
ChIJ55nRuLw90i0RJYuFEgcBwoM,Ekowisata Subak Uma Lambing,-8.5628523,115.2232284,"C6PF+V75, Sibang Kaja, Abiansemal, Badung Regency, Bali 80352, Indonesia",https://maps.google.com/?cid=9494152094337567525,OPERATIONAL,,tourist_attraction,tourist_attraction,5,1,,,,,,
ChIJ7ejYwD490i0RxV00c59kfSQ,Warung Rujak dan Bubur Bu Danan,-8.558433500000001,115.2244853,"C6RF+JQH, C6P9+485Sibang KajaKec, Abiansemal, Kec. Abiansemal, Kabupaten Badung, Bali 80352, Indonesia",https://maps.google.com/?cid=2629368393449627077,OPERATIONAL,+62 857-9241-4147,restaurant,"restaurant, food",5,1,,,,,,
ChIJn-fFUuw90i0RoTIsApu_hKI,Pojok be genyol,-8.558305599999999,115.21912130000001,"Jl. Raya Mambal Abiansemal No.8, Mambal, Kec. Abiansemal, Kabupaten Badung, Bali 80352, Indonesia",https://maps.google.com/?cid=11710695603547419297,OPERATIONAL,+62 822-3708-8593,bar,bar,5,2,,,,,,
ChIJMQMVehI90i0RyqaQicjNxPw,Pasraman Jungring Salaka,-8.5584955,115.2190347,"C6R9+JJ3, Mambal, Abiansemal, Badung Regency, Bali 80352, Indonesia",https://maps.google.com/?cid=18213909054178240202,OPERATIONAL,+62 813-3864-6714,museum,museum,4.7,15,,"Psraman Jungring Salaka is a place where we can do self-purification, balancing karma of birth and the ceremony is in accordance with the ancient Balinese lontar.","Life balance, mind healing, soul purification, body tune up",A holy place,Mind Body soul therapy,"Don't really know deeply yet.
.."
ChIJfXVEw3890i0Rt7EZq3fEUW0,Dapoeristhebest,-8.558433500000001,115.2244853,"Br, C6RF+JQH, juwet, Abiansemal, Kec. Abiansemal, Kabupaten Badung, Bali 80352, Indonesia",https://maps.google.com/?cid=7877293241498448311,CLOSED_TEMPORARILY,+62 896-7104-9742,cafe,"cafe, food",,,,,,,,
