id,name,latitude,longitude,address,url,status,phone,primary-type,types,rating,rating-count,price-level,review 1,review 2,review 3,review 4,review 5
ChIJQZw8ngA70i0RSIBA9YE8U7w,Penginapan vista,-8.4960481,115.13507339999998,"G43P+H2P, Wanasari, Tabanan, Tabanan Regency, Bali 82181, Indonesia",https://maps.google.com/?cid=13570256631060529224,OPERATIONAL,,private_guest_room,"private_guest_room, lodging",4.4,5,,,,,,
ChIJe_ePla070i0RbF2_ZXIyxq8,Beji Mesari Restaurant,-8.4971627,115.1348597,"Jl. Batukaru, Wanasari, Kec. Penebel, Kabupaten Tabanan, Bali 82181, Indonesia",https://maps.google.com/?cid=12665866468940799340,OPERATIONAL,+62 813-3876-1167,seafood_restaurant,"seafood_restaurant, indonesian_restaurant, restaurant, food",4.5,36,,"Nice place, nice view, good food, good service.",Great place and great cuisines,,,
ChIJ7e_MMEQ70i0RrQ4ZyYMn3ac,Ayam HOKKY & Bebek FORTUNE,-8.4932497,115.13422459999998,"G44M+HPJ, Jl. Batukaru, Wanasari, Kec. Tabanan, Kabupaten Tabanan, Bali, Indonesia",https://maps.google.com/?cid=12095867621155081901,OPERATIONAL,+62 896-5291-2493,indonesian_restaurant,"indonesian_restaurant, restaurant, food",5,13,,,,,,
ChIJhUSpWjU70i0RMlDZosMxKv0,Cuan Garage,-8.4955506,115.134494,"JL. Batu Karu, 69-X, Tabanan, 82115, Wanasari, Kec. Tabanan, Kabupaten Tabanan, Bali 82181, Indonesia",https://maps.google.com/?cid=18242447956938149938,OPERATIONAL,,bar,bar,5,2,,,,,,
ChIJjVaZtywl0i0RGsx8uXgNaqA,Warung WWWK.COM,-8.4929842,115.13422930000002,"G44M+RM5, Jl. Batukaru, Wanasari, Kec. Tabanan, Kabupaten Tabanan, Bali 82181, Indonesia",https://maps.google.com/?cid=11559066205758999578,OPERATIONAL,+62 822-4776-6650,restaurant,"restaurant, food",5,2,,,,,,
ChIJSZdth8M70i0R0sSmgBi7B20,Nasi Kuning Warung ARMAD,-8.4942953,115.1344323,"Jl. Batukaru, Wanasari, Kec. Tabanan, Kabupaten Tabanan, Bali 82123, Indonesia",https://maps.google.com/?cid=7856453788883141842,CLOSED_TEMPORARILY,+62 821-4785-8915,restaurant,"restaurant, food",,,,,,,,
ChIJodf8J1ol0i0RkJPelUp1hOE,Barley,-8.492348699999999,115.13459479999999,"G45M+3R9, Wanasari, Tabanan, Tabanan Regency, Bali 82181, Indonesia",https://maps.google.com/?cid=16250242318662013840,OPERATIONAL,+62 831-1430-9659,bar,bar,,,,,,,,
ChIJNej8viwl0i0RSf3TCAPrVbU,WARUNG WOWOK,-8.4928835,115.13425300000002,"G44M+RPR, Jl. Batukaru, Wanasari, Kec. Tabanan, Kabupaten Tabanan, Bali 82181, Indonesia",https://maps.google.com/?cid=13066608292150902089,CLOSED_TEMPORARILY,,restaurant,"restaurant, food",,,,,,,,
ChIJYzIBUQA70i0RJDUeLJEp84w,Wanseriwu,-8.4966008,115.13258970000001,"G43M+924, Wanasari, Tabanan, Tabanan Regency, Bali, Indonesia",https://maps.google.com/?cid=10156507288137774372,OPERATIONAL,,tourist_attraction,tourist_attraction,,,,,,,,
ChIJbyKs9Kg70i0RYAh6cIiZNhA,Sandah lebah,-8.4942953,115.1344323,"G44M+7QM, Jl. Batukaru, Wanasari, Kec. Tabanan, Kabupaten Tabanan, Bali, Indonesia",https://maps.google.com/?cid=1168289964630870112,OPERATIONAL,,park,park,,,,,,,,
ChIJWb0hgOwl0i0RU1ptbw7lSvg,WR.MEN RAWAN,-8.492372699999999,115.13455390000001,"G45M+3R3, Wanasari, Tabanan, Tabanan Regency, Bali 82181, Indonesia",https://maps.google.com/?cid=17891364319844457043,OPERATIONAL,+62 857-9294-9500,restaurant,"restaurant, food",5,2,,,,,,
ChIJ-4KxZgAl0i0RmGmZcQyifZE,Warung Buk Lanang,-8.4923129,115.1342675,"G45M+3R3, Wanasari, Tabanan, Tabanan Regency, Bali 82181, Indonesia",https://maps.google.com/?cid=10483713681917569432,OPERATIONAL,,meal_takeaway,"meal_takeaway, restaurant, food",,,,,,,,
