id,name,latitude,longitude,address,url,status,phone,primary-type,types,rating,rating-count,price-level,review 1,review 2,review 3,review 4,review 5
ChIJ31j3mhWQ0S0RDjOtr_3fWOg,Air Terjun Padangbulia,-8.1556937,115.11685800000001,"R4V8+PPH, Padangbulia, Sukasada, Buleleng Regency, Bali 81161, Indonesia",https://maps.google.com/?cid=16742377895416902414,OPERATIONAL,,tourist_attraction,tourist_attraction,4.3,114,,Very great experience! Stunning nature views and powerful Waterfall if you visit during the rain seasons. The place is surrounded by very kind and warm hearted locals. For me it was one of the best days. Thanks to everyone who making the place accessible and special thanks to Wayan who shows me around and shared me some interesting informations.üôèüèª I can recommend!,"Unlucky when i was here yesterday,big water falling down.
So scary...
So close,5 minute down from the stairs.
Easy to find.
Prking your motobike under the mango tree,going inside small iron door n little river","Nice waterfall, without fee,the track is totaly lost. It's realy dangerous going down but if you like dificulty as me try it",Have to find the barrier on the concrete that's the entrance to the waterfall. No signs also no entrance feeüòâ. Concrete stairs to the waterfall in good condition. Waterfall size depends on the recent rainfall.,"I wouldn't recommend this waterfall, because the trail is dangerous and still abandoned, its very narrow and slippery. If you dont have the necessary hiking gear dont try this at all."
ChIJpUg0FD6R0S0R4E_8dtxTtbk,Green Kubu,-8.158898,115.11545119999998,"R4R8+F9, Sukasada, Buleleng Regency, Bali 81161, Indonesia",https://maps.google.com/?cid=13381694074155454432,OPERATIONAL,,park,park,5,2,,,,,,
ChIJC7Ec45yR0S0RfGbfHHouUqA,Bali 528,-8.1608482,115.11527029999998,"R4Q8+M46, Jl. Raya Singaraja-Bedugul, Sukasada, Kec. Sukasada, Kabupaten Buleleng, Bali 81161, Indonesia",https://maps.google.com/?cid=11552347096164034172,OPERATIONAL,+62 878-5185-8151,restaurant,"restaurant, food",,,,,,,,
ChIJ8TrPF_qR0S0RH1Pa8TmS8xM,Angkringan Diwangan,-8.1600284,115.114526,"R4Q7+XRJ, Jalan Raya, Sukasada, Kec. Sukasada, Kabupaten Buleleng, Bali 81161, Indonesia",https://maps.google.com/?cid=1437653483629728543,OPERATIONAL,+62 821-4600-0138,cafe,"cafe, food",4.8,6,,Nice place and nice food,,,,
ChIJix5CpSCR0S0Ru6mnG8zjUKQ,kubune mang putra,-8.1577504,115.11827050000001,"R4R9+W8F, Padangbulia, Sukasada, Buleleng Regency, Bali 81161, Indonesia",https://maps.google.com/?cid=11840213886133840315,OPERATIONAL,,hiking_area,"hiking_area, park",5,1,,,,,,
ChIJ6zSHxv6R0S0RF9xCUaWu5XQ,Bali 527,-8.1594913,115.11431229999998,"Unnamed Road, R4R7+6P3, Sukasada, Buleleng, Buleleng Regency, Bali 81161, Indonesia",https://maps.google.com/?cid=8423330703122553879,OPERATIONAL,+62 812-3627-8007,restaurant,"restaurant, food",,,,,,,,
ChIJJZZD7RaQ0S0RroCQ2PDL1Zk,Warung Ibu Kadek Suci,-8.1592286,115.11394379999999,"Unnamed Road, 81161,, Sukasada, Kec. Sukasada, Kabupaten Buleleng, Bali 81161, Indonesia",https://maps.google.com/?cid=11084990293128282286,OPERATIONAL,,restaurant,"restaurant, food",4.6,5,,,,,,
ChIJCVxJDACR0S0RGQ2NcQ8hURw,Ketut Madeaka,-8.1609866,115.12029020000001,"R4QC+J43, Padangbulia, Sukasada, Buleleng Regency, Bali 81161, Indonesia",https://maps.google.com/?cid=2040448456388840729,OPERATIONAL,,meal_takeaway,"meal_takeaway, restaurant, food",,,,,,,,
ChIJ2SIz2EqR0S0RcWegs74Dt5k,Umah the jamu,-8.1593179,115.114277,"Jl.Singaraja - Bedugul, Sukasada, Kec. Buleleng, Singaraja, Bali 81161, Indonesia",https://maps.google.com/?cid=11076325926133327729,CLOSED_TEMPORARILY,,cafe,"cafe, food",,,,,,,,
ChIJGSTNkxaQ0S0RNqFAAg6qYEA,Warung Pinang,-8.1588458,115.11385039999999,"Sukasada, Buleleng Regency, Bali, Indonesia",https://maps.google.com/?cid=4638894593335664950,OPERATIONAL,,restaurant,"restaurant, food",,,,,,,,
ChIJDf38nT6Q0S0RweFWC73OvbI,WARUNG SEMBILAN,-8.1573131,115.1218385,"Padangbulia, Sukasada, Buleleng Regency, Bali, Indonesia",https://maps.google.com/?cid=12879677820683870657,OPERATIONAL,,restaurant,"restaurant, food",,,,,,,,
