id,name,latitude,longitude,address,url,status,phone,primary-type,types,rating,rating-count,price-level,review 1,review 2,review 3,review 4,review 5
ChIJE19-CCY60i0R9INhU7zcb4U,Warung Lalapan Zaskia,-8.570253,115.12886730000001,"C4HH+VGX, Jl. Terunajaya, Kediri, Kec. Kediri, Kabupaten Tabanan, Bali 82121, Indonesia",https://maps.google.com/?cid=9615146430870160372,OPERATIONAL,+62 812-3844-4997,indonesian_restaurant,"indonesian_restaurant, restaurant, food",,,,,,,,
ChIJyQu445470i0R6p4sYZQ68Ac,Jayakos,-8.569241,115.13118200000001,"Jl. Terunajaya No.36, Kediri, Kec. Kediri, Kabupaten Tabanan, Bali 82121, Indonesia",https://maps.google.com/?cid=572021561635938026,OPERATIONAL,+62 878-6016-2154,private_guest_room,"private_guest_room, lodging",5,4,,"Been staying here for the last 30days+. I really like the neighborhood, reasonable price for rent, facilities, near to the food place, it's quiet, but it's freaking hot huft.

#thxanimang",My second home,,,
ChIJNfbPCCY60i0R1owGQSIRwOE,Warung Berkah Muslim Jawa Timur,-8.5703534,115.1287243,"C4HH+VF5, Jl. Terunajaya, Kediri, Kec. Kediri, Kabupaten Tabanan, Bali 82121, Indonesia",https://maps.google.com/?cid=16267020692879740118,OPERATIONAL,,restaurant,"restaurant, food",5,1,,,,,,
ChIJZWZsIoA70i0R64Dttz836LI,Ajunk's house,-8.570266799999999,115.1282886,"C4HH+V8V, Jl. Terunajaya, Kediri, Kec. Kediri, Kabupaten Tabanan, Bali 82121, Indonesia",https://maps.google.com/?cid=12891614680156307691,OPERATIONAL,,hostel,"hostel, lodging",,,,,,,,
ChIJH70IRS860i0RjCH02Bi14UE,Wr. Banyuwangi,-8.5692101,115.1305086,"C4JJ+866, Jl. Terunajaya, Kediri, Kec. Kediri, Kabupaten Tabanan, Bali 82121, Indonesia",https://maps.google.com/?cid=4747274600548934028,OPERATIONAL,,restaurant,"restaurant, food",,,,,,,,
ChIJWw1eBnc70i0Rqg5jI3Iws2g,District kediri,-8.5687888,115.13153810000001,"Jl. Terunajaya No.30, Kediri, Kec. Kediri, Kabupaten Tabanan, Bali 82121, Indonesia",https://maps.google.com/?cid=7544427067553812138,OPERATIONAL,,bar,bar,5,4,,,,,,
ChIJURXjqpI70i0Rb2DWfvnR15w,Warung Andeci Es Kelapa Muda,-8.5687689,115.13152970000002,"Jl. Terunajaya No.30, Kediri, Kec. Kediri, Kabupaten Tabanan, Bali 82121, Indonesia",https://maps.google.com/?cid=11301732659414589551,CLOSED_TEMPORARILY,,cafe,"cafe, food",,,,,,,,
ChIJgXbwEc470i0RbtJCCWlUJJM,WR. Malang Sari Rasa,-8.5687631,115.13167220000001,"C4JJ+FMV, Kediri, Tabanan Regency, Bali 82121, Indonesia",https://maps.google.com/?cid=10602692232840663662,OPERATIONAL,+62 821-4524-3861,indonesian_restaurant,"indonesian_restaurant, restaurant, food",,,,,,,,
ChIJi0_YGS860i0RppcsoaiAnJU,Ayam Geprek & Dimsum Tabanan,-8.5684063,115.13187429999999,"C4JJ+JPQ, Jl. Terunajaya, Kediri, Kec. Kediri, Kabupaten Tabanan, Bali 82121, Indonesia",https://maps.google.com/?cid=10780633069765040038,CLOSED_TEMPORARILY,,restaurant,"restaurant, food",,,,,,,,
