id,name,latitude,longitude,address,url,status,phone,primary-type,types,rating,rating-count,price-level,review 1,review 2,review 3,review 4,review 5
ChIJL53uotM_0i0R7OCr38Wbx-8,perumahan puri permata sading no. A/02,-8.5934914,115.1941312,"C54V+JM2, Jl. Raya Sading, Sempidi, Kec. Mengwi, Kabupaten Badung, Bali 80351, Indonesia",https://maps.google.com/?cid=17277949769593643244,OPERATIONAL,+62 813-3831-8323,lodging,lodging,4.2,5,,,,,,
ChIJM4c2k1U_0i0R0JWE6AwCK0k,GRACIELLATOUR and TRAVEL,-8.590811799999999,115.20037959999999,"Perum Jl. Dewata Permai No.22 blok A3, Sading, Kec. Mengwi, Kabupaten Badung, Bali 80352, Indonesia",https://maps.google.com/?cid=5272310043231163856,OPERATIONAL,+62 821-4642-3543,tourist_attraction,tourist_attraction,,,,,,,,
ChIJL6Hh5bc-0i0RyTt_JNMwhbw,Warung Lalapan Ayam Bakar cak sarep,-8.5899,115.19967199999998,"Jl. Raya Sading, Sading, Mengwi, Kabupaten Badung, Bali 80352, Sading, Kec. Mengwi, Kabupaten Badung, Bali 80361, Indonesia",https://maps.google.com/?cid=13584317534441520073,OPERATIONAL,+62 822-3636-2698,restaurant,"indonesian_restaurant, restaurant, food",4.3,6,,,,,,
ChIJQ511jbc-0i0RUQAPuQLmi_0,WARUNG RASVIN SPESIAL NASI KUNING,-8.5890228,115.2001305,"C662+93R, Jalan, Sading, Kec. Mengwi, Kabupaten Badung, Bali 80352, Indonesia",https://maps.google.com/?cid=18269949212727640145,OPERATIONAL,+62 812-3848-2944,restaurant,"restaurant, food",4,1,,,,,,
ChIJ3-RYzHw_0i0Rdh5e2cVTKkM,CARAMELLO SADING,-8.5902393,115.199534,"C55X+WR3, Jl. Raya Sading, Sading, Kec. Mengwi, Kabupaten Badung, Bali 80352, Indonesia",https://maps.google.com/?cid=4839772858783506038,OPERATIONAL,,cafe,"cafe, food",4.8,4,,,,,,
ChIJAxkuZsg-0i0RO2bvH5AV3-8,Warung Santai,-8.5924654,115.19944369999997,"Gg. Belibis No.9, Sading, Kec. Mengwi, Kabupaten Badung, Bali 80352, Indonesia",https://maps.google.com/?cid=17284557603626509883,OPERATIONAL,+62 812-3668-869,cafe,"cafe, food",4.3,9,,,,,,
ChIJpx1inS8_0i0RISrRDT0sVsQ,Warung Nasi Bu Yoga Bumbu Nyangluh,-8.5887386,115.20022469999999,"Jl. Sading-Badung No.168, Sading, Kec. Mengwi, Kabupaten Badung, Bali 80352, Indonesia",https://maps.google.com/?cid=14147543920167430689,OPERATIONAL,+62 877-6325-5661,indonesian_restaurant,"indonesian_restaurant, restaurant, food",5,2,,Good taste and delicious,,,,
ChIJiWDy6wg_0i0RM6fAHeLXxxw,Jho coffee,-8.5917321,115.19925990000002,"Jl. Raya Sading No.134a, Sading, Kec. Mengwi, Kabupaten Badung, Bali 80352, Indonesia",https://maps.google.com/?cid=2073863519589148467,OPERATIONAL,+62 813-3713-2835,coffee_shop,"coffee_shop, cafe, food, store",,,,,,,,
ChIJjeK-MqM_0i0R2QjsNSxsf6Y,Warung Makan Cempaka,-8.5925032,115.19898180000001,"Jl. Raya Sading No.124, Sading, Kec. Mengwi, Kabupaten Badung, Bali 80352, Indonesia",https://maps.google.com/?cid=11997426869477312729,OPERATIONAL,+62 818-0560-4934,restaurant,"restaurant, food",5,7,,,,,,
ChIJ1xVt3QM_0i0R-Epw6dGtcDs,WARUNG BU ANDY,-8.5913337,115.19936009999999,"Jl. Raya Sading No.140, Sading, Kec. Mengwi, Kabupaten Badung, Bali 80352, Indonesia",https://maps.google.com/?cid=4283114362705562360,OPERATIONAL,+62 818-0532-1145,indonesian_restaurant,"indonesian_restaurant, restaurant, food",4.3,8,,,,,,
ChIJ5-OVcz0_0i0RfTXjSq-YWYU,Batan Jepun,-8.591099,115.1995314,"Jl. Raya Sading No.142, Sading, Kec. Mengwi, Kabupaten Badung, Bali 80352, Indonesia",https://maps.google.com/?cid=9608879158614766973,OPERATIONAL,,park,park,,,,,,,,
ChIJNSuV0vM_0i0RpllrZEa2e3k,paonmaknyinyir,-8.5933967,115.19395569999999,"C54V+JHW, Sading, Mengwi, Badung Regency, Bali 80351, Indonesia",https://maps.google.com/?cid=8753790714173413798,OPERATIONAL,+62 813-5776-4219,restaurant,"restaurant, food",,,,,,,,
ChIJi0CNz7Y-0i0RcDIPzByzxsI,Warung Bu Dani,-8.5861647,115.19698189999998,"C57W+GQQ, Jl. Raya Darmasaba, Lukluk, Kec. Mengwi, Kabupaten Badung, Bali 80351, Indonesia",https://maps.google.com/?cid=14035102225010733680,CLOSED_TEMPORARILY,+62 818-0551-6659,indonesian_restaurant,"indonesian_restaurant, restaurant, food",,,,,,,,
ChIJMVFQGwA_0i0RVDIygcYcq5o,Ubud kec gianyar bali,-8.5872634,115.19458409999999,"C57V+3RW, Mengwi, Badung Regency, Bali, Indonesia",https://maps.google.com/?cid=11145033341755077204,OPERATIONAL,+62 878-3888-0109,tourist_attraction,tourist_attraction,,,,,,,,
ChIJMwPTFnU_0i0R0QzFOoJuyTk,Ayam Penyet Arema Malang,-8.5939429,115.19583109999999,"C54W+C8G, Sading, Mengwi, Badung Regency, Bali 80351, Indonesia",https://maps.google.com/?cid=4163980836091530449,CLOSED_TEMPORARILY,,indonesian_restaurant,"indonesian_restaurant, restaurant, food",5,1,,Good,,,,
ChIJ7Ws8QAA_0i0RC8OnSdIrC7I,Gokong famous,-8.5910526,115.19960580000001,"Jl. Raya Sading No.142, Sading, Kec. Mengwi, Kabupaten Badung, Bali 80352, Indonesia",https://maps.google.com/?cid=12829396145673847563,OPERATIONAL,,park,park,,,,,,,,
ChIJo41dcvs_0i0RtnxpVnfS0JA,warung makan Sambal GAMI,-8.5929972,115.1986723,"Jl. Raya Sading No.131, Sading, Kec. Mengwi, Kabupaten Badung, Bali 80352, Indonesia",https://maps.google.com/?cid=10435071746610134198,CLOSED_TEMPORARILY,,bar,bar,,,,,,,,
ChIJpdFwyM8_0i0RLF0PeBh3x4k,rumah Om Lolstayot,-8.5892011,115.20030070000001,"C662+847, Gg. Merpati, Sading, Kec. Mengwi, Kabupaten Badung, Bali 80352, Indonesia",https://maps.google.com/?cid=9928034850538741036,OPERATIONAL,,private_guest_room,"private_guest_room, lodging",,,,,,,,
ChIJj2DuuOU_0i0RhDIS5manZc8,Warung MEN EKA,-8.5887386,115.20022469999999,"Jl. Sading-Badung No.168, Sading, Kec. Mengwi, Kabupaten Badung, Bali 80352, Indonesia",https://maps.google.com/?cid=14944534998887314052,OPERATIONAL,+62 857-9213-1316,restaurant,"restaurant, food",5,1,,,,,,
