id,name,latitude,longitude,address,url,status,phone,primary-type,types,rating,rating-count,price-level,review 1,review 2,review 3,review 4,review 5
ChIJBd0U3e0x0i0RQbygy6yOJVM,Warung Jawa,-8.5179447,115.0125965,"Antap, Selemadeg, Tabanan Regency, Bali, Indonesia",https://maps.google.com/?cid=5991351752088140865,OPERATIONAL,,indonesian_restaurant,"indonesian_restaurant, restaurant, food",4.8,8,,cheap and higyenes,Ok,,,
ChIJNUTjJpAx0i0Rkk1hClz6YxA,Warung Soka Sari,-8.5228834,115.00904129999999,"Jalan Denpasar - Gilimanuk , Banjar Soka Kaja, Desa Antap, Kecamatan, Selemadeg, Antap, Kec. Selemadeg, Kabupaten Tabanan, Bali 82162, Indonesia",https://maps.google.com/?cid=1181062800519286162,OPERATIONAL,+62 831-1408-7161,restaurant,"restaurant, food",4,10,,"Basic, but delicious food, friendly dog and cat, great views and a nice little place to stop on a long journey.",,,,
ChIJv9bJku0x0i0RUuWEtEIJb-M,Warung Barokah,-8.518759,115.01181349999997,"F2J6+FPW, Antap, Selemadeg, Tabanan Regency, Bali 82162, Indonesia",https://maps.google.com/?cid=16388327751125624146,OPERATIONAL,,indonesian_restaurant,"indonesian_restaurant, restaurant, food",3.8,31,,"This place is so weird. Small, hot, no parking area, and sometimes crowded. But I always comparing other chicken satays with theirs. If you want chicken satay, this is the place. Period.",Ok...,Nice,Like,
ChIJN44Nsx4x0i0RbYgnpt6f08A,Kubu N.A.P rahayu,-8.520891599999999,115.0134297,"Perumahan Nadi, Jl. Serma Watra blok III No.52, Antap, Kec. Selemadeg, Kabupaten Tabanan, Bali 82162, Indonesia",https://maps.google.com/?cid=13894625053987276909,CLOSED_TEMPORARILY,+62 896-1449-0834,,lodging,,,,,,,,
ChIJTzm-gJ4x0i0RMUT2kGW34AU,Warung Jawa jember Mbak citra,-8.5179384,115.01253880000002,"F2J7+R2F, Antap, Selemadeg, Tabanan Regency, Bali, Indonesia",https://maps.google.com/?cid=423540011824464945,OPERATIONAL,,brunch_restaurant,"brunch_restaurant, restaurant, food",5,1,,,,,,
ChIJ9beEJo0x0i0RQGWUN3lJQ0w,Warung Bu Ayu,-8.5235943,115.00839760000001,"Antap, Selemadeg, Tabanan Regency, Bali, Indonesia",https://maps.google.com/?cid=5495316755294479680,OPERATIONAL,,restaurant,"restaurant, food",,,,,,,,
ChIJiTq7eisx0i0Rdlhk6C12Clw,Warung Wayan,-8.5235641,115.0083885,"Jalan Raya Denpasar - Gilimanuk Antap Selemadeg Kabupaten, F2G5+H9C, Antap, Kec. Selemadeg, Kabupaten Tabanan, Bali 82162, Indonesia",https://maps.google.com/?cid=6632243340800972918,OPERATIONAL,+62 877-6176-3159,restaurant,"restaurant, food",,,,,,,,
