id,name,latitude,longitude,address,url,status,phone,primary-type,types,rating,rating-count,price-level,review 1,review 2,review 3,review 4,review 5
ChIJJ9OmuOrX0y0ROEASV_ZLRcg,"Warung Makan Jabal Nur, Wi-Fi Hotspot & Seluler",-8.405295299999999,114.79570779999999,"Jl. Raya Denpasar - Gilimanuk No.KM.74, Yeh Sumbul, Kec. Mendoyo, Kabupaten Jembrana, Bali 82261, Indonesia",https://maps.google.com/?cid=14431024102373474360,OPERATIONAL,+62 859-5385-1048,indonesian_restaurant,"indonesian_restaurant, restaurant, food",5,29,,"A very friendly Owner and the food is great. Came back multiple times during our stay and highly recommend the Lalapan Ayam.
Shukran, Terimakasih and Thank you again :)",delicious bakso!! very friendly staff :) 11/10 we will be back xoxo,Great bakso and amazing service! Such a friendly familyüòÅ,Very nice food and very kind people.,Nice food affordable price. Love it!
ChIJI_OmFVTX0y0RKY2bC4UMwUo,Warung makan soto ayam,-8.4055841,114.79588790000001,"HQVW+Q8H, Yeh Sumbul, Mendoyo, Jembrana Regency, Bali, Indonesia",https://maps.google.com/?cid=5386600394876751145,OPERATIONAL,+62 878-6154-7451,brunch_restaurant,"brunch_restaurant, restaurant, food",,,,,,,,
ChIJE-vwVNbX0y0R-QK0-eZKe9c,BAKSO MUSLIM CAK DAYAT,-8.403018200000002,114.79316699999998,"HQWV+Q7V, Jl. Raya Denpasar - Gilimanuk, Yeh Sumbul, Kec. Mendoyo, Kabupaten Jembrana, Bali 82261, Indonesia",https://maps.google.com/?cid=15527086496182174457,OPERATIONAL,+62 818-0533-1267,indonesian_restaurant,"breakfast_restaurant, brunch_restaurant, indonesian_restaurant, restaurant, food",4.4,7,,,,,,
ChIJt1tCrI_W0y0R-lTynSZDfks,Warung Bakso Mie Sumiati,-8.403706399999999,114.79466919999999,"Yeh Sumbul, Mendoyo, Jembrana Regency, Bali, Indonesia",https://maps.google.com/?cid=5439859233047860474,OPERATIONAL,,indonesian_restaurant,"indonesian_restaurant, restaurant, food",3.5,2,,,,,,
ChIJo8JcrI_W0y0RHaMWjNxFh5w,Warung Muslim Ibu Sumiati,-8.4036746,114.79471129999997,"HQWV+GVP, Jl. Raya Denpasar - Gilimanuk, Yeh Sumbul, Kec. Mendoyo, Kabupaten Jembrana, Bali 82261, Indonesia",https://maps.google.com/?cid=11279060605318112029,OPERATIONAL,+62 819-3629-9892,restaurant,"restaurant, food",4.3,3,,,,,,
ChIJM1oJXcVh0S0Rll14auy8-TU,Dev‚Äôs House,-8.4030468,114.79365689999999,"Jl. Raya Denpasar - Gilimanuk, Yeh Sumbul, Kec. Mendoyo, Kabupaten Jembrana, Bali 80112, Indonesia",https://maps.google.com/?cid=3889347476795710870,OPERATIONAL,+62 819-3618-3503,hotel,"hotel, lodging",,,,,,,,
ChIJZarQd0fX0y0Rmjjh5ausa4w,warung bu Eliyani,-8.4050926,114.79508659999998,"barat, Yeh Sumbul, Kec. Mendoyo, Kabupaten Jembrana, Bali 82262, Indonesia",https://maps.google.com/?cid=10118370842114078874,OPERATIONAL,,indonesian_restaurant,"indonesian_restaurant, restaurant, food",2,1,,,,,,
ChIJiWj-24_W0y0RnSGSHIfB6Og,Warung Bakso Muslim Ibu Badriah,-8.405574699999999,114.79554590000001,"Jl. Raya Denpasar - Gilimanuk No.Km. 74, Yeh Sumbul, Kec. Mendoyo, Kabupaten Jembrana, Bali, Indonesia",https://maps.google.com/?cid=16782876797440237981,OPERATIONAL,+62 821-4787-3570,indonesian_restaurant,"indonesian_restaurant, restaurant, food",4.1,30,,,,,,
ChIJT0gx3o_W0y0Rl4jEz9WE3ZU,Warung Muslim Bu Jumnah,-8.4055562,114.7958472,"HQVW+Q8H, Yeh Sumbul, Mendoyo, Jembrana Regency, Bali, Indonesia",https://maps.google.com/?cid=10798933535352981655,OPERATIONAL,,restaurant,"restaurant, food",,,,,,,,
ChIJs6YTguLX0y0RW2FokMdfi2U,Vira tanaman hias bali,-8.4024935,114.79220529999999,"DS. Yehsumbul rt.4 jl. Bahari kec. Mendoyo, arah pantai, Negara, Kabupaten Jembrana, Bali 82261, Indonesia",https://maps.google.com/?cid=7317047330319393115,OPERATIONAL,+62 878-6563-7202,park,park,5,3,,,,,,
ChIJE8PEyKLX0y0RP58AHmOGvn4,Rumah Ali,-8.402194399999999,114.79222089999999,"HQXR+4VH, Yeh Sumbul, Mendoyo, Jembrana Regency, Bali 82261, Indonesia",https://maps.google.com/?cid=9132884854617186111,OPERATIONAL,,hotel,"hotel, lodging",,,,,,,,
ChIJl2-S-pfX0y0RPCS5_znFXVM,Perumahan Pesona Yeh Sumbul,-8.405706799999999,114.79543269999999,"HQVW+P57, Yeh Sumbul, Mendoyo, Jembrana Regency, Bali, Indonesia",https://maps.google.com/?cid=6007174330876240956,OPERATIONAL,+62 823-4222-0666,lodging,lodging,,,,,,,,
ChIJ-8e4HpDW0y0RKyuFK4WzI5I,BAKSO KEISIA,-8.4059741,114.7961985,"Yeh Sumbul, Mendoyo, Jembrana Regency, Bali, Indonesia",https://maps.google.com/?cid=10530457738264521515,OPERATIONAL,,restaurant,"restaurant, food",,,,,,,,
