id,name,latitude,longitude,address,url,status,phone,primary-type,types,rating,rating-count,price-level,review 1,review 2,review 3,review 4,review 5
ChIJqf4FArkb0i0RzgjznBaOl78,Warung Sakha,-8.4151829,115.4691453,"Br ancut, Sebudi, Selat, Karangasem Regency, Bali 80862, Indonesia",https://maps.google.com/?cid=13805659410501142734,OPERATIONAL,+62 857-3889-5155,restaurant,"restaurant, food",5,1,,,,,,
ChIJo_5KTmQb0i0RJWdkFQ9MJdM,PeGunungAn Bali,-8.4156525,115.4667844,"Jl. Gn. Agung, Dusun Ancut, Desa, Sebudi, Kec. Selat, Kabupaten Karangasem, Bali 80862, Indonesia",https://maps.google.com/?cid=15214650543808210725,OPERATIONAL,+62 852-0533-0077,,lodging,4,3,,I like alot. Good good,,,,
ChIJRTfDUjUb0i0RjqXkcdQlAhE,Kios Agus Dika,-8.418303,115.46751270000001,"Desa, Br. dinea Ancut, Sebudi, Kec. Selat, Kabupaten Karangasem, Bali 80862, Indonesia",https://maps.google.com/?cid=1225583642972300686,OPERATIONAL,+62 852-0550-6139,restaurant,"restaurant, food",1,1,,,,,,
ChIJ8ZSZDLIb0i0RIujx9sUKzQs,I Dewa Gede Ariawan,-8.4176114,115.4715962,"HFJC+XJ5, Unnamed Road, Sebudi, Kec. Selat, Kabupaten Karangasem, Bali 80862, Indonesia",https://maps.google.com/?cid=850347750010775586,OPERATIONAL,,lodging,lodging,5,1,,,,,,
ChIJ1y4tRbob0i0RyOGuz6pRF9c,Warung dek nila,-8.418934499999999,115.4684378,"HFJ9+C9G, Amerta Bhuana, Selat, Karangasem Regency, Bali 80862, Indonesia",https://maps.google.com/?cid=15498946436689486280,CLOSED_TEMPORARILY,,coffee_shop,"coffee_shop, cafe, store, food",,,,,,,,
ChIJc-jEJCcb0i0R1u4UEZRtEmE,Rumah dewa ajuz,-8.4177394,115.47092070000001,"HFJC+XJ5, Sebudi, Selat, Karangasem Regency, Bali 80862, Indonesia",https://maps.google.com/?cid=6994773653968973526,OPERATIONAL,,bed_and_breakfast,"bed_and_breakfast, lodging",,,,,,,,
ChIJd19iQAEb0i0Rf0qMxuxV48w,KUPS Trigona Honey Bee Bali,-8.41591,115.46687089999999,"HFM8+JPQ Banjar dinas Ancut, Sebudi, Kec. Selat, Kabupaten Karangasem, Bali, Indonesia",https://maps.google.com/?cid=14763738478882343551,CLOSED_TEMPORARILY,,tourist_attraction,tourist_attraction,,,,,,,,
ChIJtxBvgOwb0i0R7QYdawXP1Qw,Rumah I Dewa Gede Yogi,-8.4176104,115.4707057,"HFJC+X74, Sebudi, Selat, Karangasem Regency, Bali, Indonesia",https://maps.google.com/?cid=924872920673355501,OPERATIONAL,,private_guest_room,"private_guest_room, lodging",,,,,,,,
