id,name,latitude,longitude,address,url,status,phone,primary-type,types,rating,rating-count,price-level,review 1,review 2,review 3,review 4,review 5
ChIJtT-791sV0i0R11LkSj_pgOU,Babi Guling Bu Agung Khas Bangli,-8.5623953,115.3634694,"Tulikup, Gianyar, Gianyar Regency, Bali 80515, Indonesia",https://maps.google.com/?cid=16537474289753150167,OPERATIONAL,+62 859-3473-5319,indonesian_restaurant,"indonesian_restaurant, restaurant, food",5,2,,,,,,
ChIJi91hQxwU0i0Ry5vp7nRepGg,"Pondok Sari Rasa ""Jair Bali""",-8.5622521,115.36270699999999,"Jalan Raya Sidan Siyut, C9Q7+33W, Tulikup, Kec. Gianyar, Kabupaten Gianyar, Bali 80515, Indonesia",https://maps.google.com/?cid=7540255532442557387,OPERATIONAL,+62 812-3797-3572,restaurant,"restaurant, food",4.8,29,,Delicious authentic balinese food overlooking the rice paddys. We had fish goreng grown on site with sambel abd it was unbelievable.,"Great local food, with an awesome view of the rice fields, served with a smile ðŸ™‚ Would definitely recommend",Good food good price,,
ChIJT0rJUBsU0i0RIzv0ewV98nk,Warung Bu Cik,-8.563704099999999,115.3659768,"C9P8+G99, Banjar Siyut, Tulikup, Kec. Gianyar, Kabupaten Gianyar, Bali 80551, Indonesia",https://maps.google.com/?cid=8787223285461170979,OPERATIONAL,+62 852-0531-0180,restaurant,"restaurant, food",4,1,,,,,,
ChIJ7wDiMosV0i0RRkjnpkh04_E,Kubu Kaki Cuk,-8.5642896,115.3661188,"C9P8+7CQ, Banjar Siyut, Tulikup, Kec. Gianyar, Kabupaten Gianyar, Bali 80515, Indonesia",https://maps.google.com/?cid=17429902838240593990,OPERATIONAL,,park,park,5,1,,,,,,
ChIJhQsZXBwU0i0RMMhOvO_zag8,Warung Arta Sariasih,-8.5624364,115.36335249999999,"C9Q7+28H, Banjar Siyut, Tulikup, Kec. Gianyar, Kabupaten Gianyar, Bali 80515, Indonesia",https://maps.google.com/?cid=1110968469082261552,OPERATIONAL,,restaurant,"restaurant, food",5,1,,,,,,
ChIJoz40KwUU0i0R8s0CDp2pBes,WARUNG JERO SUWAT,-8.5664134,115.366704,"C9M8+CMP, Banjar Siyut, Tulikup, Kec. Gianyar, Kabupaten Gianyar, Bali 80515, Indonesia",https://maps.google.com/?cid=16935128465806642674,CLOSED_TEMPORARILY,,restaurant,"restaurant, food",,,,,,,,
ChIJ9xEnyOUV0i0R77Ob4mzKtlY,Warung Kita,-8.5658434,115.36746930000001,"C9M8+MX9, Banjar Siyut, Tulikup, Kec. Gianyar, Kabupaten Gianyar, Bali 80515, Indonesia",https://maps.google.com/?cid=6248404102030275567,OPERATIONAL,,coffee_shop,"coffee_shop, cafe, store, food",5,1,,,,,,
ChIJuU6qMxsU0i0RB9wIrikQ3n8,WARUNG BU GUSTI,-8.5653879,115.36652289999999,"C9M8+RJR, Banjar Siyut, Tulikup, Kec. Gianyar, Kabupaten Gianyar, Bali 80515, Indonesia",https://maps.google.com/?cid=9213819658846133255,OPERATIONAL,,restaurant,"restaurant, food",,,,,,,,
ChIJdeHcRawV0i0Rw2FHfNkAzHg,BLISS by Tuting,-8.5637661,115.36334889999999,"Gang maha siyut, Tulikup, Kec. Gianyar, Kabupaten Gianyar, Bali 80511, Indonesia",https://maps.google.com/?cid=8704333113893282243,CLOSED_TEMPORARILY,+62 813-4378-2330,private_guest_room,"private_guest_room, lodging",,,,,,,,
ChIJT-86PgAV0i0RaXda6AQrVhw,Pak Made kos,-8.564400299999999,115.3662753,"C9P8+6GM, Banjar Siyut, Tulikup, Kec. Gianyar, Kabupaten Gianyar, Bali 80515, Indonesia",https://maps.google.com/?cid=2041866781137205097,OPERATIONAL,,bed_and_breakfast,"bed_and_breakfast, lodging",,,,,,,,
ChIJEc0SAwAV0i0RlPxo7tN2TXw,Siyut,-8.5679783,115.3611391,"C9J6+RF2, Tulikup, Gianyar, Gianyar Regency, Bali 80515, Indonesia",https://maps.google.com/?cid=8956945886519819412,OPERATIONAL,,park,park,,,,,,,,
ChIJa6FL4W0V0i0RP1cxjhpJ3lI,PT suber alfaria trijaya,-8.5632241,115.3659105,"C9P8+P97, Banjar Siyut, Tulikup, Kec. Gianyar, Kabupaten Gianyar, Bali 80515, Indonesia",https://maps.google.com/?cid=5971290534343431999,OPERATIONAL,,motel,"motel, lodging",,,,,,,,
