id,name,latitude,longitude,address,url,status,phone,primary-type,types,rating,rating-count,price-level,review 1,review 2,review 3,review 4,review 5
ChIJBR8SGocG0i0RKeTTCutWKbo,Raja grya,-8.4213103,115.57603160000001,"Jalan raya Butus, Sebelah Timur Pura Taman Sari, Budakeling, Bebandem, Karangasem Sebelah timur pura Taman Sari, Budakeling, Karangasem, Bali, HHHG+FCF, Buana Giri, Amlapura, Kabupaten Karangasem, Bali 80871, Indonesia",https://maps.google.com/?cid=13414348532598694953,OPERATIONAL,+62 812-3620-1838,hotel,"hotel, lodging",5,5,,Warm heart to stay,"Comfortable, nice and friendly host.
You give a try... its worth.
And enjoy.",,,
ChIJCcL9CtgH0i0RZ1PE8kNCCIc,Warung mek mangku,-8.4203393,115.57572700000001,"Unnamed Road, HHHG+V79, Buana Giri, Kec. Bebandem, Kabupaten Karangasem, Bali 80852, Indonesia",https://maps.google.com/?cid=9730099854537151335,OPERATIONAL,,restaurant,"restaurant, food",5,1,,,,,,
ChIJCziZZF8H0i0RCgf5Z9Hf2qo,Warung komang wahyu,-8.4185865,115.576657,"HHJG+HM7, Unnamed Road, Buana Giri, Kec. Bebandem, Kabupaten Karangasem, Bali 80852, Indonesia",https://maps.google.com/?cid=12311398621856204554,OPERATIONAL,,indonesian_restaurant,"indonesian_restaurant, restaurant, food",,,,,,,,
ChIJk7Rtd48H0i0RfIRMAlKAF9w,Warung siobak mbok Chris,-8.421782499999999,115.5763327,"HHHG+7GP, Jl. Budakeling, Buana Giri, Kec. Bebandem, Kabupaten Karangasem, Bali 80852, Indonesia",https://maps.google.com/?cid=15859285702522733692,OPERATIONAL,+62 821-4472-6363,restaurant,"restaurant, food",,,,,,,,
ChIJ-WovuJkH0i0RnF-QdREnb6c,Ngurah Su,-8.4140256,115.5787127,"Br. Besang, HHPH+9FP, Ababi, Kec. Abang, Kabupaten Karangasem, Bali 80852, Indonesia",https://maps.google.com/?cid=12064904882689171356,OPERATIONAL,,hotel,"hotel, lodging",,,,,,,,
ChIJ498UDYcG0i0R5gxcQda11is,Griya Taman Sari,-8.4218262,115.5763458,"HHHG+7G9, Buana Giri, Bebandem, Karangasem Regency, Bali 80852, Indonesia",https://maps.google.com/?cid=3158912120471162086,OPERATIONAL,,cafe,"cafe, food",5,2,,,,,,
ChIJm_89DYcG0i0RgsafgC-sQFA,Warung Deck Taman,-8.4218137,115.57635119999998,"HHHG+7GH, Jl. Gn. Agung, Buana Giri, Kec. Bebandem, Kabupaten Karangasem, Bali 80852, Indonesia",https://maps.google.com/?cid=5782811241565111938,OPERATIONAL,+62 823-3970-7980,cafe,"cafe, food",5,1,,"Beautiful place,,,nature all around ‚ù§",,,,
