id,name,latitude,longitude,address,url,status,phone,primary-type,types,rating,rating-count,price-level,review 1,review 2,review 3,review 4,review 5
ChIJA3yf_koh0i0R031GdRo5K4w,Taman Sari Gading,-8.3881889,115.21091039999999,"Jl. Petang, Petang, Kec. Petang, Kabupaten Badung, Bali 82191, Indonesia",https://maps.google.com/?cid=10100229375107956179,OPERATIONAL,+62 821-4446-5544,tourist_attraction,tourist_attraction,4.9,11,,"Very natural, kampung village. Simlpy home in the village with large fish pond. Nila fish. Bring your bicycle here also be nice or your novel, or do drawing here.",Simply extraordinary land and family üôèüíõ And I highly recommend ordering the traditional Balinese style smoked fish!!!,"Mr Anthony and madam Audrey visiting Rumah Petuahlang
Thank you so much",,
ChIJ3Rca_2sh0i0RW01T83iLHV4,Home Base Pak Dek War,-8.381977599999999,115.2128765,"J697+652, Jl. Lipah, Petang, Kec. Petang, Kabupaten Badung, Bali 80353, Indonesia",https://maps.google.com/?cid=6781729965484494171,OPERATIONAL,+62 853-3934-2095,cafe,"cafe, food",,,,,,,,
ChIJS60JXhQh0i0Re6szqUM3pzE,Kerta Village Trekking Homestay,-8.3846708,115.21699740000001,"J688+4QQ, Petang, Badung Regency, Bali 80353, Indonesia",https://maps.google.com/?cid=3577889192710220667,OPERATIONAL,,cafe,"cafe, food",5,3,,Good place to know Balinese culture,,,,
ChIJB0g19Y8h0i0RHS8nhhdqzUw,Gusti Bali Tour,-8.385739,115.21686849999998,"J678+PP5, Petang, Badung Regency, Bali 80353, Indonesia",https://maps.google.com/?cid=5534196166375714589,OPERATIONAL,+62 858-4742-2647,,lodging,3.5,2,,,,,,
ChIJe0pTPAAh0i0RwsTRohtaG34,Jadis land,-8.3861057,115.20924299999999,"Br lipah, Petang, Kec. Petang, Kabupaten Badung, Bali, Indonesia",https://maps.google.com/?cid=9086955747892380866,OPERATIONAL,,park,park,,,,,,,,
