id,name,latitude,longitude,address,url,status,phone,primary-type,types,rating,rating-count,price-level,review 1,review 2,review 3,review 4,review 5
ChIJp98MXGIJ0i0RY9zFieBVtYE,Wba hill maie jani,-8.5053371,115.57837930000001,"Jalan raya candidasa, samuh kaja, Sengkidu, Kec. Manggis, Kabupaten Karangasem, Bali 80811, Indonesia",https://maps.google.com/?cid=9346471024549813347,OPERATIONAL,+62 813-3840-1625,,lodging,5,2,,"Great place to camp, beautiful landscape. Very nice and calm atmosphere.",,,,
ChIJQxViXtgI0i0Rm0VkHnByuLo,Bu Sumendri,-8.5017812,115.58260270000001,"FHXM+72Q, Jl. Raya Bugbug, Sengkidu, Kec. Manggis, Kabupaten Karangasem, Bali 80811, Indonesia",https://maps.google.com/?cid=13454629712641148315,OPERATIONAL,,restaurant,"restaurant, food",5,1,,,,,,
ChIJ99oYGwAJ0i0RYXaWE7GUiJg,Ani House,-8.507315199999999,115.5814394,"FHRJ+H9F, Sengkidu, Manggis, Karangasem Regency, Bali, Indonesia",https://maps.google.com/?cid=10991198378856445537,OPERATIONAL,,private_guest_room,"private_guest_room, lodging",,,,,,,,
ChIJL4P1jCcJ0i0RNWablGUkgtQ,Warung Rame Jaul Tuak,-8.503668,115.58156310000001,"FHWJ+GJP, Jl. Raya Bugbug, Sengkidu, Kec. Manggis, Kabupaten Karangasem, Bali 80811, Indonesia",https://maps.google.com/?cid=15312841701716616757,OPERATIONAL,,restaurant,"restaurant, food",,,,,,,,
ChIJm2jp-SsJ0i0RlMfaVxSXJjk,Warung Indah,-8.5047471,115.57933120000001,"FHWH+4P4, Jl. Raya Bugbug, Sengkidu, Kec. Manggis, Kabupaten Karangasem, Bali 80811, Indonesia",https://maps.google.com/?cid=4118145022905993108,OPERATIONAL,+62 877-6026-7936,restaurant,"restaurant, food",,,,,,,,
ChIJC6yD3jUJ0i0R0bX66d0nmro,Warung Jadul,-8.5047597,115.5797733,"Jl. Samuh Jl. Raya Bugbug, Sengkidu, Kec. Manggis, Kabupaten Karangasem, Bali 80851, Indonesia",https://maps.google.com/?cid=13446103471534814673,OPERATIONAL,+62 887-0300-5813,restaurant,"restaurant, food",,,,,,,,
ChIJRfSyaE0J0i0R3Mo7xJRXnLQ,karuwet homestay,-8.5027204,115.5781396,"FHWH+W76, Nyuh Tebel, Manggis, Karangasem Regency, Bali 80811, Indonesia",https://maps.google.com/?cid=13014373319652920028,OPERATIONAL,,private_guest_room,"private_guest_room, lodging",,,,,,,,
ChIJsbOnbucJ0i0RMhjdsSLTubE,Toto adventure bali,-8.5002322,115.5822525,"Jalan raya bugbug samuh, Sengkidu, Kec. Manggis, Kabupaten Karangasem, Bali 80811, Indonesia",https://maps.google.com/?cid=12806499161371121714,OPERATIONAL,+62 877-6031-4586,hotel,"hotel, lodging",,,,,,,,
