id,name,latitude,longitude,address,url,status,phone,primary-type,types,rating,rating-count,price-level,review 1,review 2,review 3,review 4,review 5
ChIJi4mtR98t0i0RMdBDwqc8J98,"Balai BanjarBr.Yeh Kayu, Ds.Mundeh",-8.456254999999999,114.9713354,"Unnamed Road, GXVC+FGW, Mundeh, Kec. Selemadeg Bar., Kabupaten Tabanan, Bali 82162, Indonesia",https://maps.google.com/?cid=16079887685766074417,OPERATIONAL,+62 857-2727-8945,lodging,lodging,5,4,,,,,,
ChIJ7d5vnEct0i0Rd_dVW1F7lfU,Pondok Bimbo,-8.4577996,114.97002989999999,"GXRC+V2J, Unnamed Road, Mundeh, Kec. Selemadeg Bar., Kabupaten Tabanan, Bali 82162, Indonesia",https://maps.google.com/?cid=17696185900177160055,OPERATIONAL,,bed_and_breakfast,"bed_and_breakfast, lodging",,,,,,,,
ChIJVcaR_oEt0i0RO7bXg9_kfBs,Pondok gus natha,-8.4577127,114.9702263,"GXRC+W39, Mundeh, Selemadeg Barat, Tabanan Regency, Bali 82162, Indonesia",https://maps.google.com/?cid=1980709584776967739,OPERATIONAL,,cottage,"cottage, lodging",,,,,,,,
ChIJOeYWijEt0i0RTEGNEBfnKb0,Pondok deksue,-8.457446899999999,114.9701978,"GXVC+23G, Jl. Yeh Kayu, Mundeh, Kec. Selemadeg Bar., Kabupaten Tabanan, Bali 82162, Indonesia",https://maps.google.com/?cid=13630679833461473612,OPERATIONAL,,private_guest_room,"private_guest_room, lodging",,,,,,,,
ChIJM4P3F3Qt0i0RzrT9JYnisno,Tude bolang,-8.4541369,114.97181320000001,"GXWC+8PW, Jl. Yeh Kayu, Mundeh, Kec. Selemadeg Bar., Kabupaten Tabanan, Bali 82162, Indonesia",https://maps.google.com/?cid=8841378097157485774,CLOSED_TEMPORARILY,,bar,bar,,,,,,,,
ChIJd_QPF6Mt0i0RuBCB7N_GpvU,Pondok Dewi,-8.458878499999999,114.97656439999999,"GXRG+CJW, Jl. Pancoran Yehsilah, Mundeh, Kec. Selemadeg Bar., Kabupaten Tabanan, Bali 82162, Indonesia",https://maps.google.com/?cid=17701054050474201272,OPERATIONAL,+62 857-3949-3500,cottage,"cottage, lodging",3,1,,,,,,
ChIJUctR6JIt0i0RcYC1LDqD2cA,Pondok Andi,-8.458666299999999,114.97656409999999,"Pancoran Kelod, GXRG+GJP, Mundeh, Kec. Selemadeg Bar., Kabupaten Tabanan, Bali 82162, Indonesia",https://maps.google.com/?cid=13896282411109810289,OPERATIONAL,,,lodging,5,1,,,,,,
ChIJl7eYRqQt0i0RKyZOOoZMyjA,Pondok alit,-8.4552148,114.9770389,"GXVG+WR6, Br pncoran kelod, Mundeh, Kec. Selemadeg Bar., Kabupaten Tabanan, Bali 82162, Indonesia",https://maps.google.com/?cid=3515706598503622187,OPERATIONAL,,,lodging,,,,,,,,
