id,name,latitude,longitude,address,url,status,phone,primary-type,types,rating,rating-count,price-level,review 1,review 2,review 3,review 4,review 5
ChIJ9TFR7KkH0i0RUiXSpjCa7Kc,Teras Bidadari Ground Camping,-8.4127157,115.6184332,"Jalan Teras Bidadari, Tiyingtali, Kec. Abang, Kabupaten Karangasem, Bali 80852, Indonesia",https://maps.google.com/?cid=12100215832585577810,OPERATIONAL,+62 812-4674-7107,private_guest_room,"private_guest_room, lodging",5,2,,,,,,
ChIJyZ8IrcoH0i0RYz6448ZBdKI,Warung Pondal,-8.4129775,115.6170526,"HJP8+RR3, Jl. Lettu Dugdugan, Karangasem, Kec. Abang, Kabupaten Karangasem, Bali, Indonesia",https://maps.google.com/?cid=11706053653922594403,OPERATIONAL,,bar,bar,5,2,,,,,,
ChIJKwec5FgH0i0RzKZbKxYifok,Three'Y Collection,-8.412664,115.6192059,"Unnamed Road, HJP9+WMP, Tiyingtali, Abang, Karangasem Regency, Bali 80852, Indonesia",https://maps.google.com/?cid=9907393708873721548,OPERATIONAL,,private_guest_room,"private_guest_room, lodging",5,1,,,,,,
ChIJ7yydnmIH0i0RmciLYxNkMlg,kadek cedok house,-8.4127157,115.6184332,"Tiyingtali, Abang, Karangasem Regency, Bali, Indonesia",https://maps.google.com/?cid=6355252058610452633,OPERATIONAL,+62 812-3884-4218,,"private_guest_room, lodging",,,,,,,,
ChIJz_r1NhYH0i0Rz3gJD4OhqhQ,Dits home stay,-8.4127157,115.6184332,"HJP9+W97, Tiyingtali, Abang, Karangasem Regency, Bali, Indonesia",https://maps.google.com/?cid=1489180211064436943,CLOSED_TEMPORARILY,,coffee_shop,"coffee_shop, cafe, store, food",,,,,,,,
ChIJi0OZYAIH0i0RYjpnsUMkyTI,Warung Makan Inddomie,-8.4130395,115.6169257,"HJP8+QQM, Jl. Lettu Dugdugan, Tiyingtali, Kec. Abang, Kabupaten Karangasem, Bali 80852, Indonesia",https://maps.google.com/?cid=3659496045372979810,OPERATIONAL,,restaurant,"restaurant, food",,,,,,,,
ChIJu6rCXdAH0i0RmsGgOwUmaQU,WMT,-8.413843,115.617093,"Tiyingtali, Abang, Karangasem Regency, Bali 80852, Indonesia",https://maps.google.com/?cid=389884646661341594,OPERATIONAL,,brunch_restaurant,"brunch_restaurant, restaurant, food",5,1,,,,,,
ChIJMer5EQAH0i0RjXQbHPIwmBU,Bakso Cegat De Sutawa,-8.407514299999999,115.621111,"HJRC+XFG, Tri Buana, Abang, Karangasem Regency, Bali 80852, Indonesia",https://maps.google.com/?cid=1556047487668286605,OPERATIONAL,+62 821-4557-4161,brunch_restaurant,"brunch_restaurant, restaurant, food",,,,,,,,
ChIJeydtJQAH0i0RbGrKHunDi0Q,Jumahhh,-8.4130659,115.61530300000001,"HJP8+Q4F, Tiyingtali, Abang, Karangasem Regency, Bali, Indonesia",https://maps.google.com/?cid=4939256822353259116,OPERATIONAL,,hostel,"hostel, lodging",,,,,,,,
