id,name,latitude,longitude,address,url,status,phone,primary-type,types,rating,rating-count,price-level,review 1,review 2,review 3,review 4,review 5
ChIJQzG9AI1D0i0RASmhQ8qCbMI,Ketut Joglo(GuestHouse),-8.802772,115.19056700000002,"55XR+37Q, Jl. Dukuh Sari IV, Benoa, Kec. Kuta Sel., Kabupaten Badung, Bali 80361, Indonesia",https://maps.google.com/?cid=14009716346072410369,OPERATIONAL,,guest_house,"guest_house, lodging",5,4,,We stayed in one of Ketuts houses for 5 weeks and it was really great. The house is modern and fresh. Ketut is very friendly and helpful. Its close to nice restaurants and Thomas beach. We also enjoyed the quiet area around the house. We would definately stay there again!,Quiet residential neighborhood with back roads to everywhere. Lovely neighbors and cozy place. Pak Ketut the landlord is helpful and hardworking and helps where he can!,,,
ChIJhTRiOlpD0i0RU7AHwsZqiic,My risoles,-8.8014612,115.19581690000001,"Jl. Kedaung No.54, Benoa, Kec. Kuta Sel., Kabupaten Badung, Bali 80361, Indonesia",https://maps.google.com/?cid=2849207116156612691,OPERATIONAL,,restaurant,"restaurant, food",4.6,19,PRICE_LEVEL_INEXPENSIVE,"Good taste.and cheap. Rp. 10.000,- for 3 pieces",The best place selling risoles.,Delicious local food üôã,Nice taste,
ChIJuZMP5fND0i0R2aEp6hjJikc,Opa‚Äôs Boarding House,-8.805022899999999,115.19218869999999,"Jl. Dukuh Sari II Kampial No.5, Nusa Dua, Kec. Kuta Sel., Kabupaten Badung, Bali 80361, Indonesia",https://maps.google.com/?cid=5155153832323949017,OPERATIONAL,+62 821-4690-0025,,lodging,4.7,12,,"Comfortable and nice view boarding house, can bring pets, worth it for Nusa Dua area, and also opa‚Äôs bording house has a humble owner.",Good üëç,Quiet,,
ChIJCd1U-2FD0i0RTvCq31OvG5k,Kost MAWAR Nusa Dua,-8.8044701,115.1923569,"Gg. Senetan, Benoa, Kec. Kuta Sel., Kabupaten Badung, Bali 80361, Indonesia",https://maps.google.com/?cid=11032604486943830094,OPERATIONAL,+62 813-3713-6224,,lodging,4.3,3,,,,,,
ChIJ22EgsupD0i0RPLlGUY7zNJA,'K' Salad,-8.802080499999999,115.19392160000001,"Jl. Perumahan Mutiara Village No.57, Benoa, Kec. Kuta Sel., Kabupaten Badung, Bali 80361, Indonesia",https://maps.google.com/?cid=10391198032825071932,OPERATIONAL,+62 821-5811-7500,vegetarian_restaurant,"vegetarian_restaurant, restaurant, food",4.3,6,,"The BEST homemade Yogurt IN TOWN .
All Ingredients are FRESH, the Fruits are the best .
And They had the BEST Chicken DimSum ShuMAY in town
And You can order thrugh GOJEK / GRAB apps if You love promo
GOOD JOB Keanu Salad üëçüèªüëçüèªüëçüèªüëçüèªüëçüèª",good salad n fresh...,,,
ChIJRRpWVBZD0i0Rg5RxG-SKfWA,ATAMA KOST,-8.805748999999999,115.19219400000001,"Jl. Dukuh Sari II No.36, Benoa, Kec. Kuta Sel., Kabupaten Badung, Bali 80361, Indonesia",https://maps.google.com/?cid=6952866112047518851,OPERATIONAL,+62 857-9275-4302,lodging,lodging,5,5,,,,,,
ChIJreF0r4lD0i0REFGKSMY94xU,Mutiara Kampial G2,-8.8009601,115.1948478,"Mutiara Kampial, Jl. Taman Giri No.G2, Benoa, Kec. Kuta Sel., Kabupaten Badung, Bali 80361, Indonesia",https://maps.google.com/?cid=1577172216339648784,OPERATIONAL,+62 813-5327-6595,,lodging,4,1,,,,,,
ChIJMVBua7lF0i0Ra27E2vWxzMU,RUWI KEBAB,-8.8039101,115.18845019999998,"Jl. Nuansa Timur HH No.43, Benoa, Kec. Kuta Sel., Kabupaten Badung, Bali 80361, Indonesia",https://maps.google.com/?cid=14252962590216187499,OPERATIONAL,+62 819-0190-9717,restaurant,"restaurant, food",4.6,31,,"Take out only! Excellent lamb kebap and kebuli rice, good price portion size, and friendly people! A great delivery option through GoFood (no dine-in). I look forward to returning!","Great taste of Kebab home made , tasty, and affordableüëçüèªüëçüèª",Was very tasty one,Very tasty food.,Top
ChIJVVDqJFpD0i0RpsKRCKeMkZI,Mutiara Kampial E9,-8.8016538,115.1955038,"55XW+86J, Jl. Dukuh Sari, Benoa, Kec. Kuta Sel., Kabupaten Badung, Bali 80361, Indonesia",https://maps.google.com/?cid=10561377250191721126,OPERATIONAL,+62 821-4479-6464,guest_house,"guest_house, lodging",4.3,8,,"Nice house with 2 rooms single bathroom, kitchen,carport,backyard",,,,
ChIJTYoENFtD0i0RQM0zLrsKMeY,Graha STP - Sisi Tukad Pemutih,-8.7995773,115.1952565,"Gg. Pangkung Pemutih Blk. C.XIII, Benoa, Kec. Kuta Sel., Kabupaten Badung, Bali 80361, Indonesia",https://maps.google.com/?cid=16587050701632556352,OPERATIONAL,+62 813-3849-1939,private_guest_room,"private_guest_room, lodging",4,1,,,,,,
ChIJjXBmsRhD0i0RquO4KH6XRxY,7h House,-8.8022159,115.19433679999999,"Jl. Dukuh Sari Jl. Raya Kampial No.8, Nusa Dua - Bali, Kec. Kuta Sel., Kabupaten Badung, Bali 80361, Indonesia",https://maps.google.com/?cid=1605418360285750186,OPERATIONAL,,,lodging,5,1,,,,,,
ChIJKZUMKtdD0i0RtHece5JtG8s,de ATA House Mumbul,-8.8011869,115.19114010000001,"Jl. Taman Giri Perum Griya Anugrah No.100X, Mumbul, Kec. Kuta Sel., Kabupaten Badung, Bali 80361, Indonesia",https://maps.google.com/?cid=14635411889977063348,OPERATIONAL,+62 811-385-893,guest_house,"guest_house, lodging",5,2,,Great,,,,
ChIJC8m6cV5D0i0RxwIvFcHyu1Q,NEZHA KOST,-8.8048358,115.19175120000001,"55WR+3PM, Gg. Senetan, Benoa, Kec. Kuta Sel., Kabupaten Badung, Bali 80361, Indonesia",https://maps.google.com/?cid=6105740630928851655,OPERATIONAL,,hotel,"hotel, lodging",,,,,,,,
ChIJsWFcDe5D0i0R-OaS6hexWVg,Wi-Shark C7 Villa,-8.8018337,115.1960556,"Mutiara Kampial C7, Benoa, South Kuta, Badung Regency, Bali 80361, Indonesia",https://maps.google.com/?cid=6366314264542766840,OPERATIONAL,+62 813-3866-2515,guest_house,"guest_house, lodging",5,5,,Very nice and comfortable villa! Highly recommendedüëçüèª,,,,
ChIJ94mBkeBD0i0RTBsr1RI1ji0,Waroeng Djajaka Soenda 2,-8.797386699999999,115.19358829999999,"Jl. Taman Giri II No.a17, Benoa, Kec. Kuta Sel., Kabupaten Badung, Bali 80361, Indonesia",https://maps.google.com/?cid=3282619533401725772,OPERATIONAL,+62 831-3494-2566,restaurant,"restaurant, food",,,,,,,,
ChIJpbrBPT5D0i0RQbpjAzoEx7k,Mutiara Kampial Blok E No. 26,-8.8014299,115.1952395,"55XW+C3H, Benoa, South Kuta, Badung Regency, Bali 80361, Indonesia",https://maps.google.com/?cid=13386673064593570369,OPERATIONAL,+62 821-4420-9027,restaurant,"restaurant, food",3.7,3,,Familiar,,,,
ChIJK_ismadE0i0Rkyw4Cgr54Ig,Warung Dong Citra,-8.802162599999999,115.18855649999999,"Jl. Nuansa Timur AA No.32, Benoa, Kec. Kuta Sel., Kabupaten Badung, Bali 80361, Indonesia",https://maps.google.com/?cid=9863157005457829011,OPERATIONAL,+62 859-3537-3380,restaurant,"restaurant, food",4,8,,Fine,,,,
ChIJH2ST9qdE0i0RJLhCGYt4K48,PIZZA EXPRESS BINTANG,-8.8029175,115.18866999999999,"Jl. Nuansa Timur DD No.41, Benoa, Kec. Kuta Sel., Kabupaten Badung, Bali 80361, Indonesia",https://maps.google.com/?cid=10316471910241843236,OPERATIONAL,,restaurant,"restaurant, food",3,2,,,,,,
ChIJtzKn9KdF0i0R8rNpDsGSZQ8,NUANSA RING UTAMA 5,-8.8014134,115.18816020000001,"Jl. Nuansa Ring Utama No.5, Jimbaran, Kec. Kuta Sel., Kabupaten Badung, Bali 80361, Indonesia",https://maps.google.com/?cid=1109454241084847090,OPERATIONAL,+62 812-3811-139,guest_house,"guest_house, lodging",3.6,5,,Didn't give back guarantee afterwards even though there weren't any problems.,Nice,,,
ChIJPa0A3Ydd0i0R3t-WHT1vOvk,Nusa Green Kubu Kost,-8.8047952,115.19222119999998,"Gg. Senetan I No.2, Lingkungan. Menesa, Kampial, Kec. Kuta Sel., Kabupaten Badung, Bali 80361, Indonesia",https://maps.google.com/?cid=17958788772373389278,OPERATIONAL,+62 812-3722-8524,lodging,lodging,5,1,,,,,,
