id,name,latitude,longitude,address,url,status,phone,primary-type,types,rating,rating-count,price-level,review 1,review 2,review 3,review 4,review 5
ChIJdVSpHb4l0i0RP1q3nOFfyhk,Warung Makan Jaya Asih,-8.4864097,115.18414829999999,"Sembung, Mengwi, Badung Regency, Bali 80351, Indonesia",https://maps.google.com/?cid=1858403218845293119,OPERATIONAL,+62 812-3825-8422,restaurant,"restaurant, food",4.9,184,PRICE_LEVEL_INEXPENSIVE,"Really affordable family restaurant to eat at on the way north. Right next to a padi field, the view was relaxing and the food was tasty and acceptable.","If you are on the way, highly recommend to try this local family restaurant. Very delicious food, local prices and Balinese hospitality. What you see in pictures cost 75k IDR on 2024 April","As authentic as it can get!

We stopped here on our way back to Ubud. Immediately were greeted in the wamr Balinese manner by the family.

Placed our order of Nasi goreng and Mahi mahi fish meal with orange and pineapple fresh juice. All of it was delicious.

Then even let my curious husband loom around the kitchen and offered him some Durian when he mentioned that he loves it.

Place was clean, food was hygienic and people were very sweet.

We also got to play with their kitten while we waited for the food.
We couldn't enjoy the view as we went there at night but you can find many beautifully take pics of the paddy fields in other reviews.

Devi and family: thank you for your hospitality and taking care of us with the scrumptious meal. We will visit again!",This place was amazing. We loved the food and the family was very nice. Also the view is spectacular and an added bonus.,"Good music, delicious food, friendly atmosphere. Thank you! we'll be back again ‚ù§Ô∏è"
ChIJ187WVP0l0i0RuIIS-nDY3yQ,Kost Tari,-8.4898498,115.18246070000001,"Jl. Pekilen, Selanbawak, Kec. Marga, Kabupaten Tabanan, Bali, Indonesia",https://maps.google.com/?cid=2657080284915335864,OPERATIONAL,+62 812-3255-1184,,lodging,5,11,,,,,,
ChIJt2UEK5sl0i0RRZZF0SLigsY,Kost,-8.4898597,115.1849841,"G56M+3X5, Werdi Bhuwana, Mengwi, Badung Regency, Bali, Indonesia",https://maps.google.com/?cid=14304244005649880645,OPERATIONAL,,hostel,"hostel, lodging",5,1,,,,,,
ChIJE4qLC_sl0i0R6dRs8CdBEGI,kos mega sari,-8.4898917,115.18465179999998,"Jl. Denpasar-Singaraja No.18, Werdi Bhuwana, Kec. Mengwi, Kabupaten Badung, Bali 80351, Indonesia",https://maps.google.com/?cid=7066219455137502441,OPERATIONAL,,private_guest_room,"private_guest_room, lodging",5,1,,It's a best place for me,,,,
ChIJo2_Ku3U70i0R1e9pvHnegvI,Kos murah,-8.4906873,115.18513829999999,"G55P+P3C, Werdi Bhuwana, Mengwi, Badung Regency, Bali 80351, Indonesia",https://maps.google.com/?cid=17474774118584414165,OPERATIONAL,,,lodging,5,5,,GG gaming,,,,
ChIJ1ybVCH8l0i0RkWxealyEB-E,Kos Maha,-8.4889156,115.18050180000002,"G56H+CW, Selanbawak, Marga, Tabanan Regency, Bali 82181, Indonesia",https://maps.google.com/?cid=16215074515827190929,OPERATIONAL,,,lodging,1,1,,,,,,
ChIJYdpxnqwk0i0RzHfImeXbucM,Luwak Coffee tegal amerta,-8.4888216,115.18188160000001,"Jalan Raya Bedugul, G56J+FQC, Pancasari, Sukasada, Selanbawak, Kec. Marga, Kabupaten Buleleng, Bali 81161, Indonesia",https://maps.google.com/?cid=14103545487261464524,CLOSED_TEMPORARILY,+62 812-3670-8090,cafe,"cafe, food",4.4,13,,Good place and coffee tasting was good. The staff was very friendly and explained so well about the process,Very friendly people and the tea and coffee tasted great!,Nice place and good to have a Luwak Coffee,,
ChIJq8Vvx1Q70i0RRtihTvy7OyU,Warung Barokah Alhidayah,-8.4913449,115.1845238,"G55M+FR6, Jl. Raya Denpasar, Werdi Bhuwana, Kec. Mengwi, Kabupaten Badung, Bali 80351, Indonesia",https://maps.google.com/?cid=2682944695354644550,OPERATIONAL,+62 823-4065-3427,indonesian_restaurant,"indonesian_restaurant, restaurant, food",4.1,17,,,,,,
ChIJzRfTSask0i0R4rlSmW2V9hk,Ayam Betutu Bu tony,-8.4900529,115.1844146,"G55M+XQF, Jl. Raya Denpasar, Werdi Bhuwana, Kec. Mengwi, Kabupaten Badung, Bali 80351, Indonesia",https://maps.google.com/?cid=1870846993175329250,OPERATIONAL,+62 812-3715-1778,restaurant,"restaurant, food",4.9,7,,,,,,
ChIJ8Vx7Sqsk0i0RgV3BbuvstHU,Cakdoell Mengwi,-8.4901384,115.18435579999999,"Jl. Denpasar-Singaraja Banjar Binong No.Km. 24, Werdi Bhuwana, Kec. Mengwi, Kabupaten Badung, Bali 80351, Indonesia",https://maps.google.com/?cid=8481664494165122433,OPERATIONAL,+62 812-3416-2140,restaurant,"restaurant, food",4.2,75,PRICE_LEVEL_INEXPENSIVE,"need some coffee? ‚Üí come here
are you hungry? ‚Üí come here
need a conection for your GPS? ‚Üí just come here buddy,,  take a sheet , and enjoy WI-FI acces on this PLACE,",Nice spot for rest while trip to bedugul,Woenak wasik woaaww,,
ChIJXyzxru0l0i0R5XJpzivaixw,Warung Sederhana Mak Sum,-8.4901838,115.18442359999997,"Werdi Bhuwana, Mengwi, Badung Regency, Bali 80351, Indonesia",https://maps.google.com/?cid=2056977536506229477,OPERATIONAL,,indonesian_restaurant,"indonesian_restaurant, store, restaurant, food",5,2,,,,,,
ChIJrZAaJWQl0i0Rl0DCU9Zd6WY,Babi Guling KEMBAR BAGUS,-8.4886607,115.1785514,"Banjar kekeran, Selanbawak, Kec. Marga, Kabupaten Tabanan, Bali 82181, Indonesia",https://maps.google.com/?cid=7415561436551856279,OPERATIONAL,+62 821-4667-3449,indonesian_restaurant,"indonesian_restaurant, restaurant, food",4.7,3,,,,,,
ChIJLynCEGQk0i0RlIZDq6bwGnM,D'SUTTER,-8.488845,115.18032300000002,"Jalan Kekeran Desa Selan Bawa Marga, Selanbawak, Kec. Marga, Kabupaten Tabanan, Bali 82191, Indonesia",https://maps.google.com/?cid=8294206262384756372,OPERATIONAL,+62 831-1917-4450,restaurant,"indonesian_restaurant, restaurant, food",4.5,4,,,,,,
ChIJkTTcWmkl0i0ROyqICp9EekE,Warung Makan Sari Sembung,-8.4854662,115.18396759999999,"G57M+RH8, Jl. Raya Denpasar, Sembung, Kec. Mengwi, Kabupaten Badung, Bali 80351, Indonesia",https://maps.google.com/?cid=4718159009491200571,OPERATIONAL,+62 821-4686-9215,indonesian_restaurant,"indonesian_restaurant, restaurant, food",4.8,9,,,,,,
ChIJMzx6VkYl0i0R7WGXr-zLeoE,Warung Jalana,-8.4888886,115.17888140000001,"Unnamed Road, G56H+CHR, Selanbawak, Kec. Marga, Kabupaten Tabanan, Bali 82181, Indonesia",https://maps.google.com/?cid=9329993795470057965,OPERATIONAL,+62 821-4708-4490,coffee_shop,"coffee_shop, cafe, store, food",4.5,8,,Nice viewüòç,Good looking,,,
ChIJSzQTx1Q70i0R-xXNa-lnXOk,Warung Malang,-8.491353199999999,115.18456320000001,"Werdi Bhuwana, Mengwi, Badung Regency, Bali, Indonesia",https://maps.google.com/?cid=16815429360928232955,OPERATIONAL,,restaurant,"restaurant, food",5,1,,,,,,
ChIJO-n8E-Yl0i0RUp9wQPd2Mtk,Warung Lalapan Oma,-8.4897989,115.18460239999997,"G56M+3RQ, Jl. Denpasar-Singaraja, Werdi Bhuwana, Kec. Mengwi, Kabupaten Badung, Bali 80351, Indonesia",https://maps.google.com/?cid=15650702459376017234,OPERATIONAL,+62 818-0557-667,restaurant,"restaurant, food",4.4,5,,,,,,
ChIJjXae51sl0i0RjEekQ03CDe4,Warung Bu Verlin,-8.4892979,115.18458100000001,"G56M+7RP, Jl. Raya Denpasar, Werdi Bhuwana, Kec. Mengwi, Kabupaten Badung, Bali 80351, Indonesia",https://maps.google.com/?cid=17153580192827197324,OPERATIONAL,+62 878-6269-9254,restaurant,"restaurant, food",5,3,,,,,,
ChIJXUGDxBYl0i0RU8BggQwqcso,Sutarja Transport,-8.4898048,115.182694,"G56M+33G, Selanbawak, Marga, Tabanan Regency, Bali 82181, Indonesia",https://maps.google.com/?cid=14587768376205033555,CLOSED_TEMPORARILY,,car_rental,car_rental,,,,,,,,
ChIJhYTAOQAl0i0Rt4TWFtby-G0,Depot Tuaji Mantra,-8.488421100000002,115.18457229999999,"Jl. Denpasar-Singaraja Br.Binong, Werdi Bhuwana, Kec. Mengwi, Kabupaten Badung, Bali 80351, Indonesia",https://maps.google.com/?cid=7924350545678468279,OPERATIONAL,+62 819-9911-1973,restaurant,"restaurant, food",5,2,,,,,,
