id,name,latitude,longitude,address,url,status,phone,primary-type,types,rating,rating-count,price-level,review 1,review 2,review 3,review 4,review 5
ChIJk1rrSLcx0i0Rg89qLV5vv8U,Wr.makan jawa WIDADARI,-8.527599,115.0012776,"Jl. Raya Denpasar - Gilimanuk No.14, Antap, Kec. Selemadeg, Kabupaten Tabanan, Bali 82162, Indonesia",https://maps.google.com/?cid=14249230196303122307,OPERATIONAL,,restaurant,"restaurant, food",3.9,134,,Good place to rest. Opposite Petrol station. O felt a little overcharged as we ordered 2x Ayam Nasi and a bottle of coke and it was 48k,"The stuff will rip you off as much as they can. I ordered noodles and a drink which costed 10 000 and 6 000 respectively. After giving a 100 000 I received 40 000 back. The stuff insisted my taxi driver bought cigarettes and makes me pay for them. After checking with the driver, the stuff brings me back another 10 000 which still doesn’t add up to the change I should’ve received; the waitress then tries to lie about the price of the food ordered. She then discusses with another waitress and laughs, pulls out another 5 000 which still isn’t enough. Frustrated with the insanity I leave the restaurant, completely ripped off and disrespected. Do yourself a favor and don’t go there.",Iwant to give zero star but i cant. food in here so scamm  is more like some people get depresed open the restaurant,,
ChIJl14sZTox0i0R-9EF2ti4KV8,Rizière ouf,-8.5260327,115.0061551,"F2F4+965, Jl. Raya Denpasar - Gilimanuk, Antosari, Kec. Selemadeg Bar., Kabupaten Tabanan, Bali 82162, Indonesia",https://maps.google.com/?cid=6857215149158552059,OPERATIONAL,,park,park,5,2,,,,,,
ChIJ-W-f94sx0i0RT12glNW4YCg,Warung Mahesa,-8.5273766,115.0049132,"Jl. Raya Denpasar - Gilimanuk, Antap, Kec. Selemadeg, Kabupaten Tabanan, Bali 82162, Indonesia",https://maps.google.com/?cid=2909528586742422863,OPERATIONAL,,restaurant,"restaurant, food",4.5,48,,,,,,
ChIJF2UM0Ygx0i0RPgFJjBPWXoA,"Warung Widadari Depan Spbu Soka, Tabanan",-8.528067199999999,115.0050783,"F2C4+Q2G, Jl. Raya Denpasar - Gilimanuk, Antap, Kec. Selemadeg, Kabupaten Tabanan, Bali 82162, Indonesia",https://maps.google.com/?cid=9250066064111894846,OPERATIONAL,,restaurant,"restaurant, food",3.6,5,,,,,,
ChIJyfxaW0sx0i0R9xwr9tAqPD0,Warung Buk Bagus - Nasi Be Genyol,-8.5256352,115.00705149999997,"F2F4+PRV, Jl. Raya Denpasar - Gilimanuk, Antap, Kec. Selemadeg, Kabupaten Tabanan, Bali 82162, Indonesia",https://maps.google.com/?cid=4412448811887828215,OPERATIONAL,,restaurant,"restaurant, food",5,4,,"Seems like a hidden gems,,, authentic taste, sooo delicious!",,,,
ChIJD6igJoox0i0RLJYXQ7xbva0,WARUNG IBU LISA,-8.528039699999999,115.00114069999998,"F2C2+QFJ, Jl. Raya Denpasar - Gilimanuk, Antosari, Kec. Selemadeg Bar., Kabupaten Tabanan, Bali 82162, Indonesia",https://maps.google.com/?cid=12519263403297445420,OPERATIONAL,+62 852-3948-8541,restaurant,"restaurant, food",5,1,,,,,,
ChIJ_8sELYox0i0R9cSjeopAeKE,Warung Buk Mega Soka,-8.5279466,115.0025754,"Jl. Raya Denpasar - Gilimanuk No.14, Antap, Kec. Selemadeg, Kabupaten Tabanan, Bali 82162, Indonesia",https://maps.google.com/?cid=11635120600818894069,OPERATIONAL,,cafe,"cafe, food",4.8,12,,very cheap excellent food,,,,
ChIJy9dT5ycu0i0RVXhconStAHE,Warung Bu Kris,-8.526130199999999,115.00573109999998,"F2F4+G7X, Jl. Raya Denpasar - Gilimanuk, Antosari, Kec. Selemadeg Bar., Kabupaten Tabanan, Bali 82162, Indonesia",https://maps.google.com/?cid=8142698842737637461,OPERATIONAL,+62 812-3608-0224,indonesian_restaurant,"breakfast_restaurant, indonesian_restaurant, restaurant, food",4,21,,,,,,
ChIJVzU9kVcx0i0RLZE3eCvfiNg,Bazzar soka,-8.5262412,115.00503929999999,"F2F4+G23, Jl. Raya Denpasar - Gilimanuk, Antap, Kec. Selemadeg, Kabupaten Tabanan, Bali 82162, Indonesia",https://maps.google.com/?cid=15602966286818578733,OPERATIONAL,,bar,bar,5,1,,,,,,
ChIJDYGjddwx0i0R_ctvM_FEsEs,Rumah tua,-8.524974499999999,115.00816989999998,"F2G5+36J, Jl. Raya Denpasar - Gilimanuk, Antap, Kec. Selemadeg, Kabupaten Tabanan, Bali 82162, Indonesia",https://maps.google.com/?cid=5453934951486442493,OPERATIONAL,,private_guest_room,"private_guest_room, lodging",,,,,,,,
ChIJoXSjzbsx0i0R6Irm1CQ5V_E,Batas Desa Antap,-8.528067199999999,115.0050783,"F2C4+Q2G, Antap, Selemadeg, Tabanan Regency, Bali, Indonesia",https://maps.google.com/?cid=17390431316467944168,OPERATIONAL,,park,park,,,,,,,,
ChIJ3W9LJggx0i0RrMVGvGvMSSI,Warung Ayu Soka,-8.5278014,115.0009973,"F2C2+V9H, Antap, Selemadeg, Tabanan Regency, Bali 82162, Indonesia",https://maps.google.com/?cid=2470730633681749420,OPERATIONAL,+62 818-0554-0193,restaurant,"restaurant, food",4,7,,Great place to enjoy a wonderful bowl of Soto Ayam and enjoy the sunset view over the Sawah.,,,,
ChIJT9PJEwAx0i0RhoNBoLgwb54,Pura srijong,-8.528067199999999,115.0050783,"F2C4+Q2G, Payan, Antap, Kec. Selemadeg, Kabupaten Tabanan, Bali, Indonesia",https://maps.google.com/?cid=11416397149928260486,OPERATIONAL,,meal_takeaway,"meal_takeaway, restaurant, food",,,,,,,,
ChIJS1KRewAx0i0REedxuay4EbQ,DP 11,-8.525520199999999,115.00651959999999,"F2F4+PRV, Jl. Raya Denpasar - Gilimanuk, Antap, Kec. Selemadeg, Kabupaten Tabanan, Bali 82162, Indonesia",https://maps.google.com/?cid=12975355053416245009,OPERATIONAL,,park,park,,,,,,,,
ChIJ8bRTVwAx0i0R7-fT9Nm6rE8,Warung putri,-8.528067199999999,115.0050783,"F2C4+Q2G, Antap, Selemadeg, Tabanan Regency, Bali, Indonesia",https://maps.google.com/?cid=5741169070268737519,OPERATIONAL,,meal_takeaway,"meal_takeaway, restaurant, food",,,,,,,,
ChIJuRDBdgAx0i0RGX-qsegJcI8,Warung kancil,-8.5308719,115.00738389999998,"F294+MX2, Antap, Selemadeg, Tabanan Regency, Bali 82162, Indonesia",https://maps.google.com/?cid=10335772039833091865,OPERATIONAL,,meal_takeaway,"meal_takeaway, restaurant, food",,,,,,,,
