id,name,latitude,longitude,address,url,status,phone,primary-type,types,rating,rating-count,price-level
ChIJl19Mr9sn0i0RrozMfWMZm98,Khana Khajana Bedugul (INDIAN FOOD),-8.3314869,115.18747449999998,"M59Q+82Q, Baturiti, Tabanan Regency, Bali 82191, Indonesia",https://maps.google.com/?cid=16112500006951095470,OPERATIONAL,+62 821-2271-4198,indian_restaurant,"indian_restaurant, restaurant, food",3.6,104,
ChIJ3VX1-lQn0i0RONslGC3d3Y0,The Dewata Homestay,-8.332063,115.18675359999999,"No Jl. Gunung Agung No.28, Baturiti, Kec. Baturiti, Kabupaten Tabanan, Bali 82191, Indonesia",https://maps.google.com/?cid=10222569914949294904,OPERATIONAL,+62 813-5304-1525,guest_house,"guest_house, lodging",3.2,20,
ChIJvcm39Von0i0RAuVXMJIdwSk,Siobak babi khas singaraja,-8.3333788,115.1878658,"depan SPBU, Jl. Denpasar-Singaraja, Pacung, Kec. Baturiti, Kabupaten Tabanan, Bali 82191, Indonesia",https://maps.google.com/?cid=3008718539773699330,OPERATIONAL,+62 821-4604-7731,restaurant,"restaurant, food",5,1,
ChIJE5ZcCkcn0i0RpfQV4D5bLbk,Jegeg Bali Resto / Baturiti Avenue,-8.331655699999999,115.1875982,"M59Q+82Q, Baturiti, Tabanan Regency, Bali 82191, Indonesia",https://maps.google.com/?cid=13343421596574282917,OPERATIONAL,,restaurant,"restaurant, food",4.3,8,
ChIJi7D_81Qn0i0R-8F9cg8b-5A,Bumbu Desa Resto,-8.3330086,115.18679369999998,"Jl. Raya Pacung No.32A, Baturiti, Tabanan, Kabupaten Tabanan, Bali 82191, Indonesia",https://maps.google.com/?cid=10446973513775301115,OPERATIONAL,+62 368 21919,restaurant,"restaurant, food",4.2,33,PRICE_LEVEL_MODERATE
ChIJd9gkcagn0i0RLWcGEvtg8uw,baturiti avenue,-8.3316591,115.1887241,"M59Q+8FQ, Jl. Mertasari Depan Kubu Kresna, Baturiti, Kec. Baturiti, Kabupaten Tabanan, Bali 82191, Indonesia",https://maps.google.com/?cid=17073815768770438957,OPERATIONAL,,restaurant,"restaurant, food",,,
ChIJHc3erFQn0i0RZEGbFK-Esbk,Wina Hotel,-8.333499,115.188846,"M58Q+JG5, Banjar Kembang Merta, Baturiti, Kec. Baturiti, Kabupaten Tabanan, Bali 82191, Indonesia",https://maps.google.com/?cid=13380621855394316644,OPERATIONAL,+62 368 21520,hotel,"hotel, lodging",4,1,
ChIJjz9tPBAh0i0R25l__U4kz8w,Pondok DUSAK Baturiti,-8.3299446,115.1904564,"M5CR+25G Pondok Tude Dusak, Baturiti, Kec. Baturiti, Kabupaten Tabanan, Bali 82191, Indonesia",https://maps.google.com/?cid=14758054425595451867,OPERATIONAL,,,lodging,,,
ChIJqUBoElUn0i0RQUJH51Kpqc8,Wr. Surya Ayam Betutu,-8.3301954,115.1866296,"Jl. Gunung Agung No.24, Baturiti, Kec. Baturiti, Kabupaten Tabanan, Bali 82191, Indonesia",https://maps.google.com/?cid=14963677410447802945,OPERATIONAL,+62 819-3620-7667,fast_food_restaurant,"fast_food_restaurant, restaurant, food",5,4,
ChIJM-K5dgCL0S0RYmf-XFsajbg,Faris,-8.3283274,115.19282249999999,"M5CV+M4, Antapan, Baturiti, Tabanan Regency, Bali, Indonesia",https://maps.google.com/?cid=13298314254399465314,OPERATIONAL,,hotel,"hotel, lodging",,,
ChIJn5E67XEn0i0Rj3-RKyUO5-I,Bali 605,-8.330168,115.18678419999999,"Jl. Gunung Agung No.24, Baturiti, Kec. Baturiti, Kabupaten Tabanan, Bali 82191, Indonesia",https://maps.google.com/?cid=16350052524999409551,OPERATIONAL,,restaurant,"restaurant, food",,,
ChIJP0JSadIn0i0ReKWCtHLJnBE,Bali 604,-8.333053099999999,115.1868841,"Jl. Gunung Agung No.11, Baturiti, Kec. Baturiti, Kabupaten Tabanan, Bali 82191, Indonesia",https://maps.google.com/?cid=1269110689503552888,OPERATIONAL,,restaurant,"restaurant, food",,,
ChIJXSZCmVQn0i0R7ljZDSSSskc,Warung BU ANIK,-8.3336873,115.1871317,"M58P+GVC, Jl. Raya Pacung, Baturiti, Kec. Baturiti, Kabupaten Tabanan, Bali 82191, Indonesia",https://maps.google.com/?cid=5166352406096206062,OPERATIONAL,,restaurant,"restaurant, food",,,
