id,name,latitude,longitude,address,url,status,phone,primary-type,types,rating,rating-count,price-level
ChIJoR7RiJht0i0RlP_BT38cGTo,Bukit Taman Cottages,-8.6812916,115.4505798,"Jalan Telatak, Jungutbatu, Kec. Nusa Penida, Kabupaten Klungkung, Bali 80771, Indonesia",https://maps.google.com/?cid=4186408661742124948,OPERATIONAL,+62 811-396-221,hotel,"hotel, cottage, lodging",4.9,133,
ChIJOUCW9KJt0i0RV71Afpg0gR4,KiBata Lembongan Boutique Hotel,-8.6818957,115.4479885,"Banjar Kelod Desa Jungutbatu Pulau Lembongan, 8C9X+65X, Jungutbatu, Kec. Nusa Penida, Kabupaten Klungkung, Bali 80771, Indonesia",https://maps.google.com/?cid=2198095922691358039,OPERATIONAL,+62 812-3813-0821,hotel,"hotel, lodging",4.4,97,
ChIJexaCyplt0i0Rqf_oprWOdYY,Warung Cassava (grilled n fresh food ),-8.6825505,115.45273019999999,"jl telatak, desa, Jungutbatu, Kec. Nusa Penida, Kabupaten Klungkung, Bali 80771, Indonesia",https://maps.google.com/?cid=9688807084198002601,OPERATIONAL,+62 822-4773-4431,restaurant,"restaurant, food",4.8,250,
ChIJ1b76iSNt0i0RIKQ_6OqtFBg,Maharatu Villas Lembongan,-8.6854593,115.4490802,"Ancak Street, Jungutbatu, Kec. Nusa Penida, Kabupaten Klungkung, Bali 80771, Indonesia",https://maps.google.com/?cid=1735202980874920992,OPERATIONAL,+62 878-4520-3894,hotel,"hotel, lodging",5,22,
ChIJaStMdpht0i0RWOlPy3NqKsA,353 Degrees North,-8.6816715,115.4510517,"Jalan Telatak, Lembongan, Nusa, Jungutbatu, Kec. Nusa Penida, Kabupaten Klungkung, Bali 80771, Indonesia",https://maps.google.com/?cid=13846997049868806488,OPERATIONAL,,hotel,"hotel, bed_and_breakfast, resort_hotel, lodging",4.9,38,
ChIJVVVVVZlt0i0RN9Tz-0k8Ics,Shipwrecks Beach Villa,-8.681766699999999,115.45111669999999,"Nusa Lembongan, Jungutbatu, Klungkung, Kabupaten Klungkung, Bali 80771, Indonesia",https://maps.google.com/?cid=14637046552388162615,OPERATIONAL,,hotel,"hotel, lodging",,,
ChIJHecpYLpt0i0RLm0oHzlBO2A,Lalapan damn i love,-8.6821225,115.4474292,"8C9X+65X, Jungutbatu, Nusa Penida, Klungkung Regency, Bali 80771, Indonesia",https://maps.google.com/?cid=6934207764858694958,OPERATIONAL,,brunch_restaurant,"brunch_restaurant, restaurant, food",3.9,7,
ChIJJ8jlKtBt0i0Rcq4ojAAfFAY,DAGANG PEJATI,-8.6831207,115.44815700000001,"8C8X+Q73, Jalan Raya Telatak, Jungutbatu, Kec. Nusa Penida, Kabupaten Klungkung, Bali 80771, Indonesia",https://maps.google.com/?cid=438009150973718130,OPERATIONAL,+62 821-4770-6007,restaurant,"restaurant, food",5,1,
ChIJvxL68Jlt0i0Rhc9kQxgC78g,Warung Bu Wah,-8.682908,115.455034,"Unnamed Road, Jungutbatu, Kec. Nusa Penida, Kabupaten Klungkung, Bali 80771, Indonesia",https://maps.google.com/?cid=14478793630252584837,OPERATIONAL,+62 852-3799-3992,indonesian_restaurant,"indonesian_restaurant, restaurant, food",4.7,9,
ChIJtz5N6XZt0i0RdxeFpCqt8d4,Baile,-8.685654999999999,115.45265699999999,"8F73+P3, Jungutbatu, Nusa Penida, Klungkung Regency, Bali, Indonesia",https://maps.google.com/?cid=16064811744467687287,OPERATIONAL,,private_guest_room,"private_guest_room, lodging",,,
ChIJjbdvGoZt0i0RTwFc9FTOmw8,Kayu Manis Guest House,-8.6878967,115.4489684,"8C6X+RHW, Jl. Raya Lembongan, Jungutbatu, Kec. Nusa Penida, Kabupaten Klungkung, Bali 80771, Indonesia",https://maps.google.com/?cid=1124719396231315791,OPERATIONAL,+62 813-3820-8239,hotel,"hotel, lodging",4.7,17,
