id,name,latitude,longitude,address,url,status,phone,primary-type,types,rating,rating-count,price-level
ChIJm7VLMocx0i0RfQzk6Z7APiI,Pantai Antap,-8.5382179,115.00120270000001,"Antap, Selemadeg, Tabanan Regency, Bali, Indonesia",https://maps.google.com/?cid=2467621434607012989,OPERATIONAL,,tourist_attraction,tourist_attraction,4.6,208,
ChIJYbhZ22kz0i0RSXNokYmuv20,Njung soka,-8.533560699999999,114.9966608,"FX8W+HHH, Antap, Selemadeg, Tabanan Regency, Bali, Indonesia",https://maps.google.com/?cid=7908231376559174473,OPERATIONAL,+62 859-3474-8693,tourist_attraction,tourist_attraction,5,3,
ChIJFf8G5X4x0i0Rrv3jqI-39fc,Warung Men Ega,-8.5379793,115.00111210000001,"F262+RC5, Antap, Selemadeg, Tabanan Regency, Bali, Indonesia",https://maps.google.com/?cid=17867388924304031150,OPERATIONAL,+62 878-5534-4557,restaurant,"restaurant, food",5,4,
ChIJUcQGqKgz0i0RUT18iJPN45M,Mdj sunset spot,-8.532974,114.99725199999999,"FX8W+HHH, Antap, Selemadeg, Tabanan Regency, Bali, Indonesia",https://maps.google.com/?cid=10656587176822455633,OPERATIONAL,,tourist_attraction,tourist_attraction,5,2,
ChIJl0Nakp8x0i0RgWkSp4DvapM,Warung Mek Ari,-8.5379579,115.00121589999999,"F262+RF, Antap, Selemadeg, Tabanan Regency, Bali, Indonesia",https://maps.google.com/?cid=10622566006944590209,OPERATIONAL,,restaurant,"restaurant, food",5,2,
ChIJ2f0Mo08z0i0RMKqFTf_bUJ4,anjung (bsk),-8.533631999999999,114.9964399,"FX8W+HHH, Antap, Selemadeg, Tabanan Regency, Bali, Indonesia",https://maps.google.com/?cid=11407859745693215280,OPERATIONAL,,campground,"campground, park, lodging",3.3,3,
