id,name,latitude,longitude,address,url,status,phone,primary-type,types,rating,rating-count,price-level
ChIJd2qBmwyR0S0Rk9h9eY8nzR8,Rumah Intaran,-8.103564,115.17732670000001,"V5WG+HXC, Bengkala, Kubutambahan, Buleleng Regency, Bali 81171, Indonesia",https://maps.google.com/?cid=2291531282573547667,OPERATIONAL,,cultural_center,cultural_center,4.4,26,
ChIJWdbcqlyR0S0R51ErGfQntbU,Pengalaman Rasa Gastronomy,-8.1036381,115.17690849999998,"Rumah Intaran, Jl. Gn. Batur, Bengkala, Kec. Kubutambahan, Kabupaten Buleleng, Bali 81172, Indonesia",https://maps.google.com/?cid=13093415420997358055,OPERATIONAL,+62 821-4486-1833,restaurant,"cultural_center, restaurant, food",4.4,9,
ChIJFQq2bS2R0S0RFt7zDTU7o5M,Warung Bebek Pesona Singaraja,-8.1034527,115.1772499,"Jl. Gn. Batur, Bengkala, Kec. Kubutambahan, Kabupaten Buleleng, Bali 81172, Indonesia",https://maps.google.com/?cid=10638411843832634902,OPERATIONAL,+62 823-4033-3684,restaurant,"restaurant, food",4.9,16,
ChIJA8L0SfmR0S0RfXf4MdiRXxA,WARUNG NUSANTARA BAR pak ben,-8.1025089,115.17712420000001,"Jl. Gn. Batur, Bengkala, Kec. Buleleng, Kabupaten Buleleng, Bali, Indonesia",https://maps.google.com/?cid=1179821985131689853,OPERATIONAL,,night_club,night_club,,,
ChIJVVVVVUKR0S0RzPLbzdguo3c,"Rio's Garden Homestay,Desa Bengkala",-8.1062316,115.17409420000001,"V5VF+GJ5, Bengkala, Kubutambahan, Buleleng Regency, Bali 81171, Indonesia",https://maps.google.com/?cid=8620785620418818764,OPERATIONAL,+62 812-3646-7888,lodging,lodging,5,4,
ChIJn-ySQA-R0S0RAlVMupk5klo,Warung anik,-8.1031037,115.1772298,"V5WG+QV5, Jl. Gn. Batur, Bengkala, Kec. Kubutambahan, Kabupaten Buleleng, Bali, Indonesia",https://maps.google.com/?cid=6526342142431614210,CLOSED_TEMPORARILY,,breakfast_restaurant,"breakfast_restaurant, restaurant, food",,,
