id,name,latitude,longitude,address,url,status,phone,primary-type,types,rating,rating-count,price-level
ChIJdbaa6j6R0S0RMcPY0YNnxTM,Pura Dalem Jagaraga Temple,-8.1058776,115.16089149999999,"Singaraja, Jagaraga, Sawan, Buleleng Regency, Bali 81171, Indonesia",https://maps.google.com/?cid=3730501682205344561,OPERATIONAL,,hindu_temple,"hindu_temple, tourist_attraction, museum, place_of_worship",4.6,116,
ChIJH0SHDlKR0S0R_Bz3X4DTJEs,Monumen Perang Jagaraga,-8.1052055,115.1599484,"V5V5+QF6, Jagaraga, Sawan, Buleleng Regency, Bali 81171, Indonesia",https://maps.google.com/?cid=5414685200325483772,OPERATIONAL,,historical_landmark,historical_landmark,4.5,36,
ChIJE4hfCMSR0S0RbCGhdf7T-a0,Patung dan Museum Puputan Jagaraga,-8.105077,115.15992560000001,"V5W5+5XJ, Jl. Raya Desa, Jagaraga, Kec. Sawan, Kabupaten Buleleng, Bali 81171, Indonesia",https://maps.google.com/?cid=12536284127611134316,OPERATIONAL,,historical_landmark,historical_landmark,,,
ChIJ4zkFvuuR0S0RpyQEbtdF9-A,Wareg restaurant,-8.1008523,115.15845480000002,"Jl. Raya Desa, Jagaraga, Kec. Sawan, Kabupaten Buleleng, Bali 81171, Indonesia",https://maps.google.com/?cid=16210502175309440167,OPERATIONAL,+62 812-3953-682,indonesian_restaurant,"indonesian_restaurant, restaurant, food",5,6,
ChIJpUpztJiR0S0RLPUJOM_YEMU,Kubu Lumbung,-8.105862499999999,115.1583143,"Singaraja, Jagaraga, Kec. Sawan, Kabupaten Buleleng, Bali 81171, Indonesia",https://maps.google.com/?cid=14200088009609180460,OPERATIONAL,+62 878-4173-3770,,lodging,5,1,
ChIJgWfGKoOR0S0Rt3ulfUtzS0g,Gubuk tulus subak tumpal,-8.1053698,115.15521789999998,"V5V4+V34, Jagaraga, Sawan, Buleleng Regency, Bali, Indonesia",https://maps.google.com/?cid=5209384162051849143,CLOSED_TEMPORARILY,,tourist_attraction,tourist_attraction,5,1,
ChIJuwqmWtuR0S0R8GsEauhVKj8,Tulus art,-8.1052612,115.1551117,"V5V4+V2X, Jagaraga, Sawan, Buleleng Regency, Bali, Indonesia",https://maps.google.com/?cid=4551544830110755824,OPERATIONAL,+62 878-5590-9391,park,park,5,1,
ChIJ88evWj6R0S0RVzceLfrft8k,WARUNG REJEKI,-8.1076825,115.16145479999999,"V5R6+WHG, Jl. Raya Desa, Jagaraga, Kec. Sawan, Kabupaten Buleleng, Bali 81171, Indonesia",https://maps.google.com/?cid=14535332587953338199,CLOSED_TEMPORARILY,,restaurant,"restaurant, food",,,
