id,name,latitude,longitude,address,url,status,phone,primary-type,types,rating,rating-count,price-level
ChIJMxeJDYYw0i0RvJMfE31UM1Y,Puri Anyar Royal Palace Kerambitan,-8.5423361,115.08339919999999,"F35M+396, Baturiti, Kerambitan, Tabanan Regency, Bali 82161, Indonesia",https://maps.google.com/?cid=6211401207242527676,OPERATIONAL,,tourist_attraction,tourist_attraction,4.6,300,
ChIJmSV7VU8x0i0RBi9nP8S_k6Q,WR. Sate Lilit Men Ari,-8.5419775,115.08453829999999,"Jl. Manik Galih, Kukuh, Kec. Kerambitan, Kabupaten Tabanan, Bali 82161, Indonesia",https://maps.google.com/?cid=11859033093394870022,OPERATIONAL,+62 878-6083-4681,indonesian_restaurant,"indonesian_restaurant, restaurant, food",4.9,36,
ChIJjUu3miAx0i0R5ZPvM5750xs,ACK Kukuh Kerambitan,-8.5423688,115.0839355,"F35M+3H3, Jl. Pahlawan Lejeh, Kukuh, Kec. Kerambitan, Kabupaten Tabanan, Bali 82161, Indonesia",https://maps.google.com/?cid=2005220716981490661,OPERATIONAL,,fast_food_restaurant,"fast_food_restaurant, restaurant, food",4.4,32,
ChIJBXochiEx0i0RDHY8fVEvcTE,Warung Nasi Lindung Bu Rina,-8.5414336,115.0851278,"F35P+C3C, Kukuh, Kerambitan, Tabanan Regency, Bali 82161, Indonesia",https://maps.google.com/?cid=3562680807266743820,OPERATIONAL,,indonesian_restaurant,"indonesian_restaurant, restaurant, food",4.8,32,
ChIJY9_nBPMx0i0RgcUlACHekew,WR.SATE BABI BU JERO NILA,-8.542678,115.08442980000001,"Jl. Pahlawan Lejeh, Kukuh, Kec. Kerambitan, Kabupaten Tabanan, Bali 82161, Indonesia",https://maps.google.com/?cid=17046650297891800449,OPERATIONAL,+62 878-6020-5316,indonesian_restaurant,"indonesian_restaurant, restaurant, food",4.9,7,
ChIJsbvkGQkx0i0RDigfz2MPsaA,Bagus Warung Kopi,-8.5423561,115.08399469999999,"F35M+3H5, Jl. Pahlawan Lejeh, Kukuh, Kec. Kerambitan, Kabupaten Tabanan, Bali 82161, Indonesia",https://maps.google.com/?cid=11579053038297360398,OPERATIONAL,+62 859-5418-1131,coffee_shop,"coffee_shop, cafe, store, food",5,27,
ChIJSwkSZNIx0i0RIM0p977AEok,Minandra Pizza,-8.5430118,115.08508289999999,"F34P+Q2W, Kukuh, Kerambitan, Tabanan Regency, Bali 82161, Indonesia",https://maps.google.com/?cid=9877168859199950112,OPERATIONAL,+62 819-9994-6467,pizza_restaurant,"pizza_restaurant, restaurant, food",5,4,
ChIJy51DZBYx0i0RISNYBSBrxNA,Warung sate pak hasan,-8.5431103,115.0852733,"F34P+Q42, Jl. Pahlawan Lejeh, Baturiti, Kec. Kerambitan, Kabupaten Tabanan, Bali 82161, Indonesia",https://maps.google.com/?cid=15043266440597087009,OPERATIONAL,+62 878-4967-6518,restaurant,"restaurant, food",,,
ChIJY6web2sx0i0RksiplfpooQA,Warung Gusti Ayu,-8.5435967,115.08293139999999,"F34M+H57, Jl. Wirabumi, Baturiti, Kec. Kerambitan, Kabupaten Tabanan, Bali 82161, Indonesia",https://maps.google.com/?cid=45432896712460434,OPERATIONAL,+62 857-9299-6457,brunch_restaurant,"brunch_restaurant, restaurant, food",5,3,
ChIJSdZ7rE0x0i0RsOUUA0qGx-8,Wr. Babi Guling Biang Sayu,-8.5455308,115.08916930000001,"F33Q+QMM, Kukuh, Kerambitan, Tabanan Regency, Bali 82161, Indonesia",https://maps.google.com/?cid=17277926147867600304,OPERATIONAL,,restaurant,"restaurant, food",4.8,9,
ChIJ1YS5ap8x0i0RI6plJOdwPeo,Sate ayam pak jaya,-8.5435158,115.08568799999999,"Kukuh, Kerambitan, Tabanan Regency, Bali 82161, Indonesia",https://maps.google.com/?cid=16878771116504885795,OPERATIONAL,+62 818-0555-4843,indonesian_restaurant,"indonesian_restaurant, restaurant, food",5,8,
ChIJP_iu8q0x0i0RI3m3_CA80jY,Wedding suta & ratna,-8.5417864,115.08570490000001,"Unnamed Road, F35P+77P, Kukuh, Kec. Kerambitan, Kabupaten Tabanan, Bali 82161, Indonesia",https://maps.google.com/?cid=3950285935533848867,OPERATIONAL,+62 878-6021-9873,hotel,"hotel, lodging",5,1,
ChIJO_RgJrIx0i0RkbqkC_xLW0A,"Warung ""Men Edix""",-8.5433244,115.0824704,"F34J+MXH, Jl. Wirabumi, Kukuh, Kec. Kerambitan, Kabupaten Tabanan, Bali 82161, Indonesia",https://maps.google.com/?cid=4637383787207244433,OPERATIONAL,+62 878-6141-4990,restaurant,"restaurant, food",4.5,19,
ChIJ8cOQu58x0i0RqYYv4G2pL5g,Warung Jumah,-8.539792799999999,115.08512130000001,"F36P+32Q, Kukuh, Kerambitan, Tabanan Regency, Bali 82161, Indonesia",https://maps.google.com/?cid=10966169907048187561,OPERATIONAL,+62 878-6052-0937,restaurant,"restaurant, food",5,21,
ChIJz5fhTw4x0i0RIJ8KsF4kNfA,Warung Bakso Bu Nanta,-8.5401554,115.08529170000001,"Kukuh, Kerambitan, Tabanan Regency, Bali 82161, Indonesia",https://maps.google.com/?cid=17308780731967381280,OPERATIONAL,+62 819-3900-4122,indonesian_restaurant,"brunch_restaurant, indonesian_restaurant, restaurant, food",3.6,5,
ChIJgaHc-EMx0i0Rk47lhE9OUhg,Nasi Bejekku,-8.543116399999999,115.08399229999999,"Jl. Taman Siswa, Br. Kukuh Kelod, F34M+QH5, Kukuh, Kec. Kerambitan, Kabupaten Tabanan, Bali 82161, Indonesia",https://maps.google.com/?cid=1752549308439563923,OPERATIONAL,+62 858-1371-9618,indonesian_restaurant,"indonesian_restaurant, restaurant, food",5,1,
ChIJfd2j_a4x0i0RDQP51dxXCgY,WARUNG KRAMA BALI,-8.5439508,115.08275090000001,"Jl. Wirabumi, Baturiti, Kec. Kerambitan, Kabupaten Tabanan, Bali 82161, Indonesia",https://maps.google.com/?cid=435256919988962061,OPERATIONAL,+62 812-4688-1506,indonesian_restaurant,"indonesian_restaurant, restaurant, food",5,5,
ChIJQcMjPIQw0i0RtMdWyzXybuk,WR'JAWA BU TYA,-8.5436353,115.08637030000001,"F34P+GGX, Jl. Pahlawan Lejeh, Kukuh, Kec. Kerambitan, Kabupaten Tabanan, Bali 82161, Indonesia",https://maps.google.com/?cid=16820647971134031796,OPERATIONAL,+62 823-4111-0265,indonesian_restaurant,"indonesian_restaurant, restaurant, food",4.6,5,
ChIJ9-ikeuIx0i0Row1uzmSsz-k,UMOTEBO,-8.5445577,115.08362029999999,"F34M+5CH, Kukuh, Kerambitan, Tabanan Regency, Bali 82161, Indonesia",https://maps.google.com/?cid=16847874279976340899,OPERATIONAL,+62 811-3997-713,restaurant,"restaurant, food",5,2,
ChIJkWvo8cEx0i0RCIj2W03-VHQ,Bobacha kerambitan,-8.542565,115.08425,"F34M+XMH, Jl. Pahlawan Lejeh, Kukuh, Kec. Kerambitan, Kabupaten Tabanan, Bali 82161, Indonesia",https://maps.google.com/?cid=8382604414652155912,OPERATIONAL,,cafe,"cafe, food",5,3,
