id,name,latitude,longitude,address,url,status,phone,primary-type,types,rating,rating-count,price-level
ChIJ3wS_YBwJ0i0R-VW59awimf4,Pantai Bugbug,-8.5058327,115.6003808,"FJV2+M56, Unnamed Rd, Sengkidu, Kec. Manggis, Kabupaten Karangasem, Bali, Indonesia",https://maps.google.com/?cid=18345732683322709497,OPERATIONAL,,tourist_attraction,tourist_attraction,4.3,175,
ChIJE6va5FEJ0i0RrURMpnHeNG4,Bugbug Beach Resort,-8.5061159,115.5990606,"FHVX+RC8, Jl. Pasih Kelod, Sengkidu, Kec. Manggis, Kabupaten Karangasem, Bali, Indonesia",https://maps.google.com/?cid=7941216622663713965,OPERATIONAL,+62 878-6319-6662,resort_hotel,"resort_hotel, hotel, real_estate_agency, lodging, travel_agency",4.5,46,
ChIJQ_7vvaEJ0i0Rx1SfTlWo5sg,Rumah Mawar,-8.5054515,115.598586,"FHVX+RC8, Jl. Pasih Kelod, Sengkidu, Kec. Manggis, Kabupaten Karangasem, Bali, Indonesia",https://maps.google.com/?cid=14476443136573789383,OPERATIONAL,+62 812-3653-1832,hotel,"hotel, lodging",5,2,
ChIJ7UMYWv4J0i0R574-gwL1MFU,Warung chandrayani,-8.5058677,115.59955710000001,"Sengkidu, Manggis, FHVX+MR3, Sengkidu, Karangasem, Karangasem Regency, Bali, Indonesia",https://maps.google.com/?cid=6138675683246653159,OPERATIONAL,+62 852-3776-9777,coffee_shop,"coffee_shop, cafe, food, store",,,
ChIJQYxmvgEJ0i0RFGomhk9pCnE,rumah pak lancog bagus,-8.502671,115.59635039999999,"Jl. Pasih Kelod, Sengkidu, bugbug, Kabupaten Karangasem, Bali 80811, Indonesia",https://maps.google.com/?cid=8145438666326960660,OPERATIONAL,+62 877-6145-8568,,lodging,,,
