id,name,latitude,longitude,address,url,status,phone,primary-type,types,rating,rating-count,price-level
ChIJEd0t4X070i0RumqPJL4XWJw,The Backyard House,-8.5671951,115.141677,"Tanjung Bungkak, Kediri, Kec. Kediri, Kabupaten Tabanan, Bali 82121, Indonesia",https://maps.google.com/?cid=11265780573291899578,OPERATIONAL,+62 877-6320-8061,,lodging,4.6,47,
ChIJ86KLztI70i0RaiPjBivurqg,Warung Mawar,-8.5658148,115.1416511,"C4MR+MMC, Jl. Trisula, Banjar Tanjung Bungkak, Kec. Kediri, Kabupaten Tabanan, Bali 82121, Indonesia",https://maps.google.com/?cid=12154914312886100842,OPERATIONAL,+62 878-6161-3980,restaurant,"restaurant, food",4.6,309,PRICE_LEVEL_INEXPENSIVE
ChIJN2Iyexs70i0RScygnP1x-2I,The K Coffee & Eatery,-8.565178699999999,115.142511,"C4MV+W2C, Jl. Trisula, Kediri, Kec. Kediri, Kabupaten Tabanan, Bali 82121, Indonesia",https://maps.google.com/?cid=7132419768939760713,OPERATIONAL,+62 813-3864-4086,restaurant,"restaurant, food",4.8,56,
ChIJMbNbFgA70i0RNHf46-tjZug,Tanahku,-8.5648697,115.14780400000001,"C4PX+34, Abian Tuwung, Kediri, Tabanan Regency, Bali, Indonesia",https://maps.google.com/?cid=16746182129351161652,OPERATIONAL,,park,park,,,
ChIJHzosNvc70i0RW8rCuDkcbeI,warung bakso rama,-8.5693956,115.14310700000001,"Unnamed Road, C4JV+66X, Pandak Bandung, Kec. Kediri, Kabupaten Tabanan, Bali 82121, Indonesia",https://maps.google.com/?cid=16315728059271662171,OPERATIONAL,+62 853-3368-3284,indonesian_restaurant,"indonesian_restaurant, restaurant, food",5,5,
ChIJD1uleQA70i0RPJsmbLOlaYk,Lahan,-8.5640591,115.1422434,"C4PR+9VH, Jl. Trisula, Kediri, Kec. Kediri, Kabupaten Tabanan, Bali 82121, Indonesia",https://maps.google.com/?cid=9901627445782944572,OPERATIONAL,,park,park,,,
