id,name,latitude,longitude,address,url,status,phone,primary-type,types,rating,rating-count,price-level
ChIJ1w-my0o70i0RpamjqVr81cI,Warung Bu Purwati,-8.550113999999999,115.15597199999999,"C5X4+X9, Abian Tuwung, Kediri, Tabanan Regency, Bali, Indonesia",https://maps.google.com/?cid=14039404879720720805,OPERATIONAL,+62 812-3677-6617,restaurant,"restaurant, food",4,2,
ChIJ-3GItbg70i0R8ecDu0gqoBs,Kost 108,-8.5516037,115.15903739999999,"Jl. Ahmad Yani II No.108, Abian Tuwung, Kec. Kediri, Kabupaten Tabanan, Bali 80351, Indonesia",https://maps.google.com/?cid=1990637527161366513,OPERATIONAL,,,lodging,2.7,3,
ChIJm8Thsi470i0Rqu2DB1V1BIs,Kuyatri,-8.5506289,115.1510947,"Jl. Ahmad Yani VIII No.67, Abian Tuwung, Kec. Kediri, Kabupaten Tabanan, Bali 82121, Indonesia",https://maps.google.com/?cid=10017260479237582250,OPERATIONAL,,restaurant,"restaurant, food",5,2,
ChIJOVrqxSQ70i0Rd4Mkj0YigVM,Men Linda,-8.5526362,115.15569239999999,"Br, C5W4+W7W, Balu, Abian Tuwung, Kec. Kediri, Kabupaten Tabanan, Bali 82121, Indonesia",https://maps.google.com/?cid=6017128263588283255,CLOSED_TEMPORARILY,,indonesian_restaurant,"indonesian_restaurant, restaurant, food",,,
ChIJPYXkTfw70i0RKfhb05wPFuw,kost bali,-8.5465766,115.1554262,"F534+86F, Abian Tuwung, Kediri, Tabanan Regency, Bali 82121, Indonesia",https://maps.google.com/?cid=17011801808673962025,OPERATIONAL,,motel,"motel, lodging",,,
ChIJz5tSDHE70i0RgctFtE5lWdg,Warung Jowo Masakan Ndeso,-8.5523288,115.15454640000002,"C5X3+3R7, jln.raya, Mengwitani, Kec. Kediri, Kabupaten Tabanan, Bali, Indonesia",https://maps.google.com/?cid=15589602973826009985,CLOSED_TEMPORARILY,,restaurant,"restaurant, food",,,
ChIJEZpFPAA70i0RlHwilTTn6Uc,Koripan kaja,-8.5466515,115.15368319999999,"F533+8FM, Abian Tuwung, Kediri, Tabanan Regency, Bali 82121, Indonesia",https://maps.google.com/?cid=5181927059292847252,OPERATIONAL,,park,park,,,
ChIJk7pQRAA70i0RmYMrGErjskQ,pondok kelod kauh,-8.551141,115.15590999999999,"C5X4+7C5, Abian Tuwung, Kediri, Tabanan Regency, Bali 82121, Indonesia",https://maps.google.com/?cid=4950268847806186393,OPERATIONAL,,,lodging,,,
ChIJ-5QG7W470i0RpYn0PbbpD3M,Home widiantarabalichannel,-8.5502182,115.15627509999999,"C5X4+WG6, Abian Tuwung, Kediri, Tabanan Regency, Bali, Indonesia",https://maps.google.com/?cid=8291102407945128357,OPERATIONAL,,,lodging,,,
ChIJB53Cxcc70i0RvFmwOEVf7YA,Warung Gita,-8.5549751,115.15439239999999,"C5W3+2Q2, Jl. Buluh Kenana, Abian Tuwung, Kec. Kediri, Kabupaten Tabanan, Bali 82121, Indonesia",https://maps.google.com/?cid=9290186357243664828,OPERATIONAL,,restaurant,"restaurant, food",5,1,
