id,name,latitude,longitude,address,url,status,phone,primary-type,types,rating,rating-count,price-level
ChIJxxRs0hNh0S0RfvSWPVO_q54,Jaya Fried Chicken (JFC),-8.351030999999999,114.59668889999999,"Jl. Raya Negara-Gilimanuk, Banyu Biru, Kec. Negara, Kabupaten Jembrana, Bali 82212, Indonesia",https://maps.google.com/?cid=11433442443246630014,OPERATIONAL,,meal_takeaway,"fast_food_restaurant, meal_takeaway, restaurant, food",4.3,47,
ChIJmfAOn8Vh0S0RYEw0mn_fJ1U,Nasi Padang Kicau4D,-8.3511124,114.5960204,"JHXW+HC2, Banyubiru, Negara, Jembrana Regency, Bali 82212, Indonesia",https://maps.google.com/?cid=6136118756456549472,OPERATIONAL,,indonesian_restaurant,"indonesian_restaurant, restaurant, food",5,2,
ChIJJx_hn4th0S0RE1oNorBbOV8,Warung Sate Raja Muda,-8.3511506,114.59635279999998,"JHXW+GGQ, Baluk, Negara, Jembrana Regency, Bali 82212, Indonesia",https://maps.google.com/?cid=6861616321466817043,OPERATIONAL,,indonesian_restaurant,"indonesian_restaurant, restaurant, food",4.6,23,
ChIJe5SXf1th0S0RC7_jCtl2dOA,DUMOGI Home Kitchen,-8.356646099999999,114.59268250000001,"Baluk II, Kec. Negara, Kabupaten Jembrana, Bali, Indonesia",https://maps.google.com/?cid=16173682836356972299,OPERATIONAL,+62 812-3784-2944,cafe,"cafe, food",4,2,
ChIJPe1RPDth0S0RN-igC5rEvx0,RENTAL OUTDOOR kawan adventure,-8.3515476,114.5957943,"JHXW+76H, Baluk, Negara, Jembrana Regency, Bali 82212, Indonesia",https://maps.google.com/?cid=2143648113550747703,OPERATIONAL,,hiking_area,"hiking_area, park",,,
ChIJkVlaPyRh0S0R9UcyHCoNySY,WR. MAKAN MUSLIM PODO SENENG,-8.3509052,114.59464190000001,"JHXV+JVJ, Jl. Raya Negara-Gilimanuk, Baluk, Kec. Negara, Kabupaten Jembrana, Bali 82218, Indonesia",https://maps.google.com/?cid=2794779518272948213,OPERATIONAL,+62 813-3826-0111,restaurant,"restaurant, food",4.2,13,
ChIJl12hOqhh0S0ROQHdqCxAEnM,WARUNG Lalapan& BAKSO ( BAROKAH ) Bang DANDI,-8.3516944,114.59922619999999,"JHXX+8MH, Jl. Raya Denpasar - Gilimanuk, Banyu Biru, Kec. Negara, Kabupaten Jembrana, Bali 82218, Indonesia",https://maps.google.com/?cid=8291760424498299193,OPERATIONAL,,indonesian_restaurant,"indonesian_restaurant, restaurant, food",5,6,
ChIJ84RTYHdh0S0R6u1N-3uRrKU,Es buah 888,-8.3514719,114.59811739999999,"JHXX+C69, Jl. Udayana, Baluk, Kec. Negara, Kabupaten Jembrana, Bali 82212, Indonesia",https://maps.google.com/?cid=11938076673935535594,OPERATIONAL,+62 877-5006-5100,restaurant,"restaurant, food",5,4,
ChIJxwkqeOph0S0RHS52NXGTHU4,BM.KAVEZO,-8.3513954,114.5957019,"Baluk, Negara, Jembrana Regency, Bali 82212, Indonesia",https://maps.google.com/?cid=5628817223720513053,OPERATIONAL,,coffee_shop,"coffee_shop, cafe, store, food",4.1,20,PRICE_LEVEL_INEXPENSIVE
ChIJ_feF5ulh0S0RBj39R16LGgs,Gudang ASWINDRA BALI UKIR,-8.3542554,114.59606620000001,"Baluk, Negara, Jembrana Regency, Bali 82212, Indonesia",https://maps.google.com/?cid=800105120862649606,OPERATIONAL,+62 822-3535-1026,art_gallery,art_gallery,3.7,3,
ChIJU1kdQpdh0S0RVv35xzhl6H4,Lalapan Buk Ira,-8.3511302,114.59629319999999,"JHXW+GGV, Jl. Raya Denpasar - Gilimanuk, Banyu Biru, Kec. Negara, Kabupaten Jembrana, Bali 82212, Indonesia",https://maps.google.com/?cid=9144670337923415382,CLOSED_TEMPORARILY,,breakfast_restaurant,"breakfast_restaurant, restaurant, food",,,
ChIJ9TMhlqJh0S0R7Xo2pHGt1PE,Warung Sate Nur Huda,-8.3511391,114.59635479999999,"JHXW+GGX, Jl. Raya Denpasar - Gilimanuk, Banyu Biru, Kec. Negara, Kabupaten Jembrana, Bali 82213, Indonesia",https://maps.google.com/?cid=17425743561801235181,OPERATIONAL,+62 878-1017-9109,indonesian_restaurant,"indonesian_restaurant, restaurant, food",,,
ChIJQRws8Xth0S0RiS6wR7NqkPY,Rumah Pak Made Sudining,-8.356901299999999,114.5968589,"JHVW+6PQ, Baluk, Negara, Jembrana Regency, Bali 82212, Indonesia",https://maps.google.com/?cid=17766817848211025545,OPERATIONAL,+62 857-4814-3200,hotel,"hotel, lodging",5,1,
ChIJ9QbwzJRh0S0RVzMNm_9-o7c,Umah dodik,-8.3561749,114.5954522,"JHVW+G5P, Baluk, Negara, Jembrana Regency, Bali 82212, Indonesia",https://maps.google.com/?cid=13232559766427743063,OPERATIONAL,,coffee_shop,"coffee_shop, cafe, store, food",,,
ChIJ5YjR0L1h0S0RaNcf6LSAvjM,Posko KKN 186 UIN Jember,-8.3510447,114.59722790000001,"Banyubiru, Negara, Jembrana Regency, Bali, Indonesia",https://maps.google.com/?cid=3728559055986218856,OPERATIONAL,,hostel,"hostel, lodging",5,1,
ChIJb4oPT-ph0S0R125SVrODJ4s,Warung Tri Bali,-8.3514427,114.59790170000001,"Banyubiru, Negara, Jembrana Regency, Bali, Indonesia",https://maps.google.com/?cid=10027127901634326231,OPERATIONAL,,restaurant,"restaurant, food",,,
ChIJzaGYHQBh0S0RY55-rpRxaDE,Warung Bu Purnama 99,-8.351303,114.59701079999999,"JHXW+CR6, Baluk, Negara, Jembrana Regency, Bali 82212, Indonesia",https://maps.google.com/?cid=3560220388833009251,OPERATIONAL,,restaurant,"restaurant, food",,,
ChIJZdMlIKVh0S0RqVw-ci0ZA_Q,Kedai Cinta,-8.3591868,114.59688070000001,"Jl. Yudistira No.63, Baluk, Kec. Negara, Kabupaten Jembrana, Bali 82213, Indonesia",https://maps.google.com/?cid=17582925053165460649,OPERATIONAL,,cafe,"cafe, food",4,2,
ChIJq-rfDJNh0S0RWCBVbe1YIP4,Warung Bu Wiwik,-8.3512167,114.5979279,"JHXX+G57, Jl. Raya Denpasar - Gilimanuk, Banyu Biru, Kec. Negara, Kabupaten Jembrana, Bali 82212, Indonesia",https://maps.google.com/?cid=18311733861653225560,OPERATIONAL,+62 877-6294-9483,indonesian_restaurant,"indonesian_restaurant, restaurant, food",,,
ChIJs7UWR_9h0S0RhWbEn0C1PAQ,Dapur Aiysah,-8.355218299999999,114.59229849999998,"Jl. Pura Taman No.2, Baluk, Kec. Negara, Kabupaten Jembrana, Bali 82118, Indonesia",https://maps.google.com/?cid=305318163917334149,OPERATIONAL,+62 859-3334-0003,restaurant,"restaurant, food",,,
