id,name,latitude,longitude,address,url,status,phone,primary-type,types,rating,rating-count,price-level
ChIJ-wUrLG7X0y0RIubdqvYAR4Q,UMADEWI Surf & Retreat,-8.419656699999999,114.8054885,"Address, Jl. Pantai Medewi Jl. Raya Denpasar - Gilimanuk No.KM 73, Medewi, Kec. Pekutatan, Kabupaten Jembrana, Bali 82262, Indonesia",https://maps.google.com/?cid=9531588195781568034,OPERATIONAL,+62 851-0070-0080,hotel,"hotel, lodging",4.5,171,
ChIJ2SlIlDvX0y0RQDw733IHDIY,AGALIVING SURF CAMP,-8.416334599999999,114.8051758,"Jalan Hiu No.3, Medewi, Kec. Pekutatan, Kabupaten Jembrana, Bali 82262, Indonesia",https://maps.google.com/?cid=9659103490755738688,OPERATIONAL,+62 365 4501878,resort_hotel,"resort_hotel, hotel, lodging",4.9,114,
ChIJE2S7O6HW0y0RAaquf-E-NeM,Bombora Medewi,-8.419378,114.80535489999998,"Jl. Pantai Medewi, Medewi, Kec. Pekutatan, Kabupaten Jembrana, Bali, Indonesia",https://maps.google.com/?cid=16372061158606023169,OPERATIONAL,+62 365 4501999,hotel,"hotel, lodging, restaurant, food",4.4,273,
ChIJS2rfHaHW0y0Row2jaW-LkxQ,Hotel Medewi Beach Inn,-8.4187538,114.8064958,"Jl. Pantai Medewi, Medewi, Kec. Pekutatan, Kabupaten Jembrana, Bali 82262, Indonesia",https://maps.google.com/?cid=1482682012964949411,OPERATIONAL,+62 857-3872-1103,hotel,"hotel, lodging",4.4,70,
ChIJZTFo46DW0y0RU5OEZid8YU4,Mai Malu,-8.4184356,114.8066274,"Jl. Pantai Medewi, Medewi, Kec. Pekutatan, Kabupaten Jembrana, Bali, Indonesia",https://maps.google.com/?cid=5647931916364845907,OPERATIONAL,+62 819-1617-1045,restaurant,"restaurant, food",4.3,123,
ChIJ2TSDVqDW0y0RPIUps3aIdd4,Kedai Jukung,-8.4176102,114.80673929999999,"HRM4+2Q9, Medewi, Negara, Jembrana Regency, Bali 82261, Indonesia",https://maps.google.com/?cid=16029868492088509756,OPERATIONAL,+62 877-5246-7600,indonesian_restaurant,"indonesian_restaurant, restaurant, food",4.6,322,
ChIJYXZFa4PX0y0R0WpuP6DcYfU,Warung Gede,-8.418873699999999,114.8053996,"Medewi, Pekutatan, Jembrana Regency, Bali, Indonesia",https://maps.google.com/?cid=17681656192850356945,OPERATIONAL,+62 877-6275-4553,restaurant,"restaurant, food",4.7,86,PRICE_LEVEL_INEXPENSIVE
ChIJx9PxHqHW0y0ROIzwmEroDKg,The point Surfcamp Bali,-8.4187879,114.8061077,"Jl. Pantai Medewi, Medewi, Negara, Kabupaten Jembrana, Bali 82262, Indonesia",https://maps.google.com/?cid=12109308905183546424,OPERATIONAL,+62 819-1639-1970,bed_and_breakfast,"bed_and_breakfast, lodging",4.6,37,
ChIJ5aSSzsLX0y0RloqOAXOJlfk,KOKOS Kitchen & Bar,-8.419533699999999,114.8053168,"Jl. Pantai Medewi, Medewi, Kec. Pekutatan, Kabupaten Jembrana, Bali 82262, Indonesia",https://maps.google.com/?cid=17984431814014306966,OPERATIONAL,+62 851-0070-0080,restaurant,"restaurant, food",3.8,27,
ChIJ0d8MKK3X0y0RPBenjwKaigA,Batu Kayu Surf Lodges,-8.4168406,114.805183,"Unnamed Road, Medewi, Kec. Pekutatan, Kabupaten Jembrana, Bali, Indonesia",https://maps.google.com/?cid=39012882576774972,OPERATIONAL,+62 857-9264-2181,,"hotel, lodging",5,44,
ChIJQQuA5RXX0y0RFyT5TlYMXjw,Rumah Makan Pulukan,-8.4196441,114.80876250000001,"Jl. Raya Denpasar - Gilimanuk, Kaliakah, Kec. Pekutatan, Kabupaten Jembrana, Bali, Indonesia",https://maps.google.com/?cid=4349927854918149143,OPERATIONAL,+62 813-6558-3747,restaurant,"restaurant, food",4.4,16,
ChIJ3a6bHSrX0y0RNS_VSZ-qAOw,JFC,-8.415951999999999,114.8063255,"HRM4+JG8, Medewi, Pekutatan, Jembrana Regency, Bali, Indonesia",https://maps.google.com/?cid=17005779794066222901,OPERATIONAL,,restaurant,"restaurant, food",4.2,44,
ChIJSTTsOqHW0y0Rsq0SgKbCXiU,Warkop,-8.4195412,114.8054219,"HRJ4+55M, Jl. Pantai Medewi, Medewi, Kec. Pekutatan, Kabupaten Jembrana, Bali, Indonesia",https://maps.google.com/?cid=2692803647583202738,OPERATIONAL,,cafe,"cafe, food",4.6,15,
ChIJE4pxtJ3X0y0RydIeCNaO4KU,BLAEM BOWLS CAFE,-8.414059,114.8062744,"depan tower telkom, Medewi, Negara, Kabupaten Jembrana, Bali 82211, Indonesia",https://maps.google.com/?cid=11952710460951679689,OPERATIONAL,+62 881-0373-85294,restaurant,"restaurant, food",5,8,
ChIJSyfr8THX0y0RDzSXZjqeklc,Kedai Lucky Medewi,-8.4164548,114.80638060000001,"HRM4+CH6, Jl. Raya Denpasar - Gilimanuk, Medewi, Kec. Pekutatan, Kabupaten Jembrana, Bali 82111, Indonesia",https://maps.google.com/?cid=6310280001565963279,OPERATIONAL,+62 812-3381-7056,restaurant,"restaurant, food",4.3,6,
ChIJ7WFdI9fX0y0RhyBq1WdAqOI,Pantai Medewi,-8.4198265,114.8052097,"HRJ4+338, Pantai Jl. Pantai Medewi, Medewi, Kec. Pekutatan, Kabupaten Jembrana, Bali, Indonesia",https://maps.google.com/?cid=16332374863365415047,OPERATIONAL,,tourist_attraction,tourist_attraction,4.5,2,
ChIJT5Vm06HW0y0RBbOJhkrflXA,"Kedai Muslim Medewi""HALAL""",-8.415562099999999,114.80626789999998,"Jl. Raya Denpasar - Gilimanuk, Medewi, Kec. Pekutatan, Kabupaten Jembrana, Bali 82111, Indonesia",https://maps.google.com/?cid=8112635814955561733,OPERATIONAL,+62 852-3829-6092,restaurant,"restaurant, food",4.6,21,PRICE_LEVEL_INEXPENSIVE
ChIJ22__xE3X0y0RYUome5rEDl4,Hotel Medewi Beach Inn Cafe,-8.4187091,114.8062115,"Jl. Pantai Medewi, Medewi, Kec. Pekutatan, Kabupaten Jembrana, Bali 82262, Indonesia",https://maps.google.com/?cid=6777570657009289825,OPERATIONAL,+62 857-3892-1247,cafe,"cafe, food",4.3,14,
ChIJOTrCmX_X0y0Rcqr6IwjAE2w,Homies medewi bali,-8.4187563,114.8061278,"HRJ4+FFR, Jl. Pantai Medewi, Medewi, Kec. Pekutatan, Kabupaten Jembrana, Bali, Indonesia",https://maps.google.com/?cid=7787779321849621106,OPERATIONAL,,lodging,lodging,4,1,
ChIJp4d6L7LX0y0REGDsHkyICBo,CafeInn Coffee & Restaurant,-8.418699,114.80636229999999,"HRJ4+GGH, Jl. Pantai Medewi, Medewi, Kec. Pekutatan, Kabupaten Jembrana, Bali 82262, Indonesia",https://maps.google.com/?cid=1875899105317511184,OPERATIONAL,+62 857-3872-1103,restaurant,"restaurant, food",4.3,4,
