id,name,latitude,longitude,address,url,status,phone,primary-type,types,rating,rating-count,price-level
ChIJ6U78Cj-b0S0RoqVH52pMoD0,Zen Resort,-8.188173400000002,114.91486340000002,"Jl. Umeanyar, Desa Ume Anyar, Seririt, Buleleng, Umeanyar, Singaraja, Kabupaten Buleleng, Bali 81153, Indonesia",https://maps.google.com/?cid=4440633254617785762,OPERATIONAL,+62 821-4553-6472,hotel,"hotel, spa, fitness_center, gym, lodging, sports_complex, health",4.7,61,
ChIJJY9qc62C0S0RGv3jmV4vDEI,Bali Nibbana Resort,-8.1895718,114.91529310000001,"Jl. Umeanyar, Umeanyar, Kec. Seririt, Kabupaten Buleleng, Bali 81153, Indonesia",https://maps.google.com/?cid=4759230989579058458,OPERATIONAL,+62 811-397-784,resort_hotel,"resort_hotel, hotel, lodging",4.5,104,
ChIJ_1p6kqyD0S0R_xLD3pYSe48,Penginapan Sandi Mas,-8.1896905,114.9199319,"RW69+4X, Lokapaksa, Seririt, Buleleng Regency, Bali, Indonesia",https://maps.google.com/?cid=10338877808750826239,OPERATIONAL,,hotel,"hotel, lodging",4.7,3,
ChIJYwOROy-D0S0RTpB5B0ugZPk,Villa Aina Lokahi,-8.1911282,114.9167658,"RW58+GPR, Umeanyar, Seririt, Buleleng Regency, Bali 81153, Indonesia",https://maps.google.com/?cid=17970664657223520334,OPERATIONAL,,lodging,lodging,4.6,5,
ChIJgwOZILKC0S0R6tBpJ3F72Bk,Villa Zoubi,-8.1908541,114.9178366,"Umeanyar, RW59+M44, Seririt, Lokapaksa, Kec. Seririt, Kabupaten Buleleng, Bali 81153, Indonesia",https://maps.google.com/?cid=1862374171840467178,OPERATIONAL,,,lodging,4.6,25,
ChIJd0wa83WD0S0R9UK_nZNBQkQ,Martabak telor terang bulan Mas Tegal,-8.1936798,114.9209497,"RW4C+G9G, Lokapaksa, Seririt, Buleleng Regency, Bali 81153, Indonesia",https://maps.google.com/?cid=4918565845304558325,OPERATIONAL,,restaurant,"restaurant, food",5,1,
ChIJC2GG2bCC0S0ResXrEoI8Lik,Rumah Makan Sari Bundo,-8.1934735,114.9210904,"RW4C+JC8, Jl. Singaraja-Gilimanuk, Lokapaksa, Kec. Seririt, Kabupaten Buleleng, Bali 81153, Indonesia",https://maps.google.com/?cid=2967375733844591994,OPERATIONAL,,restaurant,"restaurant, food",,,
ChIJn8mP27CC0S0RxyBaErSxQkw,Martabak Ortega,-8.193587899999999,114.9211347,"RW4C+HF6, Lokapaksa, Seririt, Buleleng Regency, Bali 81153, Indonesia",https://maps.google.com/?cid=5495149882305552583,OPERATIONAL,,restaurant,"restaurant, food",4.8,8,
ChIJrTMQAoGD0S0R91KRZI7Ul4c,Condong Raos (Bakso Solo),-8.1935826,114.92173400000001,"RW4C+HM9, Lokapaksa, Seririt, Buleleng Regency, Bali 81153, Indonesia",https://maps.google.com/?cid=9770511624641270519,OPERATIONAL,,indonesian_restaurant,"indonesian_restaurant, restaurant, food",4.4,18,
ChIJt90xwnSD0S0ROH5yvXXhGks,Warung dewiayu 2,-8.1935469,114.919097,"RW49+HJQ, Jl. Singaraja-Gilimanuk, Lokapaksa, Kec. Seririt, Kabupaten Buleleng, Bali 81153, Indonesia",https://maps.google.com/?cid=5411885798044892728,OPERATIONAL,+62 817-9733-223,coffee_shop,"coffee_shop, cafe, store, food",,,
ChIJxX-Oha2C0S0R3pmidNwU2oI,Anabbin Resort,-8.189111,114.9156007,"Unnamed Road, RW68+965, Umeanyar, Kec. Seririt, Kabupaten Buleleng, Bali 81153, Indonesia",https://maps.google.com/?cid=9428871706935728606,OPERATIONAL,+62 811-397-784,cafe,"cafe, food",5,2,PRICE_LEVEL_MODERATE
ChIJDVdF0U6D0S0RMlpE-UF_E_s,Kantin Nirmala,-8.1923462,114.91673519999999,"RW58+3M9, Jl. Umeanyar, Umeanyar, Kec. Seririt, Kabupaten Buleleng, Bali 81153, Indonesia",https://maps.google.com/?cid=18091944049409022514,OPERATIONAL,+62 877-6046-2255,restaurant,"restaurant, food",3,4,
ChIJLavwDBeD0S0RkBjMEZjyanI,Wr. Bu Dayu,-8.1941019,114.9179439,"RW49+954, Lokapaksa, Seririt, Buleleng Regency, Bali 81153, Indonesia",https://maps.google.com/?cid=8244668802802653328,OPERATIONAL,+62 831-1702-9160,restaurant,"restaurant, food",,,
ChIJA5j4M7CC0S0RzKyifiprPuo,Warung Made Pastika,-8.1938155,114.91720399999998,"RW48+FVG, Jl. Singaraja-Gilimanuk, Umeanyar, Kec. Seririt, Kabupaten Buleleng, Bali 81153, Indonesia",https://maps.google.com/?cid=16879046283688586444,OPERATIONAL,,restaurant,"restaurant, food",3.3,3,
ChIJ7wsH0bCC0S0REpldDa2b6jc,Mang They,-8.1936245,114.9214987,"RW4C+HH5, Jl. Singaraja-Gilimanuk, Lokapaksa, Kec. Seririt, Kabupaten Buleleng, Bali 81153, Indonesia",https://maps.google.com/?cid=4029203984192215314,OPERATIONAL,,restaurant,"restaurant, food",,,
ChIJF-CyXwCD0S0RgNb7KH3e10k,Komang suastika,-8.191712599999999,114.91530139999999,"RW58+847, Umeanyar, Seririt, Buleleng Regency, Bali 81153, Indonesia",https://maps.google.com/?cid=5320966113901401728,OPERATIONAL,,private_guest_room,"private_guest_room, lodging",,,
ChIJjaRSxA6D0S0RiFWdikQMVcE,WARUNG JANTER,-8.194488999999999,114.91748960000001,"RW48+6X5 Dusun Kundalini, Jln Kamboja, Umeanyar, Kec. Seririt, Kabupaten Buleleng, Bali 81153, Indonesia",https://maps.google.com/?cid=13931054510863373704,CLOSED_TEMPORARILY,,coffee_shop,"coffee_shop, cafe, store, food",,,
ChIJkdO3QQCD0S0RxW68ClVSmQo,Toko gorengan,-8.1933854,114.92146070000001,"RW4C+JHW, Jl. Singaraja-Gilimanuk, Lokapaksa, Kec. Seririt, Kabupaten Buleleng, Bali 81153, Indonesia",https://maps.google.com/?cid=763732137021828805,OPERATIONAL,,indonesian_restaurant,"indonesian_restaurant, restaurant, food",,,
ChIJoyZF3OeD0S0R_BLFQ6Rub40,RUMAH GURU GEDE,-8.1946873,114.9175846,"RW49+428, Lokapaksa, Seririt, Buleleng Regency, Bali 81153, Indonesia",https://maps.google.com/?cid=10191486133553402620,OPERATIONAL,,,lodging,,,
