id,name,latitude,longitude,address,url,status,phone,primary-type,types,rating,rating-count,price-level
ChIJPXzgHd850i0R1MPBsm4SBQI,Arana Cafe,-8.619727899999999,115.10629309999999,"Jl. Pantai Nyanyi No.99, Beraban, Kec. Kediri, Kabupaten Tabanan, Bali 82121, Indonesia",https://maps.google.com/?cid=145542829614154708,OPERATIONAL,+62 823-2265-5991,cafe,"cafe, food",4.2,32,
ChIJbeIPTmQ40i0RFHMoXNIY_5g,Pelan Pelan Bali,-8.6244252,115.1072816,"Banjar Batan Tanjung, Cemagi, Mengwi, Badung Canggu, Cemagi, Kec. Mengwi, Kabupaten Badung, Bali 80361, Indonesia",https://maps.google.com/?cid=11024557704594617108,OPERATIONAL,+62 812-9421-9481,hotel,"hotel, spa, lodging, health",4.8,113,
ChIJY60UlAw50i0RcrDeVmW09go,Graha Wiyata,-8.6208472,115.10359439999999,"94H3+MC9, Jl. Pantai Nyanyi, Beraban, Kec. Kediri, Kabupaten Tabanan, Bali 80351, Indonesia",https://maps.google.com/?cid=790017131992232050,OPERATIONAL,,lodging,lodging,4.4,16,
ChIJA1g39V850i0R-PbIh8FmBFI,Villa Dimaya,-8.622044200000001,115.10593659999999,"94H4+59M, Beraban, Kediri, Tabanan Regency, Bali 80351, Indonesia",https://maps.google.com/?cid=5909961592409749240,OPERATIONAL,,lodging,lodging,4.4,8,
ChIJ-7l_8bk50i0RWsaQLMCGmSI,Warung Tani,-8.622433599999999,115.1057467,"Jl. Pantai Nyanyi, Beraban, Kec. Kediri, Kabupaten Tabanan, Bali 80351, Indonesia",https://maps.google.com/?cid=2493172028665808474,CLOSED_TEMPORARILY,+62 822-8475-9818,restaurant,"restaurant, food",4.8,52,
ChIJIeU0tTM40i0Rvgwi_20J86Q,Villa Champuhan,-8.620847699999999,115.1090011,"94H5+MJ6, Beraban, Kediri, Tabanan Regency, Bali 80351, Indonesia",https://maps.google.com/?cid=11885854209597377726,OPERATIONAL,+62 361 9190890,,lodging,4.6,29,
ChIJRZ7TeNY50i0RdJ-kv2F5BxE,Mrs.Baker,-8.6215625,115.1029375,"94H3+95, Jl. Pantai Nyanyi, Beraban, Kec. Kediri, Kabupaten Tabanan, Bali, Indonesia",https://maps.google.com/?cid=1227082884215775092,OPERATIONAL,+62 877-7727-7698,cafe,"cafe, food",5,21,
ChIJr5qTHmA50i0RKIilSDA1-ZQ,Ecoverse by Nuanu x OXO,-8.6240482,115.1053323,"94G4+94P, Beraban, Kediri, Tabanan Regency, Bali, Indonesia",https://maps.google.com/?cid=10734669668307798056,OPERATIONAL,,,lodging,1,1,
ChIJ_fVPz8Q50i0RQGYQnHFKgIc,Warung Pojok,-8.6219207,115.10593199999998,"Jl. Pantai Nyanyi, Beraban, Kec. Kediri, Kabupaten Tabanan, Bali 80351, Indonesia",https://maps.google.com/?cid=9763885843949315648,OPERATIONAL,+62 812-3758-8222,restaurant,"restaurant, food",5,3,
ChIJOz-2cf450i0RAslXKqVJiQY,Cafe Lab PIB College,-8.6207048,115.1028116,"94H3+95, Jl. Pantai Nyanyi, Beraban, Kec. Kediri, Kabupaten Tabanan, Bali, Indonesia",https://maps.google.com/?cid=470988609765755138,OPERATIONAL,+62 821-7027-3045,restaurant,"restaurant, food",,,
ChIJt0LEZIg50i0RxXPsE1hqSms,Nianu resort,-8.6215569,115.105807,"resort, Jl. Pantai Nyanyi, Beraban, Kec. Kediri, Kabupaten Tabanan, Bali, Indonesia",https://maps.google.com/?cid=7731108636858807237,OPERATIONAL,,hotel,"hotel, lodging",,,
ChIJjWjIR3I50i0RUzBrAVYpe8A,WR. MAKAN SAGARA,-8.6215569,115.105807,"94H4+98F, Jl. Pantai Nyanyi, Beraban, Kec. Kediri, Kabupaten Tabanan, Bali, Indonesia",https://maps.google.com/?cid=13869724926785302611,OPERATIONAL,+62 878-8863-9842,indonesian_restaurant,"indonesian_restaurant, restaurant, food",,,
ChIJq83LiRM50i0RfAUIGjXF53o,Warung Men Oka,-8.6215569,115.105807,"94H4+98F, Jl. Pantai Nyanyi, Beraban, Kec. Kediri, Kabupaten Tabanan, Bali 80351, Indonesia",https://maps.google.com/?cid=8856264024108041596,CLOSED_TEMPORARILY,,cafe,"cafe, food",,,
ChIJJQQReAA50i0R-houqBm_CUw,warung Jawa jember,-8.6215569,115.105807,"94H4+98F, Jl. Pantai Nyanyi, Beraban, Kec. Kediri, Kabupaten Tabanan, Bali, Indonesia",https://maps.google.com/?cid=5479120538589600506,OPERATIONAL,,breakfast_restaurant,"breakfast_restaurant, restaurant, food",,,
ChIJRyyJbQA50i0RqPT5u9OBbak,Rumah Kecil,-8.6219022,115.1060354,"94H4+6CM, Jl. Pantai Nyanyi, Beraban, Kec. Kediri, Kabupaten Tabanan, Bali, Indonesia",https://maps.google.com/?cid=12208556911263085736,OPERATIONAL,,private_guest_room,"private_guest_room, lodging",5,1,
