id,name,latitude,longitude,address,url,status,phone,primary-type,types,rating,rating-count,price-level
ChIJO8DBBRgx0i0RhuhkbL4OOTQ,Amarta Beach Retreat by Nakula,-8.561606399999999,115.03527059999998,"Banjar Pasut, Tibubiu, Kerambitan, Tabanan Regency, Bali 82161, Indonesia",https://maps.google.com/?cid=3763055174669887622,OPERATIONAL,+62 811-3997-789,hotel,"hotel, lodging",4.6,328,
ChIJj1Du_hYx0i0RnqqJat7QFbg,Abian Kapas Beach,-8.558909,115.0315296,"Tim. 82162, Beraban, Kec. Selemadeg Tim., Kabupaten Tabanan, Bali, Indonesia",https://maps.google.com/?cid=13264737931178388126,OPERATIONAL,+62 361 811602,tourist_attraction,tourist_attraction,4.4,165,
ChIJJ-WXs_cx0i0RVYCxkVQRYwY,Beach Access 1 ABU Bali Property,-8.5576899,115.0297052,"C2RH+WV, Beraban, Selemadeg Timur, Tabanan Regency, Bali, Indonesia",https://maps.google.com/?cid=460230641841176661,OPERATIONAL,,tourist_attraction,tourist_attraction,4,1,
ChIJ9YGKrLwx0i0RAao6pJmIx3U,Rock at Pantai Pasut,-8.5621455,115.0347462,"C2QP+823, pasut, Kerambitan, Tabanan Regency, Bali, Indonesia",https://maps.google.com/?cid=8486902216269670913,OPERATIONAL,,historical_landmark,historical_landmark,5,3,
ChIJK_A5LwAx0i0RsbLyK9jz0_0,Pura luhur semulungan,-8.5582084,115.02972779999999,"C2RH+WV, Beraban, Selemadeg Timur, Tabanan Regency, Bali, Indonesia",https://maps.google.com/?cid=18290230621457527473,OPERATIONAL,,tourist_attraction,tourist_attraction,4,1,
ChIJsxO5UREx0i0RXZQYJf5tkRc,LBV Deep Blue Villa,-8.5563092,115.0294766,"C2VH+FQH, Beraban, Selemadeg Timur, Tabanan Regency, Bali, Indonesia",https://maps.google.com/?cid=1698259472806876253,OPERATIONAL,+62 812-3786-9709,bed_and_breakfast,"bed_and_breakfast, lodging",,,
ChIJsxO5UREx0i0RWvzrzxlL9tA,Demo,-8.5563092,115.0294766,"C2VH+FQH, Beraban, Selemadeg Timur, Tabanan Regency, Bali, Indonesia",https://maps.google.com/?cid=15057304978394446938,OPERATIONAL,+62 812-3786-9709,bed_and_breakfast,"bed_and_breakfast, lodging",,,
