id,name,latitude,longitude,address,url,status,phone,primary-type,types,rating,rating-count,price-level
ChIJ455c6OUW0i0RLNd4X0HFqOw,Java Cafe,-8.528529599999999,115.34809039999999,"Sidan, Gianyar, Gianyar Regency, Bali, Indonesia",https://maps.google.com/?cid=17053096873603684140,OPERATIONAL,,cafe,"cafe, food",,,
ChIJqeT8a5UX0i0RjEYuRrJC3Vw,Made Balade,-8.5257614,115.3536219,"Br. Dukuh, Sidan, Kec. Gianyar, Kabupaten Gianyar, Bali 80551, Indonesia",https://maps.google.com/?cid=6691577954791474828,OPERATIONAL,,private_guest_room,"private_guest_room, lodging",5,6,
ChIJmaMUd-QW0i0RjI6O7AUubjc,Warung Bu Goeliang,-8.5249201,115.34676569999999,"F8GW+2PJ, Jl. Raya Sidan, Sidan, Kec. Gianyar, Kabupaten Gianyar, Bali 80515, Indonesia",https://maps.google.com/?cid=3994180522502688396,OPERATIONAL,+62 819-1633-8116,indonesian_restaurant,"indonesian_restaurant, restaurant, food",5,1,
ChIJbVilwMsX0i0Re3PquLmy6Vc,rumah ageng akwokawokaw,-8.528243999999999,115.34871140000001,"F8CX+PF4, Sidan, Gianyar, Gianyar Regency, Bali, Indonesia",https://maps.google.com/?cid=6334790861614379899,CLOSED_TEMPORARILY,,night_club,night_club,,,
ChIJLR08iHwX0i0R6sOcVkrlOh4,MIRDA HOUSE,-8.529738,115.35031099999998,"F9C2+864, Jl. Dewi Sri, Sidan, Kec. Gianyar, Kabupaten Gianyar, Bali 80515, Indonesia",https://maps.google.com/?cid=2178305477230511082,OPERATIONAL,,hostel,"hostel, lodging",,,
ChIJu8u8dO0X0i0RkmzX8lfgWGk,POSKO KKN SIDAN,-8.5293177,115.3489264,"F8CX+7HF, Sidan, Gianyar, Gianyar Regency, Bali, Indonesia",https://maps.google.com/?cid=7591063840273951890,OPERATIONAL,,park,park,,,
ChIJjYox2-UW0i0RFgrOSSHJajo,Warung Bu Sugi,-8.5279967,115.3481674,"Jl. Pegesangan-Sidan, Sidan, Kec. Gianyar, Kabupaten Gianyar, Bali 80515, Indonesia",https://maps.google.com/?cid=4209397946540493334,OPERATIONAL,,cafe,"cafe, food",4.6,7,
ChIJubBSsY0X0i0RnAKjvm4RMoY,Colin house,-8.5265144,115.35350760000001,"Br dukuh, Sidan, Kec. Gianyar, Kabupaten Gianyar, Bali 80511, Indonesia",https://maps.google.com/?cid=9669810517260305052,OPERATIONAL,+62 888-5785-437,private_guest_room,"private_guest_room, lodging",,,
ChIJj9QDgOMX0i0RJbvFRmX73FE,GRIYA MANGGIS SIDAN GIANYAR,-8.5309083,115.35005170000001,"F992+J2M, Jl. Dewi Saraswati, Sidan, Kec. Gianyar, Kabupaten Gianyar, Bali 80515, Indonesia",https://maps.google.com/?cid=5898866024346139429,OPERATIONAL,,lodging,lodging,4.3,3,
ChIJr0EqOikX0i0RfxvpXA0Ws3c,Pondok Giri Mekar Sari,-8.5249695,115.34939700000001,"Blok Br Bukit Sari, Sidan, Kec. Gianyar, Kabupaten Gianyar, Bali 80515, Indonesia",https://maps.google.com/?cid=8625261957993798527,OPERATIONAL,+62 878-6038-2442,,lodging,5,2,
ChIJj2VyIq4X0i0RD8XLw22aYGM,Agus Suyadnya,-8.524943300000002,115.35334800000001,"F9G3+28H, Sidan, Gianyar, Gianyar Regency, Bali 80515, Indonesia",https://maps.google.com/?cid=7160893203746112783,OPERATIONAL,,hotel,"hotel, lodging",3,1,
ChIJa970SUwX0i0RMQ3jSsOAV5U,DANUN_ANOM,-8.5293526,115.35296550000001,"DUKUH, Sidan, Kec. Gianyar, Kabupaten Gianyar, Bali 80511, Indonesia",https://maps.google.com/?cid=10761211410888461617,OPERATIONAL,,private_guest_room,"private_guest_room, lodging",4,2,
ChIJ02fJzugW0i0RYs-T_bIa8gs,Villa Kayu Sebatu,-8.5311127,115.34942160000001,"Jalan Uma kaja, F89X+HQ3, Sebatu, Kec. Gianyar, Kabupaten Gianyar, Bali 80561, Indonesia",https://maps.google.com/?cid=860779834842009442,OPERATIONAL,+62 877-3038-6576,bed_and_breakfast,"bed_and_breakfast, lodging",,,
ChIJcRB6UwAX0i0RQYCoEYitU-o,Warung santai buk jro ani,-8.5262155,115.3507346,"F9F2+H36, Jl. Raya Sidan, Sidan, Kec. Gianyar, Kabupaten Gianyar, Bali 80515, Indonesia",https://maps.google.com/?cid=16885030227865534529,OPERATIONAL,+62 878-8538-0071,coffee_shop,"coffee_shop, cafe, store, food",,,
ChIJQ-4dAo0X0i0R368HZV8X1-Q,Rumah Agus Mahardiasa,-8.525452999999999,115.3529384,"Sidan, Gianyar, Gianyar Regency, Bali 80511, Indonesia",https://maps.google.com/?cid=16489674259124695007,OPERATIONAL,+62 857-3874-8138,private_guest_room,"private_guest_room, lodging",,,
ChIJg_SGCssX0i0Rca0V2Fr2blw,Rumah Septia Utari,-8.5293414,115.3529291,"F9C3+757, Jl. Dewi Sri II, Sidan, Kec. Gianyar, Kabupaten Gianyar, Bali 80515, Indonesia",https://maps.google.com/?cid=6660531768960331121,CLOSED_TEMPORARILY,+62 831-1942-0879,coffee_shop,"coffee_shop, cafe, store, food",,,
ChIJ4Y156eUW0i0RhKdRyKVlKEk,Warung Bu Desak,-8.528613199999999,115.34787449999997,"F8CX+H45, Jalan Legongkeraton, Sidan, Kec. Gianyar, Kabupaten Gianyar, Bali 80515, Indonesia",https://maps.google.com/?cid=5271575126541969284,OPERATIONAL,+62 819-1627-9018,indonesian_restaurant,"indonesian_restaurant, restaurant, food",,,
ChIJldQTfgAX0i0RbebbLkki-DM,warga pande,-8.5268797,115.3519086,"br, F9F2+6QV, Sidan, Kec. Gianyar, Kabupaten Gianyar, Bali, Indonesia",https://maps.google.com/?cid=3744780787872687725,OPERATIONAL,,private_guest_room,"private_guest_room, lodging",,,
ChIJtX1UbAAX0i0R-So8XqUKEwQ,pradnya hous,-8.5295004,115.35038550000002,"F9C2+55R, Jl. Dewi Sri, Sidan, Kec. Gianyar, Kabupaten Gianyar, Bali 80515, Indonesia",https://maps.google.com/?cid=293590106076097273,OPERATIONAL,,private_guest_room,"private_guest_room, lodging",,,
ChIJt8y_MwAX0i0RCHKkYjMkUwM,Penjagaperang,-8.5293259,115.3489781,"F8CX+7H9, Sidan, Gianyar, Gianyar Regency, Bali, Indonesia",https://maps.google.com/?cid=239575008297644552,OPERATIONAL,,hotel,"hotel, lodging",,,
