id,name,latitude,longitude,address,url,status,phone,primary-type,types,rating,rating-count,price-level
ChIJtdRm8PE70i0R1FS4RMBLBtg,Taman Wisata Luih,-8.522596,115.10695500000001,"F4H4+3Q8, Batuaji, Kerambitan, Tabanan Regency, Bali 82161, Indonesia",https://maps.google.com/?cid=15566212451211433172,OPERATIONAL,,restaurant,"restaurant, food",4.7,54,
ChIJ1dWIi1M70i0R2xwX-ktOs_4,"Kedai Ayam Goreng ""PAON IMEYMEY""",-8.518317399999999,115.11136719999999,"Perumahan Niravadhi Residance Blok D4, Jalan Cempaka Kuning, Batuaji, Samsam, Kec. Kerambitan, Kabupaten Tabanan, Bali 82115, Indonesia",https://maps.google.com/?cid=18353098994690235611,OPERATIONAL,+62 815-5893-3434,meal_takeaway,"meal_takeaway, restaurant, food",5,1,
ChIJA8fLdXI70i0RyIeUBnDM7hQ,Warung kita,-8.5174424,115.1089659,"Jl. Cempaka Putih,Banjar batuaji tengah, ds, Batuaji, Kec. Kerambitan, Kabupaten Tabanan, Bali 82161, Indonesia",https://maps.google.com/?cid=1508367706734495688,OPERATIONAL,+62 857-3731-1784,coffee_shop,"coffee_shop, cafe, food, store",5,2,
ChIJO6celBA70i0RBEgqVERjF4c,Pembangunan Gedung Ruang Makan desa samsam,-8.5182406,115.10817809999999,"F4J5+P73, Jl. Cempaka Putih, Samsam, Kec. Kerambitan, Kabupaten Tabanan, Bali 82115, Indonesia",https://maps.google.com/?cid=9734358264705599492,OPERATIONAL,,restaurant,"restaurant, food",,,
ChIJqzN-mnM70i0RjWBRcwiul4w,Warung Biang Wina,-8.5159661,115.10958409999999,"F4M5+JR8, Jl. Cempaka Putih, Batuaji, Kec. Kerambitan, Kabupaten Tabanan, Bali 82115, Indonesia",https://maps.google.com/?cid=10130757238110904461,OPERATIONAL,+62 853-3326-2162,indonesian_restaurant,"indonesian_restaurant, restaurant, food",5,1,
ChIJu0RT9GU70i0R9OEtUyG902k,Wr by Eka,-8.5164017,115.1093736,"F4M5+CPQ, Jl. Cempaka Putih, Batuaji, kaja, Kabupaten Tabanan, Bali, Indonesia",https://maps.google.com/?cid=7625646544895468020,CLOSED_TEMPORARILY,,coffee_shop,"coffee_shop, cafe, food, store",,,
ChIJwRD-lTM70i0RBp_Ojp3y30A,Bubur bali by eka,-8.515781,115.10953469999998,"Jl. Cempaka Putih, Batuaji, Kec. Kerambitan, Kabupaten Tabanan, Bali 82115, Indonesia",https://maps.google.com/?cid=4674721696753557254,CLOSED_TEMPORARILY,,coffee_shop,"coffee_shop, cafe, food, store",,,
