id,name,latitude,longitude,address,url,status,phone,primary-type,types,rating,rating-count,price-level
ChIJ28Eiv5MR0i0RZFwfVaRgf2Y,Bird Hills Bali,-8.4910879,115.41596910000001,"Jl. Bukit Juuk Manis, Tangkup, Kec. Sidemen, Kabupaten Karangasem, Bali 80864, Indonesia",https://maps.google.com/?cid=7385728172829924452,OPERATIONAL,,lodging,lodging,4.9,27,
ChIJ2VHdndMR0i0RiQpqugALMZ8,Taman Asta Gangga,-8.492376199999999,115.41748899999999,"Jl. Bintang, Tangkup, Kec. Sidemen, Kabupaten Karangasem, Bali 80864, Indonesia",https://maps.google.com/?cid=11470961823644781193,OPERATIONAL,+62 813-3808-0817,campground,"campground, park, lodging",4.9,88,
ChIJoyBOKtIR0i0RCVPnus6jNYA,Mystery Mountain Cooking Class,-8.4909819,115.4159183,"GC58+WH6, Jl. Bukit Juuk Manis, Tangkup, Kec. Sidemen, Kabupaten Karangasem, Bali 80864, Indonesia",https://maps.google.com/?cid=9238470318914753289,OPERATIONAL,,tourist_attraction,tourist_attraction,5,20,
ChIJ3YPHdBAR0i0RURrMaEe03mQ,Bamboo villa,-8.4923133,115.41887810000001,"GC59+3H, Tangkup, Sidemen, Karangasem Regency, Bali, Indonesia",https://maps.google.com/?cid=7268445067416443473,OPERATIONAL,,private_guest_room,"private_guest_room, lodging",4.9,9,
ChIJP0Lu1ZMR0i0RrsqnBfgJv7U,View spot,-8.4848084,115.42073620000001,"GC8C+37, Tangkup, Sidemen, Karangasem Regency, Bali, Indonesia",https://maps.google.com/?cid=13096197202268113582,OPERATIONAL,,park,park,5,2,
ChIJ6Qe9f40R0i0RZERLkAY2_pg,Kubu bangket base camp,-8.4860682,115.42039960000001,"GC7C+H5C, Jl. Bukit Juuk Manis, Sangkan Gn., Kec. Sidemen, Kabupaten Karangasem, Bali 80864, Indonesia",https://maps.google.com/?cid=11024308339668108388,OPERATIONAL,,,lodging,5,1,
