id,name,latitude,longitude,address,url,status,phone,primary-type,types,rating,rating-count,price-level
ChIJ1V8iT9s60i0RaKQP6JFPnbQ,Ibu Ana Home Stay,-8.5086046,115.13048619999999,"Unnamed Road , Br Subamia, Dencarik, Subamia, Tabanan, Tabanan Regency, Bali 82151, Indonesia",https://maps.google.com/?cid=13014645986252792936,OPERATIONAL,+62 813-5324-2879,guest_house,"guest_house, lodging",4.1,7,
ChIJy0hK4Oc60i0RjanVtw3TDRg,Perumahan Permata Hijau Resident Tuakilang Tabanan,-8.5152507,115.1297306,"Jl. Batukaru No.67, Denbantas, Kec. Tabanan, Kabupaten Tabanan, Bali 82115, Indonesia",https://maps.google.com/?cid=1733273487479777677,OPERATIONAL,,lodging,lodging,4.2,25,
ChIJl0B75Yg70i0RjdY4cknYJDM,PERUM HUMA LESTARI,-8.5140475,115.1320688,"Jl. Gn. Batukaru No.78, Denbantas, Kec. Tabanan, Kabupaten Tabanan, Bali 82123, Indonesia",https://maps.google.com/?cid=3685308205056448141,OPERATIONAL,,,lodging,4.4,29,
ChIJVa6zWGU70i0R12NDwl7HVFE,Warung Made Tuakilang,-8.5125218,115.13188160000001,"Jl. Batukaru No.67, Denbantas, Kec. Tabanan, Kabupaten Tabanan, Bali 82115, Indonesia",https://maps.google.com/?cid=5860528224915907543,OPERATIONAL,,restaurant,"restaurant, food",4.3,74,
ChIJxXIPaxo70i0R5BDZCF7PC8w,Waroeng jumah,-8.5115352,115.1340065,"Jl. kubontingguh, Denbantas, Kec. Tabanan, Kabupaten Tabanan, Bali 82123, Indonesia",https://maps.google.com/?cid=14703073411263434980,OPERATIONAL,+62 819-1651-3757,cafe,"cafe, food",4.3,3,
ChIJ4xQP3a870i0R3cEZaF9PdWU,Masakan Padang Sinar Pajar,-8.513925799999999,115.13120570000001,"Jl. Gn. Batukaru No.99, Denbantas, Kec. Tabanan, Kabupaten Tabanan, Bali 82123, Indonesia",https://maps.google.com/?cid=7310836841292874205,OPERATIONAL,+62 857-3980-1891,indonesian_restaurant,"indonesian_restaurant, restaurant, food",5,2,
ChIJxTBckGw70i0R-vnTV1b9Egg,Warung Nasi Sambel Bejek Men Luh De,-8.514681,115.13080520000001,"Jl. Batukaru No.69, Denbantas, Kec. Tabanan, Kabupaten Tabanan, Bali 82115, Indonesia",https://maps.google.com/?cid=581805849166739962,OPERATIONAL,+62 823-3959-0656,restaurant,"indonesian_restaurant, restaurant, food",,,
ChIJq-H56ec60i0RaUbWU8wadtY,Warung Nasi BE GENYOL Sari Sedana,-8.511921599999999,115.132332,"Jl. Batukaru, Denbantas, Kec. Tabanan, Kabupaten Tabanan, Bali 82115, Indonesia",https://maps.google.com/?cid=15453568636250637929,OPERATIONAL,+62 821-4406-2084,indonesian_restaurant,"indonesian_restaurant, restaurant, food",4.6,92,
ChIJ2y7tjNw60i0R7nDky2QUBUI,Bakso Selera,-8.5104084,115.13212440000001,"F4QJ+RRQ, Jl. Batukaru, Denbantas, Kec. Tabanan, Kabupaten Tabanan, Bali 82123, Indonesia",https://maps.google.com/?cid=4757231004536828142,OPERATIONAL,+62 853-3347-8687,indonesian_restaurant,"indonesian_restaurant, restaurant, food",4.4,80,
ChIJE2k7ad060i0RPZeHvIXNi3I,"Warung Makan Sami Urip(BAKSO Ayam/Babi,Chinese food)",-8.5135205,115.1314123,"Jl. Gn. Batukaru, Denbantas, Kec. Tabanan, Kabupaten Tabanan, Bali 82123, Indonesia",https://maps.google.com/?cid=8253916716363913021,OPERATIONAL,+62 819-1662-0518,restaurant,"restaurant, food",4.5,144,PRICE_LEVEL_INEXPENSIVE
ChIJG7Dp5Kc70i0RX5ghAM8fRUM,Kost pak oka,-8.5083285,115.13339919999999,"F4RM+M96, Jl. Batukaru, Wanasari, Kec. Penebel, Kabupaten Tabanan, Bali 82123, Indonesia",https://maps.google.com/?cid=4847315547855099999,OPERATIONAL,+62 821-4522-4683,private_guest_room,"private_guest_room, lodging",,,
ChIJgUFQ-Nw60i0RTlLHnWtxxBQ,Warung Nasi Angin,-8.511394899999999,115.13249499999998,"Jl. Gn. Batukaru No.88, Denbantas, Kec. Tabanan, Kabupaten Tabanan, Bali 82123, Indonesia",https://maps.google.com/?cid=1496445683216372302,OPERATIONAL,+62 822-3771-7976,indonesian_restaurant,"indonesian_restaurant, restaurant, food",4,52,
ChIJHULFjNY70i0RUKpiSES4JLo,BINGO 88,-8.511017299999999,115.13203430000002,"Jl. Batukaru No.200, Denbantas, Kec. Tabanan, Kabupaten Tabanan, Bali 82123, Indonesia",https://maps.google.com/?cid=13413048193627892304,OPERATIONAL,+62 818-0552-8178,bar,bar,5,2,
ChIJmWSgXOY70i0RtJVEGWf7wnI,Warung COBEK Putra Kembar ( Rujak Kuah Pindang & Tipat Cantok ),-8.5148212,115.1307254,"Jl. Batukaru No.76, Denbantas, Kec. Tabanan, Kabupaten Tabanan, Bali 82115, Indonesia",https://maps.google.com/?cid=8269448286029780404,OPERATIONAL,+62 819-9958-5200,meal_takeaway,"meal_takeaway, restaurant, food",4.8,6,
ChIJWYu3aBY70i0R4jXMmHgNQBY,Kedai Shawan,-8.5084806,115.13241029999999,"F4RJ+JX3, Wanasari, Tabanan, Tabanan Regency, Bali 82123, Indonesia",https://maps.google.com/?cid=1603296278954653154,OPERATIONAL,,cafe,"cafe, food",5,4,
ChIJP-CZE7E70i0RkdPNvA2Cahc,Warung Iang,-8.5088099,115.1322536,"F4RJ+FWC, Wanasari, Tabanan, Tabanan Regency, Bali 82123, Indonesia",https://maps.google.com/?cid=1687304005917463441,OPERATIONAL,+62 821-4785-8915,cafe,"cafe, food",4.8,5,
ChIJdVN7i4o70i0R1RNX8XmaWDs,Warung Makan Ketrik,-8.5118148,115.13235780000001,"F4QJ+7WH, Jl. Batukaru, Denbantas, Kec. Tabanan, Kabupaten Tabanan, Bali 82123, Indonesia",https://maps.google.com/?cid=4276337694719022037,OPERATIONAL,+62 857-3717-6966,restaurant,"restaurant, food",5,3,
ChIJmbmG3nE70i0RXgAciSY7IYo,Wr. Nasi Be genyol Buk Gilang,-8.515653499999999,115.13055070000001,"F4MJ+P6M, Jl. Celuk Tuakilang, Denbantas, Kec. Tabanan, Kabupaten Tabanan, Bali 82115, Indonesia",https://maps.google.com/?cid=9953301688160616542,OPERATIONAL,+62 877-0460-2396,restaurant,"restaurant, food",4.9,7,
ChIJrRsjxTs70i0ROwpYqK0FJyg,Warung Karmini,-8.511141799999999,115.13240789999999,"F4QJ+GXV, Jl. Batukaru, Denbantas, Kec. Tabanan, Kabupaten Tabanan, Bali 82123, Indonesia",https://maps.google.com/?cid=2893287529020656187,OPERATIONAL,+62 812-3914-9032,restaurant,"restaurant, food",5,1,
ChIJTa8Jfdw60i0R4bW6ExcYaNk,Wr. Suramadu,-8.5096974,115.1327144,"F4RM+43G, Jl. Batukaru, Denbantas, Kec. Tabanan, Kabupaten Tabanan, Bali 82181, Indonesia",https://maps.google.com/?cid=15665797791202588129,OPERATIONAL,+62 878-3470-2244,restaurant,"restaurant, food",,,
