id,name,latitude,longitude,address,url,status,phone,primary-type,types,rating,rating-count,price-level
ChIJjwVsIUlB0i0RBk16agfVjV0,Lapangan Puputan Badung (I Gusti Ngurah Made Agung),-8.656462699999999,115.21774219999998,"Dauh Puri Kangin, Denpasar Barat, Denpasar City, Bali, Indonesia",https://maps.google.com/?cid=6741278445071387910,OPERATIONAL,,park,park,4.7,3258,
ChIJQ608L5pA0i0R2of-ez9pLfM,Bali Museum,-8.6575741,115.21859080000002,"Jl. Mayor Wisnu No.1, Dangin Puri, Kec. Denpasar Tim., Kota Denpasar, Bali 80232, Indonesia",https://maps.google.com/?cid=17522777446552602586,OPERATIONAL,+62 361 222680,museum,"museum, tourist_attraction",4.4,2904,
ChIJky6y2ZtA0i0RMPn08WYBq9E,Agung Jagatnatha Temple,-8.6562819,115.21864199999999,"86V9+FFJ, Jl. Surapati, Dangin Puri, Kec. Denpasar Tim., Kota Denpasar, Bali 80232, Indonesia",https://maps.google.com/?cid=15108170916602116400,OPERATIONAL,,hindu_temple,"hindu_temple, tourist_attraction, place_of_worship",4.7,974,
ChIJ5WkezbNB0i0R0fZ7FUCSFOU,Koufu (Billiard & Cafe),-8.6615013,115.21518429999999,"Jl. Diponegoro No.59, Dauh Puri, Kec. Denpasar Bar., Kota Denpasar, Bali 80232, Indonesia",https://maps.google.com/?cid=16506979338155718353,OPERATIONAL,+62 851-5824-0771,cafe,"cafe, sports_complex, sporting_goods_store, event_venue, food, store",4.3,78,
ChIJpfibSpZB0i0RVqEn6GrIEjA,Tetuek Sangmong,-8.661273800000002,115.21637600000001,"Jl. Sutoyo No.42, Dauh Puri Kangin, Kec. Denpasar Bar., Kota Denpasar, Bali 80232, Indonesia",https://maps.google.com/?cid=3464051424888332630,OPERATIONAL,+62 813-5353-9399,coffee_shop,"coffee_shop, cafe, food, store",4.8,85,
ChIJ5ShdzJVB0i0RbokFTYKMtQY,Kedai Bibi Lin,-8.6620074,115.2184005,"Pertokoan Kartika Udayana, Jl. P.B. Sudirman Kav.23 B, Dauh Puri, Kec. Denpasar Bar., Kota Denpasar, Bali 80232, Indonesia",https://maps.google.com/?cid=483447026278041966,OPERATIONAL,+62 878-4221-3099,restaurant,"restaurant, food",4.5,114,
ChIJAfVR25lA0i0R4x0WmgnsaMI,Warung imeme sutoyo,-8.6594914,115.216382,"Jl. Sutoyo No.2, Dauh Puri Kangin, Kec. Denpasar Bar., Kota Denpasar, Bali 80232, Indonesia",https://maps.google.com/?cid=14008706166919929315,OPERATIONAL,+62 819-3875-9410,indonesian_restaurant,"indonesian_restaurant, restaurant, food",4.3,676,PRICE_LEVEL_INEXPENSIVE
ChIJt4j_xMZB0i0RRfD9FobNQHg,Sate Babi Pak Botak,-8.6631027,115.21530059999999,"86P8+Q43, Jl. Diponegoro Gg. Semerka, Dauh Puri, Kec. Denpasar Bar., Kota Denpasar, Bali 80232, Indonesia",https://maps.google.com/?cid=8665151658855886917,OPERATIONAL,+62 898-0166-000,restaurant,"restaurant, food",4.5,40,
ChIJqTRQQYE_0i0Rs_nVtIaXMjI,Men Lotri Kayumas,-8.6572552,115.2209663,"Banjar Kayumas Kaja, Jl. Letda Winda No.9, Dangin Puri, East Denpasar, Denpasar City, Bali 80232, Indonesia",https://maps.google.com/?cid=3617120055547263411,OPERATIONAL,+62 812-3919-1150,restaurant,"restaurant, food",4.4,630,
ChIJN_r8w5BA0i0RsTBC_Pib1po,Bodhi Leaf Eatery,-8.6614723,115.21967309999998,"Jl. Letda Made Putra No.2B, Dauh Puri, Kec. Denpasar Bar., Kota Denpasar, Bali 80232, Indonesia",https://maps.google.com/?cid=11157276620543373489,OPERATIONAL,+62 361 254307,vegan_restaurant,"vegan_restaurant, vegetarian_restaurant, restaurant, food",4.5,254,PRICE_LEVEL_MODERATE
ChIJjf7wCZpA0i0RiVAv1t-u4D4,Warung Rama Siobak Singaraja,-8.6611681,115.2187796,"Kayumas Kelod, Jl. Letda Made Putra No.56, Dangin Puri, Kec. Denpasar Tim., Kota Denpasar, Bali 80232, Indonesia",https://maps.google.com/?cid=4530813501529084041,OPERATIONAL,+62 851-0088-9377,chinese_restaurant,"chinese_restaurant, restaurant, food",4.6,704,
ChIJxeFgUeVB0i0R6Bmh2lkvfaY,Kopi Rumahan Bali,-8.6581484,115.21919489999998,"Jl. Kapten Regug No.7, Dangin Puri, Kec. Denpasar Tim., Kota Denpasar, Bali 80232, Indonesia",https://maps.google.com/?cid=11996797045351455208,OPERATIONAL,+62 813-3972-5789,cafe,"cafe, coffee_shop, food, store",4.6,197,
ChIJuWccuKNB0i0RfXmSdfZNjZw,Jojo's Pizza Slice Shop,-8.6570193,115.21970599999999,"Jl. Kapten Agung No.2, Dangin Puri, Kec. Denpasar Tim., Kota Denpasar, Bali 80232, Indonesia",https://maps.google.com/?cid=11280758362562787709,OPERATIONAL,+62 822-6630-4745,pizza_restaurant,"pizza_restaurant, restaurant, food",4.6,81,
ChIJr3ltwJBA0i0R6entsC0t5so,Bakso Solo,-8.6610836,115.21995919999999,"Jl. Letda Made Putra No.2A, Dangin Puri, Kec. Denpasar Tim., Kota Denpasar, Bali 80232, Indonesia",https://maps.google.com/?cid=14620422914570054121,OPERATIONAL,+62 819-3935-0902,indonesian_restaurant,"indonesian_restaurant, restaurant, food",4.5,1165,PRICE_LEVEL_INEXPENSIVE
ChIJwV96mJdA0i0Rat9mhXscLgo,Nasi Kuning Diponegoro - RiverView,-8.6616659,115.21488130000002,"Jl. Diponegoro No.70, Dauh Puri, Kec. Denpasar Bar., Kota Denpasar, Bali 80232, Indonesia",https://maps.google.com/?cid=733555106152636266,OPERATIONAL,+62 361 488307,fast_food_restaurant,"fast_food_restaurant, breakfast_restaurant, restaurant, food",4.5,368,
ChIJ8TbXcppA0i0RO9b35le18RM,RM. Kelinci III (Mie Ayam Jamur - Chinese Cuisine),-8.661521,115.21870899999999,"Dauh Puri, Denpasar Barat, Denpasar City, Bali 80232, Indonesia",https://maps.google.com/?cid=1437129145249683003,OPERATIONAL,+62 361 254397,restaurant,"chinese_restaurant, restaurant, food",4.4,1007,PRICE_LEVEL_MODERATE
ChIJEb9RUz5B0i0R5KVMdt5FTyc,Govinda's Vegetarian Restaurant,-8.6569031,115.21981310000001,"Jl. Kapten Agung No.2, Dangin Puri, Kec. Denpasar Tim., Kota Denpasar, Bali 80232, Indonesia",https://maps.google.com/?cid=2832559512409122276,CLOSED_TEMPORARILY,+62 878-6222-9874,vegetarian_restaurant,"vegetarian_restaurant, restaurant, food",4.7,190,
ChIJ41doZLBB0i0RgcXoYZAK4lQ,Wacana Kopi,-8.658317499999999,115.2207679,"kayumas klod, Jl. Letda Winda No.33, Dangin Puri, East Denpasar, Denpasar City, Bali 80232, Indonesia",https://maps.google.com/?cid=6116462859156768129,OPERATIONAL,+62 857-1991-6292,cafe,"cafe, coffee_shop, food, store",4.6,94,
ChIJw3agsXlB0i0RnkLgzpnkpns,Warung Mira,-8.6559711,115.2192688,"Jl. Surapati No.9, Dangin Puri, Kec. Denpasar Tim., Kota Denpasar, Bali 80232, Indonesia",https://maps.google.com/?cid=8910060262051037854,CLOSED_TEMPORARILY,,restaurant,"restaurant, food",4.3,317,
ChIJa-hOs3lB0i0R27k2Yurqytg,Selaksa Kopi,-8.660810999999999,115.2189348,"Jl. Letda Made Putra No.18, Dangin Puri, Kec. Denpasar Tim., Kota Denpasar, Bali 80232, Indonesia",https://maps.google.com/?cid=15621556549878987227,OPERATIONAL,+62 819-3436-6993,cafe,"cafe, food",4.7,49,
