id,name,latitude,longitude,address,url,status,phone,primary-type,types,rating,rating-count,price-level
ChIJ-5JOXT3_0S0RXHY9Lc9yx8k,"Toyabali- Resort, Beach Bungalows",-8.272751099999999,115.5913138,"Jln. Raya Kubu Amlapura, Tulamben, Kubu, Desa Tulamben, Karangasem, Bali 80853, Indonesia",https://maps.google.com/?cid=14539716156131735132,OPERATIONAL,+62 817-4740-751,hotel,"hotel, lodging",4.6,90,
ChIJHehYPD3_0S0RfjONdQuH_Ew,Minabali Bunga’lo,-8.272628,115.5897797,"Tulamben, Kubu, Karangasem Regency, Bali 80853, Indonesia",https://maps.google.com/?cid=5547457324300186494,OPERATIONAL,+62 811-3978-997,hotel,"hotel, lodging",4.4,60,
ChIJ72phDob_0S0RD6VprgEGySY,Lali Jiwa,-8.2692686,115.58965989999999,"jalan raya, Tulamben, Kec. Kubu, Kabupaten Karangasem, Bali 80853, Indonesia",https://maps.google.com/?cid=2794771648050996495,OPERATIONAL,+62 859-5370-1991,,lodging,5,7,
ChIJB0IeZfr_0S0R8EyH1y_mx28,Sate Gurita Tulamben,-8.2701814,115.5878349,"PHHQ+W4G, Jalan, Tulamben, Kec. Kubu, Kabupaten Karangasem, Bali 80853, Indonesia",https://maps.google.com/?cid=8054659551729241328,OPERATIONAL,+62 822-6632-9477,indonesian_restaurant,"indonesian_restaurant, restaurant, food",4.7,20,
ChIJnYodPbP_0S0RFSfQGsXuv3c,Warung Daluman,-8.269981699999999,115.58790169999999,"PHJQ+252, Jalan, Tulamben, Kec. Kubu, Kabupaten Karangasem, Bali 80853, Indonesia",https://maps.google.com/?cid=8628877941390976789,OPERATIONAL,,restaurant,"restaurant, food",,,
ChIJAwVd61n_0S0RNFkQqECgmNc,Ocean View Chinese Food 中餐,-8.2732288,115.5911941,"Jl. Raya, Tulamben, Kec. Kubu, Kabupaten Karangasem, Bali 80853, Indonesia",https://maps.google.com/?cid=15535343114172520756,OPERATIONAL,+86 136 1007 9619,restaurant,"restaurant, food",,,
ChIJi7oSOAD_0S0RxMvHS68Q61M,Puri Batu Belah,-8.2721734,115.59087579999999,"PHHR+49J, Jalan Pura Dalem, Tulamben, Kec. Kubu, Kabupaten Karangasem, Bali 80852, Indonesia",https://maps.google.com/?cid=6046945269751729092,OPERATIONAL,,camping_cabin,"camping_cabin, lodging",5,1,
