id,name,latitude,longitude,address,url,status,phone,primary-type,types,rating,rating-count,price-level
ChIJlZiyu88d0i0RnzrjCb7Mubs,Villa Kadek Nika,-8.3470371,115.39241000000001,"M93R+5XM, Suter, Kintamani, Bangli Regency, Bali 80614, Indonesia",https://maps.google.com/?cid=13527068072365734559,OPERATIONAL,,,lodging,3,1,
ChIJlQ1wcnQd0i0RgqBEewmv5QE,Wbj Warung Bu Jero. Nasi Campur,-8.3497615,115.38892519999999,"M92Q+3HV, Jl. Raya Penaga, Landih, Kec. Bangli, Kabupaten Bangli, Bali 80614, Indonesia",https://maps.google.com/?cid=136707818962329730,OPERATIONAL,,restaurant,"restaurant, food",,,
ChIJS7D_q54d0i0Rw7ArNwF1pJQ,Riski jaya garden,-8.349116,115.388745,"M92Q+3HV, Jl. Raya Penaga, Landih, Kec. Bangli, Kabupaten Bangli, Bali 80614, Indonesia",https://maps.google.com/?cid=10710814461874909379,OPERATIONAL,,park,park,5,1,
ChIJHc0TUQAd0i0RDrAhpsPwLkw,Mang tarya,-8.349546799999999,115.39184759999999,"M92R+JF6, Suter, Kintamani, Bangli Regency, Bali 80614, Indonesia",https://maps.google.com/?cid=5489589718907727886,OPERATIONAL,,bed_and_breakfast,"bed_and_breakfast, lodging",,,
ChIJV2JA38Yd0i0RNtlIp5hE2II,Hotel komang aplle,-8.3505255,115.39306219999999,"Suter, Kintamani, Bangli Regency, Bali, Indonesia",https://maps.google.com/?cid=9428361242332420406,OPERATIONAL,,hotel,"hotel, lodging",,,
