id,name,latitude,longitude,address,url,status,phone,primary-type,types,rating,rating-count,price-level
ChIJDYvVk5450i0RL6YriQYGpSM,Kos-kosan bringkit,-8.5767661,115.171506,"Jl. Pd. Bukit Sari, Kapal, Kec. Mengwi, Kabupaten Badung, Bali 80351, Indonesia",https://maps.google.com/?cid=2568465787625645615,OPERATIONAL,,hostel,"hostel, lodging",,,
ChIJheV2New50i0RdZCfkUPtpRg,Waroeng Tanggu,-8.5771079,115.1673345,"Jl. Pendawa No.37, Kekeran, Kec. Mengwi, Kabupaten Badung, Bali 80351, Indonesia",https://maps.google.com/?cid=1776086502529273973,OPERATIONAL,+62 819-1731-6989,restaurant,"restaurant, food",5,2,
ChIJlZHIruE70i0R1Ne8TwL3wyA,Kebun Buah Naga Organik,-8.570203099999999,115.16864439999999,"C5H9+WF6, Mengwitani, Mengwi, Badung Regency, Bali 80351, Indonesia",https://maps.google.com/?cid=2361002218972043220,OPERATIONAL,+62 813-3878-7700,restaurant,"restaurant, food",4.8,9,
ChIJweFondE70i0Rz_-S5kM-CgI,Warung KuBu tjulag-tjalig,-8.5713146,115.1657323,"Jl. Batur No.11, banjar culag-calig, Mengwitani, Kec. Mengwi, Kabupaten Badung, Bali 80351, Indonesia",https://maps.google.com/?cid=146998399195086799,OPERATIONAL,+62 877-5661-2188,restaurant,"restaurant, food",4.8,4,
ChIJTedYlLU50i0ReufZWt0mEAg,Samhita Homestay,-8.5773953,115.17183620000002,"C5FC+2PW, Jl. Siulan, Kapal, Kec. Mengwi, Kabupaten Badung, Bali 80351, Indonesia",https://maps.google.com/?cid=581007084084651898,OPERATIONAL,,lodging,lodging,4.7,3,
ChIJw3zfP_050i0R-DSAk6d89qY,PONDOK ANUGRAH,-8.577950999999999,115.17042699999999,"Jl. Siulan I Gg. II No.9b, Kapal, Kec. Mengwi, Kabupaten Badung, Bali 80351, Indonesia",https://maps.google.com/?cid=12030940513742894328,OPERATIONAL,,hostel,"hostel, lodging",5,3,
ChIJMeezkKg50i0Ri4TiXn3NOLw,Jay coffe shop,-8.5775021,115.1683456,"Gg. Jalak Banjar Dangin Pangkung, Kekeran, Kec. Mengwi, Kabupaten Badung, Bali 80351, Indonesia",https://maps.google.com/?cid=13562816216172758155,OPERATIONAL,+62 858-4754-2095,cafe,"cafe, food",5,1,
ChIJLRENBl450i0RFWC_PwmCuXU,WARUNG SINTA,-8.577051299999999,115.1661197,"C5F8+5CH, Jl. Pendawa, Kekeran, Kec. Mengwi, Kabupaten Badung, Bali 80351, Indonesia",https://maps.google.com/?cid=8482954349364862997,OPERATIONAL,+62 819-9959-3454,restaurant,"restaurant, grocery_store, store, food",5,4,
ChIJr5a3PXI50i0RQnu5Y4Vrfdw,D'Carik Kekeran,-8.5771079,115.1673345,"Jl. Pendawa No.37, Kekeran, Kec. Mengwi, Kabupaten Badung, Bali 80351, Indonesia",https://maps.google.com/?cid=15887973281080900418,CLOSED_TEMPORARILY,,bar,"bar, restaurant, food",4.9,17,
ChIJuSUtYA870i0RRXnYzKqpae8,Kost p.redo,-8.5700147,115.1673521,"Unnamed Road, C5H8+XWX, Mengwitani, Kec. Mengwi, Kabupaten Badung, Bali 80351, Indonesia",https://maps.google.com/?cid=17251506398665668933,CLOSED_TEMPORARILY,,lodging,lodging,4,1,
ChIJ06pSruI70i0Rw7eobQMf5Rw,Rumah Roti,-8.570717499999999,115.1658697,"Jl. Gandamayu No.1, Mengwitani, Kec. Mengwi, Kabupaten Badung, Bali 80113, Indonesia",https://maps.google.com/?cid=2082104502313859011,OPERATIONAL,+62 878-4404-0548,wholesaler,"wholesaler, restaurant, food",5,2,
ChIJLf2S4ls50i0RdS_yV6EE9DY,Hostel Tu,-8.5772985,115.1719989,"C5FC+3QQ, Jl. Siulan, Kapal, Kec. Mengwi, Kabupaten Badung, Bali 80351, Indonesia",https://maps.google.com/?cid=3959795063377244021,OPERATIONAL,+62 822-8002-9043,hostel,"hostel, lodging",4.6,14,
