id,name,latitude,longitude,address,url,status,phone,primary-type,types,rating,rating-count,price-level
ChIJ-bsRcHsn0i0R8GmeHh_NPlk,Puku Pods,-8.3569893,115.13269140000001,"Jl. Air Terjun Yeh Hoo, Br. Gunungsari Umakayu, Jatiluwih, Kec. Penebel, Kabupaten Tabanan, Bali 82152, Indonesia",https://maps.google.com/?cid=6430802851473025520,OPERATIONAL,+62 811-2817-858,camping_cabin,"camping_cabin, lodging",4.9,70,
ChIJSWAXusIn0i0Rq18X1Q0wwLw,Batu Lumbung Twin Waterfalls,-8.3553892,115.1348952,"J4VM+RXR, Desa Pekraman Soka, Senganan, Kec. Penebel, Kabupaten Tabanan, Bali 82152, Indonesia",https://maps.google.com/?cid=13600923710626684843,OPERATIONAL,,tourist_attraction,tourist_attraction,4,8,
ChIJydlm3vcn0i0RGzgdEmGk0-c,Damara villa jatiluwih,-8.3546728,115.1306532,"Kawan, Jalan, Jatiluwih, Penebel, Tabanan Regency, Bali 82152, Indonesia",https://maps.google.com/?cid=16704876179669989403,OPERATIONAL,+62 821-4614-5789,hotel,"hotel, lodging",4.5,15,
ChIJ30SuRFon0i0RoN7iE9T3aIE,Twin waterfall jatiluwih,-8.358736799999999,115.13421019999998,"Jalan Gunungsari Umakayu, Desa, Jatiluwih, Kec. Penebel, Kabupaten Tabanan, Bali 82152, Indonesia",https://maps.google.com/?cid=9324975518709374624,OPERATIONAL,+62 857-9226-2710,tourist_attraction,tourist_attraction,2.2,5,
ChIJPXe77Swn0i0RxiRRY3QymeE,Santya Loka Lodge & Twin Waterfall,-8.3588878,115.1340497,"Jatiluwih, Penebel, Tabanan Regency, Bali 82152, Indonesia",https://maps.google.com/?cid=16256079805434373318,OPERATIONAL,+62 877-5100-0390,,"hotel, lodging",5,18,
ChIJ9bzSIB4n0i0RO2MOhYJlcQ8,Jambu Kristal Nusantara Tourism,-8.3539637,115.12966050000001,"J4WH+CV7, Umakayu, Jatiluwih, Kec. Penebel, Kabupaten Tabanan, Bali 82152, Indonesia",https://maps.google.com/?cid=1112782194189689659,OPERATIONAL,+62 831-1777-6086,lodging,lodging,4.3,3,
ChIJdTz0PgAn0i0RSd4a_bpgSVY,Capila Cabin,-8.3557644,115.1285005,"J4VH+MC, Jatiluwih, Penebel, Tabanan Regency, Bali, Indonesia",https://maps.google.com/?cid=6217607116788260425,OPERATIONAL,,campground,"campground, park, lodging",,,
