id,name,latitude,longitude,address,url,status,phone,primary-type,types,rating,rating-count,price-level
ChIJc9Q3iJ6J0S0R5wtqFSaqQ4I,Village Above The Clouds,-8.3392121,115.1693231,"Batunya, Bedugul, Jalan Baturiti Bedugul, Angseri, Kec. Baturiti, Kabupaten Tabanan, Bali 82161, Indonesia",https://maps.google.com/?cid=9386533128914996199,OPERATIONAL,+62 859-7951-6427,hotel,"hotel, lodging",4.3,165,
ChIJ43Z8-1wn0i0RKLzmEg8z3No,Villa Desa Atas Awan,-8.33921,115.16940939999998,"Unnamed Road,Bangli, M569+8Q7, Angseri, Kec. Baturiti, Kabupaten Tabanan, Bali 82161, Indonesia",https://maps.google.com/?cid=15770536134979271720,OPERATIONAL,+62 821-4406-0373,hotel,"hotel, lodging",4.2,45,
ChIJqYVT5Vwn0i0Rg5AHBIox_Ls,Yoga Above the Clouds,-8.3391986,115.169419,"Banjar Munduk Andong Kelod, M569+8QF, Angseri, Baturiti, Tabanan Regency, Bali 82191, Indonesia",https://maps.google.com/?cid=13545756248066461827,OPERATIONAL,,hotel,"hotel, lodging",4.1,31,
ChIJI3cZYF0n0i0RXfxX6B_pFiQ,Warung Makan Sekar Gading,-8.339265,115.16523450000001,"M568+73X, Bangli, Baturiti, Tabanan Regency, Bali 82191, Indonesia",https://maps.google.com/?cid=2600522158104378461,OPERATIONAL,+62 857-3818-9465,restaurant,"restaurant, food",4.4,8,
ChIJMTsiYFsn0i0RzIFb7axg_pg,Rekriasi Wisata,-8.338842399999999,115.171156,"M56C+FF6 Munduk andong, Angseri, Kec. Baturiti, Kabupaten Tabanan, Bali 82161, Indonesia",https://maps.google.com/?cid=11024355233682391500,OPERATIONAL,+62 852-3862-2222,cafe,"cafe, food",1,1,
ChIJqacObvcn0i0RqF115Dh7p9A,Ngurah gpr,-8.3402628,115.16774649999999,"Br, M559+V3X, sandan, Bangli, Kec. Baturiti, Kabupaten Tabanan, Bali, Indonesia",https://maps.google.com/?cid=15035121365280972200,OPERATIONAL,,park,park,5,1,
ChIJA4gO6lon0i0R0YHczGj1S1s,Andong Hillview,-8.337977799999999,115.16707679999999,"Jl. Munduk Andong Kelod, Bangli, Kec. Baturiti, Kabupaten Tabanan, Bali 82191, Indonesia",https://maps.google.com/?cid=6578621511167148497,OPERATIONAL,,tourist_attraction,tourist_attraction,,,
ChIJ2-crTgAn0i0RhY-JMWRfX3c,Wr men kewer,-8.3394838,115.1653006,"M568+73X, Bangli, Baturiti, Tabanan Regency, Bali 82191, Indonesia",https://maps.google.com/?cid=8601698697233403781,OPERATIONAL,,bar,bar,,,
ChIJnUSgsWYn0i0RW7AAPN176o0,G. Dukuh Sakti,-8.342490699999999,115.16604189999998,"M558+2C3, Br. Sandan, Bangli, Kec. Baturiti, Kabupaten Tabanan, Bali 82191, Indonesia",https://maps.google.com/?cid=10226122094022799451,OPERATIONAL,,restaurant,"restaurant, food",,,
