id,name,latitude,longitude,address,url,status,phone,primary-type,types,rating,rating-count,price-level
ChIJJTiLcbMj0i0RWzVzOdSo6QY,Payung Rafting Bali,-8.4433679,115.24330899999998,"Jalan Raya, Melinggih Kelod, Kec. Payangan, Kabupaten Gianyar, Bali 80572, Indonesia",https://maps.google.com/?cid=498114863251535195,OPERATIONAL,+62 819-3301-2088,,tourist_attraction,4.5,548,
ChIJVa33Bs8h0i0R824y4UdLIaM,Quad Bike Ubud,-8.4383079,115.2440888,"Puhu, Payangan, Gianyar Regency, Bali 80572, Indonesia",https://maps.google.com/?cid=11754759274506645235,OPERATIONAL,+62 819-9954-5107,tourist_attraction,tourist_attraction,4.7,90,
ChIJ_ya1FlEi0i0RhZPQ4MNruoQ,Yasa Putra Sedana - BALINESE SHOW,-8.4394565,115.2442026,"Jl. Raya Payangan No.47, Melinggih Kelod, Kec. Payangan, Kabupaten Gianyar, Bali 80572, Indonesia",https://maps.google.com/?cid=9564075247709229957,OPERATIONAL,+62 819-9946-2978,tourist_attraction,tourist_attraction,4.7,27,
ChIJ2bkHZH0j0i0RMxAVAdUUnfY,ARCAM BALI,-8.4382427,115.24812769999998,"Jl. Arjuna No.6, Melinggih, Kec. Payangan, Kabupaten Gianyar, Bali 80572, Indonesia",https://maps.google.com/?cid=17770382609752592435,OPERATIONAL,+62 878-6007-4497,bar,bar,5,7,
ChIJ2R4MAQAj0i0RP2GHNSvDE8c,Bali ATV n Rafting Adventure,-8.4443479,115.243583,"H64V+7C8 Br pengaji, Melinggih Kelod, Kec. Payangan, Kabupaten Gianyar, Bali 80572, Indonesia",https://maps.google.com/?cid=14345023828454236479,OPERATIONAL,+62 859-4722-6906,tourist_attraction,tourist_attraction,5,35,
ChIJ2_hlclAi0i0R2uU0hza0E_Y,Warung Bu Dara,-8.4372198,115.2475278,"Jl. Raya Br Sema, Melinggih, Kec. Payangan, Kabupaten Gianyar, Bali 80572, Indonesia",https://maps.google.com/?cid=17731714304177399258,OPERATIONAL,+62 819-9979-8925,restaurant,"restaurant, food",4.1,16,PRICE_LEVEL_INEXPENSIVE
ChIJFT407H4j0i0RFThwOzl-8r8,Bakso udang pedas nendang payangan,-8.437082100000001,115.24576469999998,"Jl. Raya Ps. Griya No.65, Melinggih, Kec. Payangan, Kabupaten Gianyar, Bali 80572, Indonesia",https://maps.google.com/?cid=13831256189883660309,OPERATIONAL,,indonesian_restaurant,"indonesian_restaurant, restaurant, food",4.8,19,
ChIJq5mz61Yi0i0RHstsJeEajII,Kusuma Ubud Villa,-8.4424542,115.24400170000001,"H65V+2J6, Jl. Raya Payangan Jl. Begawan Giri, Melinggih Kelod, Kec. Payangan, Kabupaten Gianyar, Bali 80572, Indonesia",https://maps.google.com/?cid=9406923275967974174,OPERATIONAL,+62 819-9944-4741,bed_and_breakfast,"bed_and_breakfast, lodging",,,
ChIJz9za8lYi0i0RfliAxnpOlNE,Lalapan Cak Nomin Ubud 3,-8.4429567,115.2439085,"Jl. Raya Payangan No.12, Melinggih Kelod, Kec. Payangan, Kabupaten Gianyar, Bali 80572, Indonesia",https://maps.google.com/?cid=15101781739703392382,OPERATIONAL,,restaurant,"restaurant, food",5,2,
ChIJCQ93NVEi0i0Rz7ZawUzXs8M,Ternak Ayam Potong Bu Swandi,-8.4392181,115.24419719999999,"H66V+8M8, Jl. Raya Payangan, Br Pengaji, Kec. Gianyar, Kabupaten Gianyar, Bali 80511, Indonesia",https://maps.google.com/?cid=14101851582888589007,OPERATIONAL,+62 813-3845-1620,restaurant,"restaurant, food",,,
ChIJy55vPBgj0i0R9YIqAQn2emM,Made Narta,-8.439744899999999,115.24587609999999,"Br, Bucu, pengaji, H66W+492, Melinggih Kelod, Kec. Payangan, Kabupaten Gianyar, Bali 80572, Indonesia",https://maps.google.com/?cid=7168312275448267509,CLOSED_TEMPORARILY,,lodging,lodging,5,3,
ChIJe7wWMQAj0i0RFhGocGJhkUI,Leak Geprek Payangan,-8.4411233,115.24409229999999,"H65V+HJ4, Jl. Raya Payangan, Melinggih Kelod, Kec. Payangan, Kabupaten Gianyar, Bali 80572, Indonesia",https://maps.google.com/?cid=4796722153551040790,OPERATIONAL,,restaurant,"restaurant, food",5,1,
ChIJJxwY_68j0i0RiAnkC18RRzM,PESAN BETUTU,-8.4374424,115.24464189999999,"Jl. Raya Payangan No.47-51, Melinggih Kelod, Kec. Payangan, Kabupaten Gianyar, Bali 80572, Indonesia",https://maps.google.com/?cid=3694941119199840648,CLOSED_TEMPORARILY,,restaurant,"restaurant, food",,,
ChIJmd0Y7VYi0i0RpAMBDnb0qoI,DeXz Arditha,-8.4428098,115.24385249999999,"Jl. Raya Payangan No.14, Melinggih Kelod, Kec. Payangan, Kabupaten Gianyar, Bali 80572, Indonesia",https://maps.google.com/?cid=9415606758849708964,OPERATIONAL,+62 831-1977-1884,guest_house,"guest_house, lodging",5,1,
ChIJ1wTjMlEi0i0REvUNdjwx3OU,Mie Ayam Bakso Berkah Barokah,-8.437312799999999,115.24471919999999,"H67V+3VH, Jl. Raya Payangan, Br Pengaji, Kec. Gianyar, Kabupaten Gianyar, Bali 80511, Indonesia",https://maps.google.com/?cid=16563167665310266642,OPERATIONAL,+62 831-4303-5294,restaurant,"indonesian_restaurant, restaurant, food",3.7,3,
ChIJgSfSkXkj0i0Rr1Fh-gb_6WE,Warung Asik,-8.4386488,115.24724309999999,"H66W+HVC, Jl. Nakula, Melinggih, Kec. Payangan, Kabupaten Gianyar, Bali 80572, Indonesia",https://maps.google.com/?cid=7055450696688161199,CLOSED_TEMPORARILY,,meal_takeaway,"meal_takeaway, restaurant, food",4,1,
ChIJt0mnDAAj0i0RruChV3Ilb5w,Dewi Arta Seni Bali,-8.438702,115.24478539999998,"Jl. Raya Payangan No.Br, Melinggih Kelod, Kec. Payangan, Kabupaten Gianyar, Bali 80572, Indonesia",https://maps.google.com/?cid=11272269565358366894,OPERATIONAL,,art_gallery,art_gallery,,,
ChIJw7ZlPQAj0i0R7EQqkztQJfE,Don Be U,-8.4440093,115.2450595,"H64V+HGV, Jl. Raya Payangan, Melinggih Kelod, Kec. Payangan, Kabupaten Gianyar, Bali 80572, Indonesia",https://maps.google.com/?cid=17376382954081240300,OPERATIONAL,,park,park,,,
ChIJzwcQt6Ej0i0R70Z86M8jZbw,Ubud Activity ATV&Rafting,-8.4428852,115.24403369999999,"Br pengaji No.12, Melinggih Kelod, Kec. Payangan, Kabupaten Gianyar, Bali 80572, Indonesia",https://maps.google.com/?cid=13575296027643889391,OPERATIONAL,+62 878-6436-7500,tourist_attraction,tourist_attraction,5,2,
ChIJFRyQPlQj0i0RQYNCHaI_U4I,Ubud Chips ATV & Water Rafting,-8.4428983,115.2438435,"Jl. Raya Payangan Br. Pengaji No.12, Melinggih Kelod, Kec. Payangan, Kabupaten Gianyar, Bali 80572, Indonesia",https://maps.google.com/?cid=9390919613505766209,OPERATIONAL,+62 878-6436-7500,tourist_attraction,tourist_attraction,,,
