id,name,latitude,longitude,address,url,status,phone,primary-type,types,rating,rating-count,price-level
ChIJW9yzSdaa0S0RRr0V4R_9bh0,Villa Lalang,-8.170225199999999,115.0481944,"Unnamed Rd., Sukasada, Selat, Kec. Sukasada, Kabupaten Buleleng, Bali 81119, Indonesia",https://maps.google.com/?cid=2120910787900194118,OPERATIONAL,,lodging,lodging,4.5,29,
ChIJF4utblmb0S0Ruv92ACfPhWg,Villa Bukit Lovina,-8.1691972,115.0470151,"Unnamed Rd, R2JW+8RC, Selat, Kec. Sukasada, Kabupaten Buleleng, Bali 81119, Indonesia",https://maps.google.com/?cid=7531653718265495482,OPERATIONAL,+31 6 20443391,lodging,lodging,4.5,2,
ChIJwVEqhlKb0S0R6lH7tkyD4WE,Warung apolo,-8.164826399999999,115.0466187,"R2PW+3J9, Gambuh, Selat, Kec. Sukasada, Kabupaten Buleleng, Bali 81119, Indonesia",https://maps.google.com/?cid=7053062856949584362,OPERATIONAL,,night_club,night_club,,,
ChIJR0Ym5PKb0S0RTycwbj0qns0,Gon Homestay,-8.1700477,115.0479658,"R2HX+X5P, Selat, Sukasada, Buleleng Regency, Bali 81119, Indonesia",https://maps.google.com/?cid=14816326267425531727,OPERATIONAL,,private_guest_room,"private_guest_room, lodging",5,2,
ChIJFwwl36Wb0S0RFnF6TgyQpsY,Warung Deni Gambuh,-8.1711306,115.0484179,"Banjar Dinas Gambuh, Selat, Kec. Sukasada, Kabupaten Buleleng, Bali 81119, Indonesia",https://maps.google.com/?cid=14314286848174354710,OPERATIONAL,,restaurant,"restaurant, food",,,
