id,name,latitude,longitude,address,url,status,phone,primary-type,types,rating,rating-count,price-level
ChIJsyF1XRRB0i0RVJ6mEYr-oRM,Warung Laota,-8.784817,115.193048,"Pertokoan Niaga Nusa Dua, Puri Mumbul, Jl. Bypass Ngurah Rai No.77x, Jimbaran, Kec. Kuta Sel., Kabupaten Badung, Bali 80361, Indonesia",https://maps.google.com/?cid=1414691626926120532,OPERATIONAL,+62 811-3961-9393,chinese_restaurant,"chinese_restaurant, seafood_restaurant, restaurant, food",4.5,4974,PRICE_LEVEL_MODERATE
ChIJ9X-ummJD0i0R7AIDaLWRenk,Alindra Villas & Spa,-8.786706299999999,115.19174419999997,"Jl. Bypass Ngurah Rai Jl. Aneka Warga No.12, Jimbaran, Kec. Kuta Sel., Kabupaten Badung, Bali 80363, Indonesia",https://maps.google.com/?cid=8753469034068116204,OPERATIONAL,+62 361 777149,resort_hotel,"resort_hotel, hotel, spa, lodging",4.5,928,
ChIJ7xYOml5D0i0Rw8CUEG__90M,WIZZMIE JIMBARAN,-8.784928299999999,115.1927099,"Jl. Bypass Ngurah Rai, Jimbaran, Kec. Kuta Sel., Kabupaten Badung, Bali 80361, Indonesia",https://maps.google.com/?cid=4897663972273340611,OPERATIONAL,+62 811-3079-155,restaurant,"restaurant, food",4.7,1846,
ChIJDzqRz0RD0i0RFvH7mCbAbeg,Piramid Spa,-8.7837898,115.18818619999999,"Jl. Bypass Ngurah Rai No.16B, Jimbaran, Kec. Kuta Sel., Kabupaten Badung, Bali 80361, Indonesia",https://maps.google.com/?cid=16748253861268680982,OPERATIONAL,+62 361 4729319,spa,"spa, hair_salon, coffee_shop, cafe, hair_care, beauty_salon, food, store",4.5,579,
ChIJ72YdobND0i0RtC_z6hlyLfE,Rainbow Journey,-8.784557999999999,115.19190499999999,"Jl. Bypass Ngurah Rai No.74, Jimbaran, Bali, Kabupaten Badung, Bali 80511, Indonesia",https://maps.google.com/?cid=17378671992734166964,OPERATIONAL,+62 881-0220-83256,park,park,4.2,118,
ChIJDwSD1V9H0i0RJmcyC7pyQM8,Jaansan Bali Restaurant,-8.784735,115.193594,"Jl. Bypass Ngurah Rai No.96-B, Jimbaran, Kec. Kuta Sel., Kabupaten Badung, Bali 80361, Indonesia",https://maps.google.com/?cid=14934062507737900838,CLOSED_TEMPORARILY,+62 812-3916-1910,restaurant,"restaurant, food",4.7,903,
ChIJVXfY-IpF0i0RdaiR31r258E,Domino's Pizza,-8.7838791,115.18775,"Jl. Bypass Ngurah Rai, Jimbaran, Kec. Kuta Sel., Kabupaten Badung, Bali 80361, Indonesia",https://maps.google.com/?cid=13972407239098607733,OPERATIONAL,+62 1 500 366,pizza_restaurant,"pizza_restaurant, meal_delivery, meal_takeaway, restaurant, food",4.1,634,PRICE_LEVEL_MODERATE
ChIJB9ZyjSVD0i0Ruqgi53tZ5Tw,Haiwei Hotpot & Teppanyaki 海味火锅,-8.7848796,115.1919112,"Jl. Bypass Ngurah Rai No.150, Perarudan, Jimbaran, Kec. Kuta Sel., Kabupaten Badung, Bali 80361, Indonesia",https://maps.google.com/?cid=4388011800636074170,OPERATIONAL,+62 361 4466076,restaurant,"restaurant, food",4.5,199,
ChIJieM4YGND0i0RDIdX3evleiI,Coco Mart,-8.7847444,115.19447679999998,"658V+3R4, Jl. Bypass Ngurah Rai, Jimbaran, Kec. Kuta Sel., Kabupaten Badung, Bali 80361, Indonesia",https://maps.google.com/?cid=2484550945641826060,OPERATIONAL,+62 856-3717-787,supermarket,"atm, coffee_shop, supermarket, grocery_store, cafe, finance, wholesaler, food, store",4.2,460,
ChIJi4vbunxD0i0RjesIlTExVIw,Taman Jimbaran Village,-8.782389799999999,115.19405159999998,"Jl. Raya Taman Jimbaran No.37/39, Jimbaran, Kec. Kuta Sel., Kabupaten Badung, Bali 80361, Indonesia",https://maps.google.com/?cid=10111761152377154445,OPERATIONAL,+62 811-398-737,,lodging,4.3,44,
ChIJfzp_cedD0i0RrPmoQYZ_oks,Taga Social Space,-8.788578099999999,115.1894474,"Jl. Raya Mandiri No.11, Jimbaran, Kec. Kuta Sel., Kabupaten Badung, Bali 80361, Indonesia",https://maps.google.com/?cid=5450058713675659692,OPERATIONAL,+62 817-7548-1326,,"restaurant, food, store",4.9,157,
ChIJB9oV23pD0i0R1JIbdv0U-zE,BALI VISAS | VIP LOUNGE,-8.7844259,115.1940319,"Jl. Raya Taman Jimbaran No.8A, Jimbaran, Kec. Kuta Sel., Kabupaten Badung, Bali 80361, Indonesia",https://maps.google.com/?cid=3601495405853643476,OPERATIONAL,+62 819-7873-378,bar,"night_club, bar",4.1,45,
ChIJk2RKwGJD0i0RLrSSc9zTo7A,Vidi Boutique Hotel,-8.7857808,115.19038669999999,"Jl. Bypass Ngurah Rai Gg. Taman Sari No.8, Jimbaran, Kec. Kuta Sel., Kabupaten Badung, Bali 80361, Indonesia",https://maps.google.com/?cid=12728249915664413742,OPERATIONAL,+62 822-3797-0888,hotel,"hotel, lodging",4.5,122,
ChIJl5nIBrZF0i0RhMBrlqR2Qdw,Pizza Hut Delivery - PHD Indonesia,-8.7857112,115.1876098,"Jl. Danau Batur Raya Lingkungan Taman Griya, Jimbaran, Kec. Kuta Sel., Kabupaten Badung, Bali 50362, Indonesia",https://maps.google.com/?cid=15871097011100696708,OPERATIONAL,+62 1 500 600,meal_takeaway,"meal_delivery, meal_takeaway, restaurant, food",4.4,247,PRICE_LEVEL_MODERATE
ChIJA0mY9z5F0i0RcwKSdFMfU-g,seru coffee,-8.784686599999999,115.1876159,"Gerbang Taman Griya, Jl. Danau Batur Raya, Jimbaran, Kec. Kuta Sel., Kabupaten Badung, Bali 80361, Indonesia",https://maps.google.com/?cid=16740758683164738163,OPERATIONAL,+62 812-3999-3009,coffee_shop,"coffee_shop, cafe, food, store",4.8,212,
ChIJmxB2eGND0i0RhpmxbY4bWUY,Monumen Taman Mumbul,-8.7856993,115.19421399999997,"Jl. Bypass Ngurah Rai, Jimbaran, Kec. Kuta Sel., Kabupaten Badung, Bali 80361, Indonesia",https://maps.google.com/?cid=5069113154121865606,OPERATIONAL,+62 813-3800-9501,tourist_attraction,tourist_attraction,4,92,
ChIJGZ5g2rBF0i0RQUcw9taS7DQ,Truffle Belly Jimbaran,-8.7859304,115.18745679999998,"Jl. Danau Bratan Raya No.3B, Jimbaran, Kec. Kuta Sel., Kabupaten Badung, Bali 80361, Indonesia",https://maps.google.com/?cid=3813584436426983233,OPERATIONAL,+62 813-2277-3132,fast_food_restaurant,"fast_food_restaurant, restaurant, food",4.1,38,
ChIJQTJ4j51E0i0RuOQqdYuTtjk,Varial Coffee & Eatery,-8.786758599999999,115.18830570000002,"Jl. Kubung Batu Raya, Jimbaran, Kec. Kuta Sel., Kabupaten Badung, Bali 80361, Indonesia",https://maps.google.com/?cid=4158673533098714296,OPERATIONAL,+62 813-3983-7681,coffee_shop,"coffee_shop, cafe, food, store",4.6,120,
ChIJlZaWs1FF0i0R5VYrd59BKeI,Burger Bangor Jimbaran,-8.785908899999999,115.18735509999998,"Jl. Danau Bratan Raya No.3C, Jimbaran, Kec. Kuta Sel., Kabupaten Badung, Bali 80361, Indonesia",https://maps.google.com/?cid=16296628879771784933,OPERATIONAL,+62 858-9107-7930,fast_food_restaurant,"fast_food_restaurant, restaurant, food",4.4,148,
ChIJr-J7y8ZF0i0Rvor33LLFDVM,Taman Griya Rensidence,-8.7849753,115.1875235,"Jl. Danau Buyan Barat Jl. Taman Griya No.4, Jimbaran, Kec. Kuta Sel., Kabupaten Badung, Bali 80361, Indonesia",https://maps.google.com/?cid=5984656851847318206,OPERATIONAL,,private_guest_room,"private_guest_room, lodging",4.1,503,
