id,name,latitude,longitude,address,url,status,phone,primary-type,types,rating,rating-count,price-level
ChIJlRROs0MR0i0RsDXMHPgQACM,WakAsih,-8.5420198,115.3991679,"Jl. Kenyeri No.1, Semarapura Kelod, Kec. Klungkung, Kabupaten Klungkung, Bali 80711, Indonesia",https://maps.google.com/?cid=2522034449148556720,OPERATIONAL,+62 812-3858-715,bed_and_breakfast,"bed_and_breakfast, guest_house, lodging",3.6,95,
ChIJ1y1As1wR0i0R4cP4bvrdwdo,Kos Graha Karsa,-8.546492899999999,115.39733340000001,"F93W+CW4, Jl. Angsoka, Semarapura Kelod, Kec. Klungkung, Kabupaten Klungkung, Bali 80716, Indonesia",https://maps.google.com/?cid=15763124238446805985,OPERATIONAL,+62 856-3864-740,lodging,lodging,4.4,29,
ChIJD1ewbN0R0i0RLi54JJm7VqA,Vanbenk Coffee & Eatery,-8.541796500000002,115.39653260000001,"Jl. Matahari No.1, Semarapura Kelod, Kec. Klungkung, Kabupaten Klungkung, Bali 80716, Indonesia",https://maps.google.com/?cid=11553628160481832494,OPERATIONAL,,coffee_shop,"coffee_shop, cafe, bakery, restaurant, food, store",4.7,123,
ChIJew_A-aUR0i0R9VCa6ysrC50,KARSA HOMESTAY Penginapan Klungkung,-8.544415299999999,115.3968293,"Jl. Mahoni, Semarapura Kelod, Kec. Klungkung, Kabupaten Klungkung, Bali 80714, Indonesia",https://maps.google.com/?cid=11316185956334850293,OPERATIONAL,+62 856-3864-740,private_guest_room,"private_guest_room, hotel, lodging",4.8,19,
ChIJASAVUBYR0i0RCK7z2-rwCL4,Warung bebek bu olip,-8.545893099999999,115.39759449999998,"Semarapura Kelod, Klungkung, Klungkung Regency, Bali 80716, Indonesia",https://maps.google.com/?cid=13693459558523186696,OPERATIONAL,+62 813-3957-7479,restaurant,"restaurant, food",4.8,34,
ChIJoYoT1EMR0i0R2H47mwY3Mw0,My Pizza,-8.54144,115.3988409,"Jl. Kecubung No.30, Semarapura Kelod, Kec. Klungkung, Kabupaten Klungkung, Bali 80716, Indonesia",https://maps.google.com/?cid=951164447819005656,OPERATIONAL,+62 878-6111-9270,pizza_restaurant,"pizza_restaurant, restaurant, food",4.3,81,
ChIJyQwfYyUR0i0Rgs89XXPzDSA,Kost Yoga Klungkung,-8.541959199999999,115.39201449999999,"F95R+6R6, Takmung, Banjarangkan, Klungkung Regency, Bali 80716, Indonesia",https://maps.google.com/?cid=2309769860722052994,OPERATIONAL,+62 857-3835-2568,lodging,lodging,3.8,16,
ChIJR0BpetMR0i0R_l27E_Ij0mc,"warung BABI GULING ""MEK GEDE""",-8.541888499999999,115.399744,"Jl. Kecubung No.15, Semarapura Kelod, Kec. Klungkung, Kabupaten Klungkung, Bali 80761, Indonesia",https://maps.google.com/?cid=7481081453635919358,OPERATIONAL,+62 857-3884-6030,brunch_restaurant,"brunch_restaurant, restaurant, food",5,4,
ChIJI7nnM0UR0i0REQ61DQ3EFLc,Warung Bu Imam,-8.5458423,115.39323060000001,"Jl. Raya Batu Tabih, Takmung, Kec. Banjarangkan, Kabupaten Klungkung, Bali 80716, Indonesia",https://maps.google.com/?cid=13192384768818613777,OPERATIONAL,+62 812-4611-800,indonesian_restaurant,"indonesian_restaurant, restaurant, food",4.4,243,
ChIJD7ikZ8YR0i0Rx25CfqoB7_o,BLESS KOPI,-8.543873,115.3930073,"Jl. Raya Batu Tabih, Takmung, Kec. Banjarangkan, Kabupaten Klungkung, Bali 80716, Indonesia",https://maps.google.com/?cid=18081672860690181831,OPERATIONAL,+62 877-9065-1824,coffee_shop,"coffee_shop, cafe, food, store",5,5,
ChIJS85wVnIR0i0RnWy2yh0be7Q,Kedai kopling,-8.546136599999999,115.39315459999999,"Jl. Raya Batu Tabih No, Takmung, Kec. Banjarangkan, Kabupaten Klungkung, Bali 80716, Indonesia",https://maps.google.com/?cid=13005018163731393693,OPERATIONAL,+62 877-5208-9709,coffee_shop,"coffee_shop, cafe, food, store",4.7,10,
ChIJ3wxv3XoR0i0RoXPd0QYx9ds,TAHU KLUNGKUNG,-8.5448648,115.3990349,"F94X+3J3, Jl. Sakura I, Semarapura Kelod, Kec. Klungkung, Kabupaten Klungkung, Bali 80716, Indonesia",https://maps.google.com/?cid=15849628368960844705,OPERATIONAL,+62 819-9995-5422,restaurant,"restaurant, food",5,3,
ChIJn2kAsiAR0i0RrMWQ1k8YsHU,Mini Store Dapur Mama Wah,-8.541335499999999,115.3954356,"Jl. Kecubung No.99, Semarapura Kelod, Kec. Klungkung, Kabupaten Klungkung, Bali 80716, Indonesia",https://maps.google.com/?cid=8480304829519938988,OPERATIONAL,+62 831-1962-2747,brunch_restaurant,"brunch_restaurant, restaurant, food",3.8,4,
ChIJz0_QKAAR0i0RIRX4OVURb3o,Sindikat Coffee,-8.5415032,115.39756749999998,"Jl. Kecubung No.45, Semarapura Kelod, Kec. Klungkung, Kabupaten Klungkung, Bali 80761, Indonesia",https://maps.google.com/?cid=8822289252784543009,OPERATIONAL,,coffee_shop,"coffee_shop, cafe, food, store",5,9,
ChIJ7Q1HFs0R0i0R0NGsj5Zezwo,WAROENG BURGER,-8.541200500000002,115.39664859999999,"Jl. Ratna, Semarapura Kelod, Kec. Klungkung, Kabupaten Klungkung, Bali 80711, Indonesia",https://maps.google.com/?cid=778945261306958288,OPERATIONAL,,hamburger_restaurant,"hamburger_restaurant, american_restaurant, restaurant, food",4.4,16,
ChIJ2Y9gtEAR0i0Rja6oFmZYFgo,Warung Mbok Ida Rujak Cingur dan Lalapan,-8.5431133,115.3990542,"F94X+QJ3, Semarapura Kelod, Klungkung, Klungkung Regency, Bali 80716, Indonesia",https://maps.google.com/?cid=726865585356975757,OPERATIONAL,,restaurant,"restaurant, food",4.9,7,
ChIJT-PxzEMR0i0RZaPoR-m-n0s,Puri Binatu,-8.542085499999999,115.39916830000001,"F95X+5M7, Jl. Kenyeri, Semarapura Kelod, Kec. Klungkung, Kabupaten Klungkung, Bali 80716, Indonesia",https://maps.google.com/?cid=5449283983284675429,CLOSED_TEMPORARILY,,lodging,lodging,3.8,5,
ChIJQ0arzEUR0i0RJt6tMDD5kQk,Rumah Nasi Goreng Mentik Sari,-8.541584499999999,115.3943902,"Jl. Flamboyan, Semarapura Kauh, Kec. Klungkung, Kabupaten Klungkung, Bali 80716, Indonesia",https://maps.google.com/?cid=689606203334843942,OPERATIONAL,+62 821-4644-2240,indonesian_restaurant,"indonesian_restaurant, restaurant, food",4.2,17,
ChIJyVKs4UIR0i0Rg25bgdgYY0k,rumah makan prima rasa vegetarian,-8.5422926,115.3989485,"F95X+3HP, Semarapura Kelod, Klungkung, Klungkung Regency, Bali 80716, Indonesia",https://maps.google.com/?cid=5288097705625349763,OPERATIONAL,,vegetarian_restaurant,"vegetarian_restaurant, restaurant, food",4.9,7,
ChIJeWYb90MR0i0RQ93d4wVEHQ0,Depot Dapur Segar,-8.542065899999999,115.39669620000001,"Jl. Matahari, Satra, Kec. Klungkung, Kabupaten Klungkung, Bali 80716, Indonesia",https://maps.google.com/?cid=944986288906165571,OPERATIONAL,+62 822-4783-8678,restaurant,"restaurant, food",4.2,39,
