id,name,latitude,longitude,address,url,status,phone,primary-type,types,rating,rating-count,price-level
ChIJxcEcRyUe0i0R5jjrBCDRPGc,Мандариновые Плантации,-8.327639,115.34433299999998,"M8CV+WPW, Sekardadi, Kintamani, Bangli Regency, Bali 80652, Indonesia",https://maps.google.com/?cid=7439050619960899814,OPERATIONAL,,tourist_attraction,tourist_attraction,3.9,7,
ChIJ0U3GLzoe0i0RbmHHTD4pNHo,Jaya Giri Homestay,-8.332866300000001,115.3453732,"Jl. Sriwijaya No.6, Sekardadi, Kec. Kintamani, Kabupaten Bangli, Bali 80652, Indonesia",https://maps.google.com/?cid=8805708518969008494,OPERATIONAL,,hostel,"hostel, lodging",,,
ChIJgX84gDYf0i0Rn2CVqba_mqY,Pondok Suparta Jring,-8.3279742,115.3446264,"M8CV+RV6 pondok suparta jring, Sekardadi, Kec. Kintamani, Kabupaten Bangli, Bali 80652, Indonesia",https://maps.google.com/?cid=12005118547959570591,OPERATIONAL,+62 822-4754-4350,cafe,"cafe, food",1,1,
ChIJD7OIi-0f0i0Rnds9VgYkK-Y,Di pondoke,-8.333004299999999,115.3485648,"M88X+GM4, Jl. Linjong, Pengotan, Kec. Bangli, Kabupaten Bangli, Bali 80614, Indonesia",https://maps.google.com/?cid=16585389662357281693,OPERATIONAL,,,lodging,,,
ChIJkVIIXTce0i0RbnYkbU6axjg,Top Chicken,-8.3348537,115.34242779999998,"M88R+3X3, Jl. Raya Kayuambua, Pengotan, Kec. Bangli, Kabupaten Bangli, Bali 80614, Indonesia",https://maps.google.com/?cid=4091126973141907054,OPERATIONAL,+62 857-3882-7175,restaurant,"restaurant, food",4.3,8,
ChIJ_ejhiy0f0i0RPL-wKW46PxE,Top Fried Chiken,-8.327632099999999,115.3435887,"M8CV+WCW, Jl. Raya Sekardadi, Batur Tengah, Kec. Kintamani, Kabupaten Bangli, Bali 80652, Indonesia",https://maps.google.com/?cid=1242776266997808956,OPERATIONAL,+62 857-3931-9425,meal_takeaway,"meal_takeaway, restaurant, food",,,
