id,name,latitude,longitude,address,url,status,phone,primary-type,types,rating,rating-count,price-level
ChIJJeBDR22a0S0RpAYUsfNXSRg,Hotel Grand Wijaya,-8.115814199999999,115.0808258,"Jl. Sudirman No.74, Banyuasri, Kec. Buleleng, Kabupaten Buleleng, Bali 81116, Indonesia",https://maps.google.com/?cid=1750026634369697444,OPERATIONAL,+62 362 21915,hotel,"hotel, lodging",4.2,483,
ChIJ965K-Gyb0S0RBP9FtHK3RXI,Mie Kober,-8.1109024,115.08462969999998,"Jl. Dewi Sartika Utara No.34, Kaliuntu, Kec. Buleleng, Kabupaten Buleleng, Bali 81116, Indonesia",https://maps.google.com/?cid=8234189196995460868,OPERATIONAL,+62 813-3233-2336,restaurant,"restaurant, food",4.1,1285,
ChIJW1WsrQ2a0S0R7v-RHDBR5Ng,New Garuda Hotel,-8.1120044,115.0849846,"Jl. A. Yani No.76, Kaliuntu, Kec. Buleleng, Kabupaten Buleleng, Bali 81116, Indonesia",https://maps.google.com/?cid=15628705873962074094,OPERATIONAL,,hotel,"hotel, lodging",3.6,342,
ChIJn0RVRgma0S0R7Iav2scwv08,Valencia Bakery,-8.1116803,115.08553699999997,"Jl. A. Yani No.10, Kp. Anyar, Kec. Buleleng, Kabupaten Buleleng, Bali 81114, Indonesia",https://maps.google.com/?cid=5746365284473603820,OPERATIONAL,+62 362 21220,bakery,"bakery, breakfast_restaurant, restaurant, food, store",4.5,270,PRICE_LEVEL_MODERATE
ChIJt8wXm4ib0S0RzS0zONI2oxE,Kedai Umah Pradja,-8.116659799999999,115.08169600000001,"Jl. Ratna No.8, Banyuasri, Singaraja, Kabupaten Buleleng, Bali 81116, Indonesia",https://maps.google.com/?cid=1270919796362522061,OPERATIONAL,+62 819-1699-0330,restaurant,"restaurant, food",4,40,
ChIJz0n-T4qb0S0RSa2njdiXUFg,LUCKY ICELAND,-8.1135216,115.0852748,"Jl. Angsoka, Kaliuntu, Kec. Buleleng, Kabupaten Buleleng, Bali 81116, Indonesia",https://maps.google.com/?cid=6363753229819817289,OPERATIONAL,+62 818-0566-9202,restaurant,"restaurant, food",4.2,55,
ChIJO4bxchGa0S0R7u8ynI3BH-c,Pantai Skip,-8.1084759,115.079242,"Singaraja, V3RH+JM5, Banyuasri, Kec. Buleleng, Kabupaten Buleleng, Bali 81116, Indonesia",https://maps.google.com/?cid=16654242760994516974,OPERATIONAL,,tourist_attraction,tourist_attraction,4,91,
ChIJqbDOUQya0S0RLkyZyGdidTE,Conato Bakery,-8.1123083,115.0843047,"Jl. A. Yani No.83, Kaliuntu, Kec. Buleleng, Kabupaten Buleleng, Bali 81116, Indonesia",https://maps.google.com/?cid=3563862878020258862,OPERATIONAL,+62 362 3304604,bakery,"bakery, breakfast_restaurant, restaurant, food, store",4.3,275,PRICE_LEVEL_MODERATE
ChIJPQa5xSqb0S0RdPTsur4RuaQ,Kos Sintia,-8.112650499999999,115.0812259,"Jl. Jalak No.2, Kaliuntu, Kec. Buleleng, Kabupaten Buleleng, Bali 81116, Indonesia",https://maps.google.com/?cid=11869537803789202548,OPERATIONAL,+62 812-3655-2699,,lodging,5,35,
ChIJzf888hGa0S0R1Ukf59_sPzs,Edutel Undiksha,-8.1092672,115.0809217,"V3RJ+79V, Jl. Jatayu, Kaliuntu, Kec. Buleleng, Kabupaten Buleleng, Bali 60253, Indonesia",https://maps.google.com/?cid=4269391418169969109,OPERATIONAL,+62 878-6207-2400,hotel,"hotel, lodging",4.1,100,
ChIJlzvW9hGa0S0RLFBfzlvrsIY,Warung Mie Ayam Bakso Mas Bejo,-8.1095518,115.0811708,"Jl. Jatayu No.11, Kaliuntu, Kec. Buleleng, Kabupaten Buleleng, Bali 81116, Indonesia",https://maps.google.com/?cid=9705515976520323116,OPERATIONAL,+62 812-3722-6016,indonesian_restaurant,"indonesian_restaurant, restaurant, food",4.6,341,PRICE_LEVEL_INEXPENSIVE
ChIJ77aD5TGb0S0RJ_rv47ElUNQ,Mie Ayam Koprol,-8.115014799999999,115.0819779,"Jl. Cempaka No.7, Banyuasri, Kec. Buleleng, Kabupaten Buleleng, Bali 81116, Indonesia",https://maps.google.com/?cid=15298769380141169191,OPERATIONAL,+62 831-1436-2626,restaurant,"restaurant, food",4.3,155,
ChIJR9zNKW2a0S0Rnpm8hvBdk6A,Rumah Makan Padang Bareh Solok,-8.115626599999999,115.07887780000001,"Jl. A. Yani No.168, Banyuasri, Kec. Buleleng, Kabupaten Buleleng, Bali 81116, Indonesia",https://maps.google.com/?cid=11570695155278977438,OPERATIONAL,+62 811-3846-300,indonesian_restaurant,"indonesian_restaurant, restaurant, food",4.4,285,PRICE_LEVEL_INEXPENSIVE
ChIJc_R1RQya0S0RsxhAtavl0ko,Istana Cake & Bakery,-8.1115041,115.0858691,"Jl. A. Yani No.64, Kaliuntu, Kec. Buleleng, Kabupaten Buleleng, Bali 81116, Indonesia",https://maps.google.com/?cid=5391624229558950067,OPERATIONAL,+62 878-9177-8899,bakery,"bakery, breakfast_restaurant, restaurant, food, store",4.1,151,PRICE_LEVEL_MODERATE
ChIJA2gnVC-b0S0RL1vGbWcfkdg,Burger Bangor Express 86,-8.1146613,115.08004670000001,"V3PJ+42M, Jl. A. Yani, Banyuasri, Kec. Buleleng, Kabupaten Buleleng, Bali, Indonesia",https://maps.google.com/?cid=15605288712899287855,OPERATIONAL,,fast_food_restaurant,"fast_food_restaurant, restaurant, food",3.6,39,
ChIJH3w6cA2a0S0RbsXZ5pD1Nuo,Hotel Saka Bindu,-8.113033999999999,115.0828545,"Jl. A. Yani No.104, Kaliuntu, Kec. Buleleng, Kabupaten Buleleng, Bali 81116, Indonesia",https://maps.google.com/?cid=16876946656314639726,OPERATIONAL,+62 362 21791,hotel,"hotel, lodging",4,32,
ChIJAxsIOAWb0S0R8dXx_EFJxjE,Bakso Ayam Pak Wayan Dogler,-8.1114734,115.0825109,"Jl. Gelatik No.11, Kaliuntu, Kec. Buleleng, Kabupaten Buleleng, Bali 81116, Indonesia",https://maps.google.com/?cid=3586634701012588017,OPERATIONAL,+62 817-3784-5195,indonesian_restaurant,"indonesian_restaurant, restaurant, food",4.8,108,
ChIJ-YV4rMeb0S0R5kEKkJEKMKk,"Martabak Pecenongan 78, Singaraja",-8.1146237,115.08018650000001,"V3PJ+43V, Banyuasri, Buleleng, Buleleng Regency, Bali 81116, Indonesia",https://maps.google.com/?cid=12191255811595059686,OPERATIONAL,,restaurant,"restaurant, food",4.2,16,
ChIJr6o8odab0S0RNkqT_BF9PCA,Winners Cafe & Carwash,-8.109961499999999,115.0841593,"Jl. Dewi Sartika No.44, Kaliuntu, Kec. Buleleng, Kabupaten Buleleng, Bali 81116, Indonesia",https://maps.google.com/?cid=2322869024021760566,OPERATIONAL,+62 881-0379-72988,indonesian_restaurant,"indonesian_restaurant, restaurant, food",3.6,54,
ChIJ2bGJPgCb0S0RsOl5qknBY4c,Seblak Prasmanan BundCemil's,-8.110446999999999,115.07955489999999,"Jl. Skip No.20, Kaliuntu, Kec. Buleleng, Kabupaten Buleleng, Bali 81116, Indonesia",https://maps.google.com/?cid=9755853739951516080,OPERATIONAL,,indonesian_restaurant,"indonesian_restaurant, restaurant, food",5,1,
