id,name,latitude,longitude,address,url,status,phone,primary-type,types,rating,rating-count,price-level
ChIJ0esAB5lz0i0RS9_fyaGOEac,SemayaOne Beach Hotel,-8.674796599999999,115.548105,"Jl. Raya Kutampi, Kutampi Kaler, Kec. Nusa Penida, Kabupaten Klungkung, Bali 80771, Indonesia",https://maps.google.com/?cid=12038560104465817419,OPERATIONAL,+62 819-9906-3034,hotel,"hotel, lodging",4.2,365,
ChIJifBfuetz0i0RVCW7Ke9EmxI,Gedhong Hostel,-8.6751474,115.54880289999998,"Kutampi Kaler, Nusa Penida, Klungkung Regency, Bali 80771, Indonesia",https://maps.google.com/?cid=1340741108060857684,OPERATIONAL,+62 812-3760-498,hostel,"hostel, lodging",4.7,111,
ChIJbRUz65tz0i0RVAGDGP9TAHk,Nemu Kitchen,-8.675416499999999,115.54738970000001,"Jl. Ped - Buyuk, Kutampi Kaler, Kec. Nusa Penida, Kabupaten Klungkung, Bali 80771, Indonesia",https://maps.google.com/?cid=8719061233682284884,OPERATIONAL,+62 831-1454-5870,restaurant,"restaurant, food",4.6,282,
ChIJhWMGaIpz0i0Ru2BQpktwI3M,ESA-G Bar & Beach Club,-8.6741803,115.54932190000001,"Jl. Nusa Indah, Banjar, Kutampi, Kec. Nusa Penida, Kabupaten Klungkung, Bali 80771, Indonesia",https://maps.google.com/?cid=8296598408761729211,OPERATIONAL,+62 812-3730-7440,bar,bar,4,92,
ChIJ37CTCjdz0i0RiB6KwCmYqAs,The Kama,-8.6774632,115.54880560000001,"Jl. Nusa Indah No.53, Kutampi Kaler, Kec. Nusa Penida, Kabupaten Klungkung, Bali 80771, Indonesia",https://maps.google.com/?cid=840088635595955848,OPERATIONAL,+62 812-1111-7021,resort_hotel,"resort_hotel, hotel, lodging",4.6,82,
ChIJg7Z7l1lz0i0R7wIbHXtJGkk,Gara Gara Sea View,-8.6773099,115.5476776,"Jln. Grya Purna Ashram, Kutampi Kaler, Kec. Nusa Penida, Kabupaten Klungkung, Bali 80771, Indonesia",https://maps.google.com/?cid=5267603507281330927,OPERATIONAL,+62 857-3877-2258,resort_hotel,"resort_hotel, hotel, lodging",5,114,
ChIJl-19_49A0i0R9lU0A-D1IcE,Kaylas Hill Resort,-8.6782988,115.54750680000001,"Jalan Grya Purna Ashram, Kutampi Kaler, Kec. Nusa Penida, Kabupaten Klungkung, Bali 80771, Indonesia",https://maps.google.com/?cid=13916674666026784246,OPERATIONAL,+62 813-2770-6518,,"hotel, lodging",4.4,38,
ChIJm2k0CCtz0i0RzTKxUM01IFY,Medaran Restaurant,-8.676087299999999,115.54870319999999,"Jl. Nusa Indah, Kutampi Kaler, Kec. Nusa Penida, Kabupaten Klungkung, Bali 80771, Indonesia",https://maps.google.com/?cid=6206019442454901453,OPERATIONAL,,restaurant,"restaurant, food",4.8,145,
ChIJxamSYCpz0i0RcecTg4RS-5E,Tropical Brew,-8.6747531,115.5484082,"Jl. Nusa Indah, Kutampi Kaler, Kec. Nusa Penida, Kabupaten Klungkung, Bali 80771, Indonesia",https://maps.google.com/?cid=10519092083742205809,OPERATIONAL,,coffee_shop,"coffee_shop, cafe, store, food",4.9,167,
ChIJp8Gb8jFz0i0RibmqX3GGZFk,PI KARYA BEACH,-8.6750201,115.54773650000001,"Kutampi Kaler, Nusa Penida, Klungkung Regency, Bali 80771, Indonesia",https://maps.google.com/?cid=6441421188541102473,OPERATIONAL,+62 818-6800-1350,lodging,lodging,4.7,136,
ChIJz435i4xz0i0R5v6ebkrW9GA,D Artha Cottage,-8.6781771,115.54234059999999,"Jl. Buyuk Limo, Kutampi Kaler, Kec. Nusa Penida, Kabupaten Klungkung, Bali 80771, Indonesia",https://maps.google.com/?cid=6986444537130319590,OPERATIONAL,+62 813-3795-5808,lodging,lodging,4.2,41,
ChIJcS8dd5hz0i0RwPRryWhspsE,Kul de Sak Beach Bar,-8.6747605,115.54700150000001,"Jl Pelabuhan buyuk ped Kutampi Kaler Nusapenida Kutampi Kaler Nusapenida, Kutampi, bali, Kabupaten Klungkung, Bali 80716, Indonesia",https://maps.google.com/?cid=13953959692765754560,OPERATIONAL,+62 819-0722-4802,bar,"bar, night_club",4.6,118,
ChIJLfAU5KBz0i0R67eghUQEWJk,Nusa Sedayu Hotel,-8.677927,115.54295900000001,"8GCV+R5G, Kutampi Kaler, Nusa Penida, Klungkung Regency, Bali 80771, Indonesia",https://maps.google.com/?cid=11049586378099701739,OPERATIONAL,+62 821-4655-1361,hotel,"hotel, lodging",4,66,
ChIJReZXnnlz0i0RmD_kZTcb0so,Warung Telaga Beach,-8.6752991,115.54510769999999,"8GFW+V2Q, Kutampi Kaler, Nusa Penida, Klungkung Regency, Bali 80771, Indonesia",https://maps.google.com/?cid=14614773665517289368,OPERATIONAL,+62 857-3913-4297,restaurant,"restaurant, food",4.6,111,
ChIJE8cWZcJz0i0Rq--VDSOgtHY,Arjuna Bungalow,-8.6750724,115.5502722,"Kutampi Kaler, Nusa Penida, Klungkung Regency, Bali 80771, Indonesia",https://maps.google.com/?cid=8553637664695644075,OPERATIONAL,,lodging,lodging,4.8,37,
ChIJxS21F55z0i0RuaIHMybyABI,Penida La Casa Cottage,-8.6781623,115.5424743,"Jl. Villa Pilah, Kutampi Kaler, Kec. Nusa Penida, Kabupaten Klungkung, Bali 80771, Indonesia",https://maps.google.com/?cid=1297302938561520313,OPERATIONAL,+62 813-6690-1997,lodging,lodging,4.6,23,
ChIJad-mr5lz0i0RfbqRh2YtHy8,Warung Makan Made Kari,-8.675021599999999,115.54800719999999,"No., Jl. Nusa Indah No.53, Kutampi Kaler, Kec. Nusa Penida, Kabupaten Klungkung, Bali 80771, Indonesia",https://maps.google.com/?cid=3395482562445032061,OPERATIONAL,+62 878-6069-6603,restaurant,"restaurant, food",4.8,53,
ChIJ-14JkJlz0i0Runnf5-z0HPQ,Gus Mank Stay,-8.675061,115.54949549999999,"8GFX+XQH, Jl. Nusa Indah, Kutampi Kaler, Kec. Nusa Penida, Kabupaten Klungkung, Bali 80771, Indonesia",https://maps.google.com/?cid=17590203542941956538,OPERATIONAL,+62 821-4470-2514,,lodging,4.5,57,
ChIJnULpKR1z0i0RyGyK8qrXDzE,La Mogi Cottage,-8.6759342,115.5445684,"8GFV+JRM, Kutampi Kaler, Nusa Penida, Klungkung Regency, Bali 80771, Indonesia",https://maps.google.com/?cid=3535281361722698952,OPERATIONAL,+62 813-9092-1862,hotel,"hotel, resort_hotel, lodging",4.4,61,
ChIJLS6ypplz0i0RAkDYLG794qc,D' Kubon Palace,-8.6747888,115.5484187,"Kutampi Kaler, Nusa Penida, Klungkung Regency, Bali 80771, Indonesia",https://maps.google.com/?cid=12097510198711173122,OPERATIONAL,+61 23661185,hotel,"hotel, lodging",3.7,100,
