id,name,latitude,longitude,address,url,status,phone,primary-type,types,rating,rating-count,price-level
ChIJiQ4XSPcn0i0RUWXQ8hWDMJY,Wisata Eka tirta hot spring natural,-8.371906,115.1660008,"J5H8+6CJ, Jl. Raya Apuan Senganan - Baturiti, Apuan, Kec. Baturiti, Kabupaten Tabanan, Bali 82191, Indonesia",https://maps.google.com/?cid=10822294034862597457,OPERATIONAL,,tourist_attraction,tourist_attraction,3.8,22,
ChIJyw4ht9An0i0RlPQ4R7sCXZQ,WET New Hotspring water Bali,-8.37197,115.16605399999997,"J5H8+6C7, Jl. Raya Apuan Senganan - Baturiti, Senganan, Kec. Baturiti, Kabupaten Tabanan, Bali 82191, Indonesia",https://maps.google.com/?cid=10690704093824480404,OPERATIONAL,+62 878-6159-6824,hotel,"hotel, lodging",4.3,70,
ChIJFaaBejgn0i0RD4vx_pH4uVg,Warung Mai Malu,-8.3702013,115.17157479999999,"Jl. Apuan, Apuan, Kec. Baturiti, Kabupaten Tabanan, Bali 82191, Indonesia",https://maps.google.com/?cid=6393414451960318735,OPERATIONAL,+62 815-5804-1288,indonesian_restaurant,"indonesian_restaurant, restaurant, food",4,1,
ChIJe7Me3fcn0i0RVAAHDGT8hbY,Warung Babi Guling Men Pleno 5,-8.3704225,115.1726599,"Tinungan, J5HF+R3M, Apuan, Kec. Baturiti, Kabupaten Tabanan, Bali 82191, Indonesia",https://maps.google.com/?cid=13152195793434116180,OPERATIONAL,,indonesian_restaurant,"indonesian_restaurant, restaurant, food",4.7,3,
ChIJBXtufFEn0i0ReFU_av1cUmc,Warung bakso Bu Imam Cabang senganan,-8.3702218,115.1719242,"Jl. Apuan, Apuan, Kec. Baturiti, Kabupaten Tabanan, Bali 82191, Indonesia",https://maps.google.com/?cid=7445115377475868024,OPERATIONAL,+62 821-4094-8961,indonesian_restaurant,"indonesian_restaurant, restaurant, food",,,
ChIJuQI2O2sn0i0RcQZOeC4lKm0,Legit Kopi,-8.3692575,115.17222439999999,"J5JC+7VX, Apuan, Baturiti, Tabanan Regency, Bali 82191, Indonesia",https://maps.google.com/?cid=7866140580673095281,OPERATIONAL,+62 852-3799-8747,cafe,"cafe, food",5,1,
ChIJgUcmiPon0i0ReAU8t4uUiRI,Warung Buk Winda,-8.3701577,115.17278979999998,"J5HF+W4M, Jl. Raya Apuan Senganan - Baturiti, Senganan, Kec. Penebel, Kabupaten Tabanan, Bali 82191, Indonesia",https://maps.google.com/?cid=1335762092287591800,OPERATIONAL,+62 822-6670-4416,cafe,"cafe, food",,,
ChIJB6q3YScn0i0RGvr5R05C0QA,WARUNG MONDO,-8.3701745,115.17284149999999,"J5HF+W4P, Jl. Apuan, Apuan, Kec. Baturiti, Kabupaten Tabanan, Bali 82191, Indonesia",https://maps.google.com/?cid=58901174114974234,OPERATIONAL,+62 819-3304-6655,cafe,"cafe, food",5,1,
