id,name,latitude,longitude,address,url,status,phone,primary-type,types,rating,rating-count,price-level
ChIJj9V4-ps_0i0ROS0S99piFu4,dna kopi,-8.6067278,115.23750129999999,"JL.NAGASARI GANG TRIJATA NO.88 DPS, BR/LINK. POHMANIS, Penatih Dangin Puri, Kec. Denpasar Tim., Kota Denpasar, Bali 80238, Indonesia",https://maps.google.com/?cid=17156008523102039353,OPERATIONAL,+62 815-2903-9083,coffee_shop,"coffee_shop, cafe, food, store",5,40,
ChIJM1SQhv8-0i0RfAKNDasNxXE,Alam Puri Art Museum Villa,-8.6085353,115.2381237,"Jl. Trenggana No.108, Penatih, Kec. Denpasar Tim., Kota Denpasar, Bali 80238, Indonesia",https://maps.google.com/?cid=8197973725015769724,OPERATIONAL,,resort_hotel,"resort_hotel, hotel, lodging",4,378,
ChIJhdJXQy4_0i0R6LsncYw2seg,Kost Pondok Indah Nagasari 2,-8.6040032,115.2380172,"Jl. Puri Nagasari II, Penatih Dangin Puri, Kec. Denpasar Tim., Kota Denpasar, Bali 80238, Indonesia",https://maps.google.com/?cid=16767242864498818024,OPERATIONAL,,extended_stay_hotel,"extended_stay_hotel, hotel, lodging",,,
ChIJT1toh6I_0i0R3s_kpM819qs,"Omah Mertua Coffee, Resto & Billiard",-8.6057866,115.2386425,"Jl. Nagasari No.88A, Penatih Dangin Puri, Kec. Denpasar Tim., Kota Denpasar, Bali 80238, Indonesia",https://maps.google.com/?cid=12391150590697459678,OPERATIONAL,+62 813-8105-0353,bar,bar,4.8,21,
ChIJE6BqlEo_0i0RQs3Qp3chHKM,SASI DEA HOME,-8.606774399999999,115.239851,"Jl. Nagasari Gg. Nuansa Penatih II No.8, Penatih Dangin Puri, Kec. Denpasar Tim., Kota Denpasar, Bali 80238, Indonesia",https://maps.google.com/?cid=11753305925330455874,OPERATIONAL,+62 853-3909-9090,,lodging,5,5,
ChIJgdZZHFU-0i0RieUN2jqBsgs,Warung Jawa Adi Futsal,-8.6061256,115.23903369999998,"Jl. Nagasari No.89, Penatih Dangin Puri, Kec. Denpasar Tim., Kota Denpasar, Bali 80238, Indonesia",https://maps.google.com/?cid=842878170038134153,OPERATIONAL,+62 851-0021-3413,indonesian_restaurant,"indonesian_restaurant, restaurant, food",,,
ChIJmbWDinQ_0i0Ryd8feBPEyGE,Budi art studio,-8.6066583,115.23993589999999,"Jl. Nagasari Gg. Nuansa Penatih II No.3, Poh manis, Penatih, Kec. Denpasar Tim., Kota Denpasar, Bali 80238, Indonesia",https://maps.google.com/?cid=7046097204919918537,OPERATIONAL,,art_gallery,art_gallery,,,
ChIJ4Ri_CYc_0i0RkzZ0cPgHcj4,Bali Tour Package | BALI NATURE HOLIDAY,-8.6076339,115.241485,"Perum Nuansa Penatih, Blok L2, Penatih Dangin Puri, Kec. Denpasar Tim., Kota Denpasar, Bali 80238, Indonesia",https://maps.google.com/?cid=4499667741316494995,OPERATIONAL,+62 812-3683-387,,tourist_attraction,5,45,
ChIJrewly6A_0i0RboS5kAdbnXo,Pondok Karya,-8.6073766,115.24148799999999,"Banjar Pohmanis, Jl. Nagasari III Perumahan Nuansa Penatih No.E/2, Penatih Dangin Puri, Kec. Denpasar Tim., Kota Denpasar, Bali 80236, Indonesia",https://maps.google.com/?cid=8835318132021757038,OPERATIONAL,+62 817-4747-273,guest_house,"guest_house, lodging",,,
ChIJT7k4iik_0i0RxJFVii8UYhE,Warung Serombotan BTN Bu Agung,-8.6075822,115.24071010000002,"Perumahan Nuansa Penatih, Blok G, Penatih, Kec. Denpasar Tim., Kota Denpasar, Bali 80238, Indonesia",https://maps.google.com/?cid=1252585840779301316,OPERATIONAL,+62 361 464491,indonesian_restaurant,"indonesian_restaurant, restaurant, food",4.6,10,
ChIJZQ7SQEw_0i0RaYRZ2KpKnyw,Pisang Pemenang,-8.6072895,115.24154109999999,"perumahan nuansa penatih, Jl. Nagasari No.3 blok c no 2, Penatih Dangin Puri, Kec. Denpasar Tim., Kota Denpasar, Bali 80238, Indonesia",https://maps.google.com/?cid=3215370756600464489,OPERATIONAL,,restaurant,"restaurant, food",,,
ChIJoUV5kac_0i0RR8yOX-oy2eY,prbharooms,-8.607670900000002,115.2410129,"Jalan Nagasari III, Perumahan Nuansa Penatih, Blok K5, Banjar Pohmanis, Penatih Dangin Puri, Kec. Denpasar Tim., Kota Denpasar, Bali 80238, Indonesia",https://maps.google.com/?cid=16634382680876567623,OPERATIONAL,+62 812-3671-5902,restaurant,"restaurant, food",,,
ChIJU-Qtm6w_0i0RjpD4CHI71uw,Warung Sule,-8.6095569,115.2427522,"96RV+54C, Gg. Tunjung, Penatih Dangin Puri, Kec. Denpasar Tim., Kota Denpasar, Bali 80238, Indonesia",https://maps.google.com/?cid=17065893198929891470,OPERATIONAL,,cafe,"cafe, food",4,1,
ChIJLdw2fqA_0i0RJPg0G6mrwUw,Paon galang,-8.6091546,115.2428728,"Jl. Nagasari No.62, Penatih Dangin Puri, Kec. Denpasar Tim., Kota Denpasar, Bali 80238, Indonesia",https://maps.google.com/?cid=5530890560181958692,OPERATIONAL,+62 859-6435-3335,indonesian_restaurant,"indonesian_restaurant, restaurant, food",,,
ChIJlcKsTCw_0i0RWUSVTSVhniY,Griya Pondok Campuhan,-8.6058679,115.2373613,"Jl. Nagasari No.99, Penatih Dangin Puri, Kec. Denpasar Tim., Kota Denpasar, Bali 80238, Indonesia",https://maps.google.com/?cid=2782768432604857433,OPERATIONAL,,lodging,lodging,,,
ChIJ_fAsMj0_0i0RaKJ1n4ce8FU,Kedai Jempolan Kitchen,-8.6072965,115.24152140000001,"Jl. Nagasari No.51, Penatih Dangin Puri, Kec. Denpasar Tim., Kota Denpasar, Bali 80238, Indonesia",https://maps.google.com/?cid=6192483055479136872,OPERATIONAL,+62 819-1602-1837,restaurant,"restaurant, food",,,
ChIJ6SkttL8_0i0RAu6ON3II9yo,Thu leyong,-8.602459999999999,115.23894639999997,"Jl. Nagasari, Jagapati, Kec. Abiansemal, Kabupaten Badung, Bali 80238, Indonesia",https://maps.google.com/?cid=3095952555491913218,OPERATIONAL,,private_guest_room,"private_guest_room, lodging",5,2,
ChIJE3mpxIg_0i0RwET94RuVN98,Warung WTP,-8.6058813,115.24037369999999,"Jl. Nagasari No.89b, Penatih Dangin Puri, Kec. Denpasar Tim., Kota Denpasar, Bali 80238, Indonesia",https://maps.google.com/?cid=16084488541165143232,OPERATIONAL,+62 857-3732-8160,restaurant,"restaurant, food",3.7,3,
ChIJXWMzpUY_0i0RRKhNuMFxAYo,Sinar cempaka trans,-8.6070952,115.2392341,"Perum Triyana, Jl. Nagasari No.A4, Penatih Dangin Puri, East Denpasar, Denpasar City, Bali 80238, Indonesia",https://maps.google.com/?cid=9944354529045489732,OPERATIONAL,+62 877-6101-8800,car_rental,car_rental,5,2,
ChIJZYNxtR4_0i0R3-WbvRcgHdo,"Warung Pengkol ""NYOMANNE""",-8.6059273,115.24237380000001,"Jl. Nagasari No.78, Penatih Dangin Puri, Kec. Denpasar Tim., Kota Denpasar, Bali 80238, Indonesia",https://maps.google.com/?cid=15716753560930346463,OPERATIONAL,+62 878-6228-8623,indonesian_restaurant,"indonesian_restaurant, restaurant, food",,,
