id,name,latitude,longitude,address,url,status,phone,primary-type,types,rating,rating-count,price-level
ChIJ5ZiPtys90i0RUok0dF7Lh9w,Real Bali Swing,-8.4906347,115.2399794,"Jl. Dewi Saraswati No.7, Bongkasa Pertiwi, Kec. Abiansemal, Kabupaten Badung, Bali 80352, Indonesia",https://maps.google.com/?cid=15890893416737048914,OPERATIONAL,+62 878-8828-8832,amusement_center,"tourist_attraction, amusement_park, amusement_center",4.6,13318,
ChIJNxqUUJA90i0Rkta44FnqfA4,Picheaven Bali - Swing,-8.4896278,115.2402645,"Jl. Dewi Saraswati No.8, Bongkasa Pertiwi, Kec. Abiansemal, Kabupaten Badung, Bali 80352, Indonesia",https://maps.google.com/?cid=1043966885386311314,OPERATIONAL,+62 811-865-168,amusement_center,"amusement_park, amusement_center",4.6,165,
ChIJr6CWe0o90i0RIyuF80BT6yc,Bali Swing Pioneer,-8.4895029,115.2406692,"Jl. Dewi Saraswati No.5, Bongkasa Pertiwi, Kec. Abiansemal, Kabupaten Badung, Bali 80352, Indonesia",https://maps.google.com/?cid=2876484325434796835,OPERATIONAL,+62 819-9933-3461,amusement_park,amusement_park,4.4,53,
ChIJPc_X5vU90i0Rs_FFDodwQTQ,OUR BALI HOMESTAY,-8.4884386,115.23918300000001,"Jl. Tanggayuda Banjar Tegalkuning, Bongkasa Pertiwi, Kec. Abiansemal, Kabupaten Badung, Bali 80352, Indonesia",https://maps.google.com/?cid=3765414488820806067,OPERATIONAL,+62 813-3796-1343,private_guest_room,"private_guest_room, lodging",5,10,
ChIJaw4EvSs90i0RqD14pvIC3a4,Bali Bahama Swing,-8.4898051,115.2402916,"Bongkasa Pertiwi, Abiansemal, Badung Regency, Bali 80352, Indonesia",https://maps.google.com/?cid=12600230573650754984,OPERATIONAL,+62 818-0551-3050,tourist_attraction,tourist_attraction,4.2,105,
ChIJRbvax9Qi0i0RDINzCYQYsE0,Bongkasa Villas,-8.4860154,115.24064729999999,"G67R+H7R, Jl. Dewi Saraswati, Bongkasa Pertiwi, Kec. Abiansemal, Kabupaten Badung, Bali 80352, Indonesia",https://maps.google.com/?cid=5598001292194841356,OPERATIONAL,,hotel,"hotel, lodging",3.3,7,
ChIJ3aB9Ack90i0Ra8HZjmwpN6Y,Warung Than lychee,-8.487924,115.240319,"Jl. Dewi Saraswati Br.tegal kuning, Bongkasa Pertiwi, Kec. Abiansemal, Kabupaten Badung, Bali 80352, Indonesia",https://maps.google.com/?cid=11977087280244965739,OPERATIONAL,+62 819-1643-6775,indonesian_restaurant,"indonesian_restaurant, restaurant, food",5,38,
ChIJa0MHwco90i0R3v8HMCGlQXU,Babi Guling Bu Chandra,-8.4914949,115.23948089999999,"G65Q+CQ5, Jl. Dewi Saraswati, Bongkasa Pertiwi, Kec. Abiansemal, Kabupaten Badung, Bali 80352, Indonesia",https://maps.google.com/?cid=8449215937882095582,OPERATIONAL,+62 852-0513-8005,restaurant,"restaurant, food",5,2,
ChIJ4yqfpCs90i0RCQD3nXp0AZo,Bahama Adventure Rafting Finish Point,-8.4895651,115.240455,"Jl. Dewi Saraswati No.7, Bongkasa Pertiwi, Kec. Abiansemal, Kabupaten Badung, Bali 80352, Indonesia",https://maps.google.com/?cid=11097279026802655241,OPERATIONAL,+62 361 270811,tourist_attraction,"tourist_attraction, restaurant, food",4,7,
ChIJxcWwYfUj0i0RA60c41DlbRs,Warung tuak tut balon,-8.4848047,115.2357868,"G68P+38F, Jl. Sedap Malam, Taman, Kec. Abiansemal, Kabupaten Badung, Bali 80352, Indonesia",https://maps.google.com/?cid=1976487947055967491,OPERATIONAL,,bar,bar,,,
ChIJc3UWU3490i0RS2JKQPgNuXY,Bangkasa Coffee,-8.492175,115.2377106,"G65Q+43G, Bongkasa, Abiansemal, Badung Regency, Bali 80352, Indonesia",https://maps.google.com/?cid=8554884327048634955,OPERATIONAL,+62 812-3705-5704,cafe,"cafe, food",1,1,
ChIJj9o1K3I90i0R3h-GN_VBR4U,Eva Karya Group Project Villa Disign,-8.4897814,115.24036600000001,"Jl. Dewi Saraswati No.7, Bongkasa Pertiwi, Kec. Abiansemal, Kabupaten Badung, Bali 80352, Indonesia",https://maps.google.com/?cid=9603717251845201886,CLOSED_TEMPORARILY,,lodging,lodging,,,
ChIJB2_YJaoj0i0RTWIh3xFdm6A,Kalpa Bar,-8.4836671,115.2360946,"G68P+GC, Taman, Abiansemal, Badung Regency, Bali, Indonesia",https://maps.google.com/?cid=11572945998797955661,CLOSED_TEMPORARILY,+62 819-4900-6688,bar,bar,5,5,
