id,name,latitude,longitude,address,url,status,phone,primary-type,types,rating,rating-count,price-level
ChIJyWYdYeRh0S0RSWzBI4eJOyk,Kedai Warung Pink,-8.3665935,114.57717729999999,"JHMG+9V7, Cupel, Negara, Jembrana Regency, Bali 82218, Indonesia",https://maps.google.com/?cid=2971119592694443081,OPERATIONAL,,cafe,"cafe, food",5,4,
ChIJ_ffLfH3f0y0RYDfPVH3dOEs,Roval Fried Chicken Fast Food Restaurant,-8.3696965,114.58140840000002,"JHJJ+4GH, West Tegal Badeng, Negara, Jembrana Regency, Bali 82218, Indonesia",https://maps.google.com/?cid=5420325681903908704,OPERATIONAL,,restaurant,"restaurant, fast_food_restaurant, meal_takeaway, food",,,
ChIJ9YNfXHZh0S0R0JKPVRczOYA,Rumah pak kodo,-8.366566299999999,114.57792769999999,"JHMG+FVW, West Tegal Badeng, Negara, Jembrana Regency, Bali 82218, Indonesia",https://maps.google.com/?cid=9239472285840020176,OPERATIONAL,,coffee_shop,"coffee_shop, cafe, food, store",,,
ChIJM_d956Xf0y0RoSAvPuxkEBo,ANGKRINGAN RAGIL,-8.3695511,114.5824361,"JHJJ+5XF, Jl. Beringin, Tegal Badeng Bar., Kec. Negara, Kabupaten Jembrana, Bali 82218, Indonesia",https://maps.google.com/?cid=1878112010431832225,OPERATIONAL,+62 817-550-524,cafe,"cafe, food",,,
ChIJNfPi19Bh0S0Rxp25X5ihCCE,wijo tab one keh,-8.3663074,114.57693859999999,"jalan candra kirana, banjar puana kaje ,desa tegal badeng barat, kecamatan negara,kabupaten jembrana,fropinsi Bali, JHMG+FQG, Baluk, Kec. Negara, Kabupaten Jembrana, Bali 82218, Indonesia",https://maps.google.com/?cid=2380330078878408134,CLOSED_TEMPORARILY,,historical_landmark,historical_landmark,,,
