id,name,latitude,longitude,address,url,status,phone,primary-type,types,rating,rating-count,price-level
ChIJ5cpDrHrT0y0RlHWXIgfujyk,Warung Makan Muslim Lalanglinggah,-8.489344599999999,114.9514129,"GX62+7H7, Jl. Raya Denpasar - Gilimanuk, Lalanglinggah, Kec. Selemadeg Bar., Kabupaten Tabanan, Bali 80162, Indonesia",https://maps.google.com/?cid=2994873991637202324,OPERATIONAL,+62 813-3743-8946,restaurant,"restaurant, food",4.3,94,
ChIJsQ0uJZ4t0i0R3LlFGE2rEEQ,Kost Dr. Edi,-8.4893358,114.95243119999999,"Jl. Raya Denpasar - Gilimanuk No.401, Lalanglinggah, Kec. Selemadeg Bar., Kabupaten Tabanan, Bali 82162, Indonesia",https://maps.google.com/?cid=4904608341814524380,OPERATIONAL,+62 812-3284-647,extended_stay_hotel,"extended_stay_hotel, hotel, lodging",4.4,10,
ChIJ05GPKZ4t0i0RRxOQDt4vZ68,Kedai Tuplik 83,-8.4893216,114.95219919999998,"GX62+7VG, Jl. Raya Denpasar - Gilimanuk, Lalanglinggah, Kec. Selemadeg Bar., Kabupaten Tabanan, Bali 82162, Indonesia",https://maps.google.com/?cid=12639123510012154695,OPERATIONAL,+62 852-3759-7143,restaurant,"restaurant, food",4.4,16,
ChIJT1U4EJwt0i0RowsvyO2-x7s,Warung Izza Madura,-8.491660099999999,114.95679690000001,"Lalanglinggah, Selemadeg Barat, Tabanan Regency, Bali 82162, Indonesia",https://maps.google.com/?cid=13530993533932997539,OPERATIONAL,,restaurant,"restaurant, food",,,
ChIJnRvKP54t0i0RxaihFRQs1gc,Warung Buk Mang Era,-8.4898376,114.9530062,"Lalanglinggah, Selemadeg Barat, Tabanan Regency, Bali, Indonesia",https://maps.google.com/?cid=564687268055460037,OPERATIONAL,,restaurant,"restaurant, food",,,
ChIJTYMMGpwt0i0RiuOVF8Aa_Z0,WARUNG MEN MIKA,-8.4915445,114.9565913,"Lalanglinggah, Selemadeg Barat, Tabanan Regency, Bali, Indonesia",https://maps.google.com/?cid=11384284845394224010,OPERATIONAL,,restaurant,"restaurant, food",,,
ChIJQWgF8PEt0i0Rwc9QfsLdd9U,Warung gek putri,-8.4904907,114.9537222,"Lalanglinggah, Selemadeg Barat, Tabanan Regency, Bali, Indonesia",https://maps.google.com/?cid=15382006879719837633,OPERATIONAL,,coffee_shop,"coffee_shop, cafe, food, store",,,
