id,name,latitude,longitude,address,url,status,phone,primary-type,types,rating,rating-count,price-level
ChIJZZ8js0B30i0RSh2jVHCsU6c,Grand Ball Beach Garden,-8.723000299999999,115.5954362,"Jl. Batu Nunggal-Suana, Suana, Kec. Nusa Penida, Kabupaten Klungkung, Bali 80771, Indonesia",https://maps.google.com/?cid=12057170225857240394,OPERATIONAL,,hotel,"hotel, lodging",4.8,34,
ChIJIWrGNuJ30i0RX9YidYnsJLQ,Mesari Cottage,-8.7186258,115.59186209999999,"Unnamed Road, Suana, Kec. Nusa Penida, Kabupaten Klungkung, Bali 80771, Indonesia",https://maps.google.com/?cid=12980760101108504159,OPERATIONAL,+62 859-3127-5689,,lodging,4.9,50,
ChIJfbkR6vR30i0Rx_OJwEkkhAk,Broken Jetty,-8.723151500000002,115.59596719999999,"7HGW+P9P, Suana, Nusa Penida, Klungkung Regency, Bali 80771, Indonesia",https://maps.google.com/?cid=685712942448636871,OPERATIONAL,,tourist_attraction,tourist_attraction,5,4,
ChIJNahfYjV30i0R4y4q1OLzGOU,Oceanglampingpenida 1,-8.724839,115.5890867,"7HGQ+3J, Suana, Nusa Penida, Klungkung Regency, Bali, Indonesia",https://maps.google.com/?cid=16508212589674245859,OPERATIONAL,+62 811-2105-516,camping_cabin,"camping_cabin, lodging",,,
ChIJW7jnewB30i0ROVSzFRrDmuA,Yellow Bridge,-8.723126299999999,115.59605579999999,"7HGW+P9P, Suana, Nusa Penida, Klungkung Regency, Bali 80771, Indonesia",https://maps.google.com/?cid=16184462727709938745,OPERATIONAL,,tourist_attraction,tourist_attraction,,,
