id,name,latitude,longitude,address,url,status,phone,primary-type,types,rating,rating-count,price-level
ChIJxZxHJ8z-0S0RX-xiRm6Glds,"Relax Bali Resort, Kubu, Bali",-8.2494937,115.573849,"Kubu, Karangasem, Kabupaten Karangasem, Bali 80853, Indonesia",https://maps.google.com/?cid=15822700674021518431,OPERATIONAL,+62 878-6196-9733,resort_hotel,"resort_hotel, hotel, lodging",4.7,219,
ChIJMfptJsz-0S0RbDytnBHlces,Warung Sari,-8.249382899999999,115.57362309999998,"QH2F+6CX, Kubu, Karangasem Regency, Bali 80853, Indonesia",https://maps.google.com/?cid=16965593135087172716,OPERATIONAL,+62 852-3801-8708,indonesian_restaurant,"indonesian_restaurant, restaurant, food",4.9,334,
ChIJKQjQIP7_0S0RCDtZNU-FIig,Utari Garden,-8.2517207,115.57317549999999,"PHXF+877, Kubu, Karangasem Regency, Bali 80853, Indonesia",https://maps.google.com/?cid=2892020485969230600,OPERATIONAL,+62 878-6166-3900,tourist_attraction,tourist_attraction,4.3,45,
ChIJmT2hRCv_0S0RGUBrcCFISIM,The Ocean Freedive Resort,-8.2491074,115.5729013,"QH2F+6FM, Kubu, Karangasem Regency, Bali 80853, Indonesia",https://maps.google.com/?cid=9459890325748924441,OPERATIONAL,+420 777 266 305,,lodging,4.8,5,
ChIJ73HyZ8f_0S0RJY3Rr2hhH3Q,JFC Kubu,-8.2524958,115.5688407,"PHX9+2G4, Jalan, Kubu, Kec. Kubu, Kabupaten Karangasem, Bali 80853, Indonesia",https://maps.google.com/?cid=8367513734931909925,OPERATIONAL,,fast_food_restaurant,"fast_food_restaurant, restaurant, food",3.4,24,
ChIJi2T28j7_0S0RJ3AF-mi3VUs,Vila Troja Kubu,-8.249503599999999,115.5735929,"Kubu, Karangasem Regency, Bali 80853, Indonesia",https://maps.google.com/?cid=5428446587364143143,OPERATIONAL,+61 416 981 443,hotel,"hotel, lodging",5,9,
ChIJtQHVjtL-0S0RyaEa8FZiBbY,Warung Kampoeng Kubu,-8.253662499999999,115.57066169999999,"PHWC+G7M, Kubu, Karangasem Regency, Bali 80853, Indonesia",https://maps.google.com/?cid=13115997615321424329,OPERATIONAL,+62 819-3635-1565,restaurant,"restaurant, food",3.7,21,PRICE_LEVEL_INEXPENSIVE
ChIJscnUq9j_0S0RuczdvoOSRcI,Ngemila snack lovers,-8.255174199999999,115.5728656,"Jl. Kubu, Kubu, Kec. Kubu, Kabupaten Karangasem, Bali 80853, Indonesia",https://maps.google.com/?cid=13998756111291632825,OPERATIONAL,+62 819-1752-4254,coffee_shop,"coffee_shop, cafe, store, food",5,7,
ChIJ14pfLcz-0S0R8wHCSECLZ_4,Indah Anugrah,-8.2499981,115.5732186,"Jalan Puskesmas Relax, Kubu, Kec. Kubu, Kabupaten Karangasem, Bali 80853, Indonesia",https://maps.google.com/?cid=18331773916449735155,OPERATIONAL,+62 813-3867-7759,bed_and_breakfast,"bed_and_breakfast, lodging",4.6,10,
ChIJz49wovb50S0RCxr4kYyAht4,Warung Pojok Rasa,-8.2519729,115.5680579,"PHX8+8X8, Baturinggit, Kubu, Karangasem Regency, Bali 80853, Indonesia",https://maps.google.com/?cid=16034644864531962379,OPERATIONAL,,restaurant,"restaurant, food",4.1,7,
ChIJcaB1G9H_0S0RXqgkoqZF1Ps,KOBE Cafe Kubu,-8.251909699999999,115.57165409999999,"Unnamed Road, PHXC+6MJ, Kubu, Kec. Kubu, Kabupaten Karangasem, Bali 80853, Indonesia",https://maps.google.com/?cid=18146205380569770078,CLOSED_TEMPORARILY,+62 857-3788-7217,cafe,"cafe, food",5,6,
ChIJe_piUc3-0S0RdO8uQo8nH_Q,Warung Sekar,-8.2524359,115.5684685,"PHX9+29G, Jalan, Kubu, Kec. Kubu, Kabupaten Karangasem, Bali 80853, Indonesia",https://maps.google.com/?cid=17590822165776625524,OPERATIONAL,,restaurant,"restaurant, food",,,
ChIJgdtcSHP_0S0RZBo4xJcBfVw,Homestay Anugrah - Kubu Beach,-8.2500009,115.5731667,"PHXF+X7V Relax, Jl, Kubu, Kec. Kubu, Kabupaten Karangasem, Bali 80853, Indonesia",https://maps.google.com/?cid=6664484774921902692,OPERATIONAL,+62 821-4443-7152,private_guest_room,"private_guest_room, lodging",3.5,4,
ChIJqYf_wCf_0S0R5dC5O78mXdQ,Warung Lesehan Ulam Segara,-8.2526842,115.5690733,"PHW9+WJG, Jl. Kubu, Tianyar, Kec. Kubu, Kabupaten Karangasem, Bali 80853, Indonesia",https://maps.google.com/?cid=15302429711657455845,OPERATIONAL,+62 819-3647-0086,restaurant,"restaurant, food",5,1,
ChIJ59VhbsL_0S0RqsK2eNvMcN8,Nyoman Wardana Home,-8.2518441,115.5719718,"PHXC+7Q9, Kubu, Karangasem Regency, Bali 80853, Indonesia",https://maps.google.com/?cid=16100593910844670634,OPERATIONAL,+62 857-3988-7107,hotel,"hotel, lodging",,,
ChIJB1Iwel3_0S0RT27zmlzfisE,Warung Bakso Ayam Feby,-8.252502,115.5691495,"PHW9+XMR, Jl. Kubu, Laba Sari, Kec. Abang, Kabupaten Karangasem, Bali 80852, Indonesia",https://maps.google.com/?cid=13946204784935792207,OPERATIONAL,+62 857-9228-3616,indonesian_restaurant,"indonesian_restaurant, restaurant, food",,,
ChIJsymZyUP_0S0RXg1JAOahfPA,Kubu White House,-8.2526491,115.5734672,"PHWF+W9W, Kubu, Karangasem Regency, Bali 80853, Indonesia",https://maps.google.com/?cid=17328903475434163550,OPERATIONAL,+62 877-6279-0660,rest_stop,"rest_stop, lodging",3,1,
ChIJsebeBHz_0S0RNa9BTgdfw8w,"Wr nasi Jinggo & lalapan, nasi goreng",-8.2524375,115.5684531,"PHX9+29G, Kubu, Karangasem Regency, Bali, Indonesia",https://maps.google.com/?cid=14754741289178214197,OPERATIONAL,+62 813-5316-5513,restaurant,"restaurant, food",1,1,
ChIJ1bXJfvb_0S0RQFx-UXrNwkg,AFRI YANA HOME,-8.252562,115.57316600000001,"PHWF+X7F, Jalan, Kubu, Kec. Kubu, Kabupaten Karangasem, Bali 80853, Indonesia",https://maps.google.com/?cid=5242978841449618496,OPERATIONAL,,private_guest_room,"private_guest_room, lodging",,,
ChIJ7ZgC5rn_0S0RRYMti-39S4k,Villa Budha,-8.2506422,115.57183390000002,"Kubu, Karangasem Regency, Bali 80853, Indonesia",https://maps.google.com/?cid=9893280203133518661,OPERATIONAL,,,lodging,,,
