id,name,latitude,longitude,address,url,status,phone,primary-type,types,rating,rating-count,price-level
ChIJR2Ic6S-D0S0R7Vs4z87Fbj8,Banyu Riris Villa,-8.1919425,114.9625894,"Kalianget, Seririt, Buleleng Regency, Bali 81153, Indonesia",https://maps.google.com/?cid=4570808163858144237,OPERATIONAL,+62 877-6277-1828,hotel,"hotel, lodging",5,18,
ChIJq6c8hxKD0S0Rusx3t5U_Sso,JFC Banjar,-8.189977599999999,114.9673773,"RX68+2X2, Jl. Singaraja-Gilimanuk, Banjar, Kec. Banjar, Kabupaten Buleleng, Bali 81152, Indonesia",https://maps.google.com/?cid=14576533056198790330,OPERATIONAL,+62 818-0380-3899,fast_food_restaurant,"fast_food_restaurant, restaurant, food",3.8,32,
ChIJoYanzZSD0S0RjT1knl6xzU0,WARUNG PAN MADE,-8.1902308,114.96683010000001,"RX58+WP4, jl. raya Jl. Seririt- Singaraja, Banjar, Kec. Banjar, Kabupaten Buleleng, Bali 81152, Indonesia",https://maps.google.com/?cid=5606332131088547213,OPERATIONAL,+62 878-2200-0581,indonesian_restaurant,"indonesian_restaurant, restaurant, food",4.9,18,
ChIJSzjuyDKD0S0Rqml7kNnoRv4,KOS DEWA,-8.1915513,114.96546839999998,"RX58+95G, Jl. Raja Ida Made Rai, Banjar, Kec. Banjar, Kabupaten Buleleng, Bali 81152, Indonesia",https://maps.google.com/?cid=18322588155132996010,OPERATIONAL,+62 819-3666-1612,private_guest_room,"private_guest_room, lodging",5,2,
ChIJ7-hlJzCD0S0RsF3Od6wKVE0,Warung Bu Wiwik,-8.1912354,114.9636133,"RX57+GC5, Jl. Seririt- Singaraja, Banjar, Kec. Banjar, Kabupaten Buleleng, Bali 81152, Indonesia",https://maps.google.com/?cid=5572090374824811952,OPERATIONAL,+62 819-3767-2244,brunch_restaurant,"brunch_restaurant, breakfast_restaurant, restaurant, food",4.3,9,
ChIJEa2YIUaD0S0Ri15Y6_9Re4s,Warung makan AMBARA,-8.1914816,114.9608098,"Jl. Seririt- Singaraja No.22, Kalianget, Kec. Buleleng, Kabupaten Buleleng, Bali 81153, Indonesia",https://maps.google.com/?cid=10050717153014341259,OPERATIONAL,+62 821-4656-7889,indonesian_restaurant,"indonesian_restaurant, restaurant, food",5,1,
ChIJyVnw40CD0S0RzRdZ6HeTlLI,WARUNG IBU MADE,-8.189465199999999,114.9662241,"Jl. Segara No.9, Banjar, Kec. Banjar, Kabupaten Buleleng, Bali 81152, Indonesia",https://maps.google.com/?cid=12868072178512893901,OPERATIONAL,+62 819-3656-3476,restaurant,"restaurant, food",5,7,
ChIJdbBQgCGD0S0RuwTRa28AXPU,Crepes Ellma,-8.189466699999999,114.96610280000002,"Jl. Segara No.3, Banjar, Kec. Banjar, Kabupaten Buleleng, Bali 81152, Indonesia",https://maps.google.com/?cid=17680006715699954875,OPERATIONAL,+62 362 92865,restaurant,"restaurant, food, store",4.3,3,
ChIJGWV0ADGD0S0R-Z-Rb4Q6DGM,Bakso Dua Putra,-8.1900824,114.9665306,"Banjar, Buleleng Regency, Bali, Indonesia",https://maps.google.com/?cid=7137143849957302265,OPERATIONAL,,indonesian_restaurant,"indonesian_restaurant, restaurant, food",5,4,
ChIJDaZ8soSD0S0RDa3QioqDHWw,Ellma Burger,-8.189523099999999,114.9661404,"Jl. Segara No.3, Banjar, Kec. Banjar, Kabupaten Buleleng, Bali 81152, Indonesia",https://maps.google.com/?cid=7790527561478483213,OPERATIONAL,+62 362 92865,hamburger_restaurant,"hamburger_restaurant, american_restaurant, restaurant, food",4.3,3,
ChIJicAhxy-D0S0RsfE5JXySPCI,Bayu Kartika Bungalows,-8.191355999999999,114.962238,"RX56+FV5, Kalianget, Seririt, Buleleng Regency, Bali 81152, Indonesia",https://maps.google.com/?cid=2467007757790343601,OPERATIONAL,+62 368 41219,hotel,"hotel, lodging",4,1,
ChIJDb7nTTCD0S0RGxp7qQkKRrM,Warung Es Kelapa Muda,-8.190541,114.96569059999999,"Banjar, Buleleng Regency, Bali, Indonesia",https://maps.google.com/?cid=12918023617773247003,OPERATIONAL,,cafe,"cafe, food",4,1,
ChIJoVYQXjCD0S0RhsFVTpwAYF8,Warung Made Lawar Dolong,-8.191436099999999,114.96620469999999,"RX58+CFG, Jl. Raja Ida Made Rai, Banjar, Kec. Banjar, Kabupaten Buleleng, Bali 81152, Indonesia",https://maps.google.com/?cid=6872493702696518022,OPERATIONAL,+62 819-0632-1769,indonesian_restaurant,"indonesian_restaurant, restaurant, food",4.1,9,
ChIJO9kKVzWD0S0ROecQ7ihmrPM,Pondok DMS,-8.193455799999999,114.96310770000001,"RX47+J69, Kalianget, Seririt, Buleleng Regency, Bali 81152, Indonesia",https://maps.google.com/?cid=17558521373189531449,OPERATIONAL,,lodging,lodging,4,2,
ChIJkZTdiTKD0S0RkOl_sDM7Lbg,Pawon oka,-8.188580199999999,114.9623574,"Unnamed Road, RX66+HW9, Banjar, Buleleng Regency, Bali 81152, Indonesia",https://maps.google.com/?cid=13271328770121263504,OPERATIONAL,,restaurant,"restaurant, food",,,
ChIJt0_FYNiD0S0RR-jY7DJmTJQ,Warung Kateri,-8.193692,114.9655774,"Jl. Raja Ida Made Rai, Banjar, Kec. Banjar, Kabupaten Buleleng, Bali 81152, Indonesia",https://maps.google.com/?cid=10686028384751380551,OPERATIONAL,,indonesian_restaurant,"indonesian_restaurant, restaurant, food",5,1,
ChIJ1a_sfZ-D0S0RwDzGBZnVkqM,Angkringan Oemah Pradika,-8.1911996,114.96266109999999,"Kalianget, Seririt, Buleleng Regency, Bali 81152, Indonesia",https://maps.google.com/?cid=11786718027985599680,OPERATIONAL,+62 878-6098-9811,restaurant,"restaurant, food",,,
ChIJ89hF9HmD0S0R8MNG2Mr1MvY,Warung Bakso Babi,-8.1917335,114.96602379999999,"RX58+8CH, Jl. Raja Ida Made Rai, Banjar, Kec. Banjar, Kabupaten Buleleng, Bali 81152, Indonesia",https://maps.google.com/?cid=17740512133726520304,CLOSED_TEMPORARILY,,restaurant,"restaurant, food",,,
ChIJAWcfCgCD0S0R1kDkh502rh0,Sari Rejeki,-8.1920167,114.9659641,"RX58+69H, Jl. Raja Ida Made Rai, Banjar, Kec. Banjar, Kabupaten Buleleng, Bali 81152, Indonesia",https://maps.google.com/?cid=2138706923265212630,OPERATIONAL,,coffee_shop,"coffee_shop, cafe, food, store",,,
ChIJm9qiUACD0S0RhozhH-LHA3E,Sari Rahayu,-8.1920167,114.9659641,"RX58+69H, Jl. Raja Ida Made Rai, Banjar, Kec. Banjar, Kabupaten Buleleng, Bali 81152, Indonesia",https://maps.google.com/?cid=8143572325227400326,OPERATIONAL,,coffee_shop,"coffee_shop, cafe, food, store",,,
