id,name,latitude,longitude,address,url,status,phone,primary-type,types,rating,rating-count,price-level
ChIJw6Mo5rjZ0y0ReFCMvbsDBOs,PATUNG KUDA PENYARINGAN,-8.3843859,114.7062213,"Asian Highway No.2, Penyaringan, Kec. Mendoyo, Kabupaten Jembrana, Bali 82261, Indonesia",https://maps.google.com/?cid=16934664603693764728,OPERATIONAL,,coffee_shop,"coffee_shop, cafe, food, store",4.9,37,
ChIJLwkfypjZ0y0R_zZc1xLpjGI,RM SEKARWANGI,-8.386290299999999,114.7084737,"JP75+F9Q, Jl. Raya Denpasar - Gilimanuk, Penyaringan, Kec. Mendoyo, Kabupaten Jembrana, Bali 82261, Indonesia",https://maps.google.com/?cid=7101306979588257535,OPERATIONAL,+62 821-4551-4456,indonesian_restaurant,"indonesian_restaurant, restaurant, food",4.1,84,
ChIJBdjLbR3Z0y0RLILJvae6BFY,Hotel Puri Bali,-8.3836743,114.7049934,"JP83+GXQ, Jl. Raya Denpasar - Gilimanuk, Penyaringan, Kec. Mendoyo, Kabupaten Jembrana, Bali 82261, Indonesia",https://maps.google.com/?cid=6198284216775049772,OPERATIONAL,+62 819-3438-1134,hotel,"hotel, lodging",4.5,16,
ChIJp2GkgLzZ0y0Rat4yAK61Nk8,ACK FRIED CHICKEN Penyaringan,-8.3843523,114.70581390000001,"JP84+784, Penyaringan, Mendoyo, Jembrana Regency, Bali 82261, Indonesia",https://maps.google.com/?cid=5707949336670953066,OPERATIONAL,,meal_takeaway,"meal_takeaway, restaurant, food",4,13,
ChIJlzhpqiPY0y0RK0N0w_R5Qwo,Warung Nasi Babi Guling,-8.3845537,114.70552710000001,"JP84+56C, Jalan Raya Pakutatan, Penyaringan, Kec. Mendoyo, Kabupaten Jembrana, Bali 82261, Indonesia",https://maps.google.com/?cid=739568855977050923,OPERATIONAL,+62 819-3636-7402,indonesian_restaurant,"indonesian_restaurant, restaurant, food",3.9,17,
ChIJhYBZSKHZ0y0RBKeOXtOIs1M,Warung Sederhana Arema Penyaringan,-8.384214,114.7053713,"JP84+849, Jl. Raya Denpasar - Gilimanuk, Penyaringan, Kec. Mendoyo, Kabupaten Jembrana, Bali 82261, Indonesia",https://maps.google.com/?cid=6031314767385110276,OPERATIONAL,+62 813-3819-4279,restaurant,"restaurant, food",4.3,4,
ChIJEfh3kyPY0y0RxKS-MQqlgaw,Warung Makan Adi Boga,-8.3854958,114.7066878,"Penyaringan, Mendoyo, Jembrana Regency, Bali, Indonesia",https://maps.google.com/?cid=12430397909722113220,OPERATIONAL,,restaurant,"restaurant, food",4,1,
ChIJIZZq-CPY0y0RgiCtZtUxMsU,Warung Galuh Ria,-8.3862356,114.70774340000001,"Penyaringan, Mendoyo, Jembrana Regency, Bali, Indonesia",https://maps.google.com/?cid=14209474566927753346,OPERATIONAL,,restaurant,"restaurant, food",5,1,
ChIJqWvqYK3Z0y0RGl4oO9MYM_Y,Wr. sate kambing pak yusuf,-8.3841799,114.7061447,"JP84+8FC, Jl. Kresna, Penyaringan, Kec. Mendoyo, Kabupaten Jembrana, Bali 82261, Indonesia",https://maps.google.com/?cid=17740550652652183066,OPERATIONAL,,indonesian_restaurant,"indonesian_restaurant, restaurant, food",4.8,4,
ChIJM1RA1S7Z0y0RB7MH00NZUww,Warung nine,-8.3841081,114.7053903,"Asian Highway No.2, Penyaringan, Kec. Mendoyo, Kabupaten Jembrana, Bali 82261, Indonesia",https://maps.google.com/?cid=888151699360297735,OPERATIONAL,+62 821-4538-9766,indonesian_restaurant,"indonesian_restaurant, restaurant, food",5,4,
ChIJHZdPuyPY0y0R5XzPKP0qm10,¨Suwan¨,-8.3847798,114.7061931,"Penyaringan, Mendoyo, Jembrana Regency, Bali, Indonesia",https://maps.google.com/?cid=6745032133717228773,OPERATIONAL,,restaurant,"restaurant, food",,,
ChIJmw4rglzZ0y0RoH6NKFNL5dY,Warung makan beten Ketapang 3,-8.3847955,114.7058782,"JP84+49G, Jl. Raya Denpasar - Gilimanuk, Penyaringan, Kec. Mendoyo, Kabupaten Jembrana, Bali 82261, Indonesia",https://maps.google.com/?cid=15484865714318048928,OPERATIONAL,+62 821-4658-2791,indonesian_restaurant,"indonesian_restaurant, restaurant, food",5,2,
ChIJVVtp-0LZ0y0REQs6cK3nj9o,"Warung ""Tek Gler""",-8.3845885,114.7059719,"JP84+599, Jl. Kresna, Penyaringan, Kec. Mendoyo, Kabupaten Jembrana, Bali 82261, Indonesia",https://maps.google.com/?cid=15749061154036124433,OPERATIONAL,,indonesian_restaurant,"indonesian_restaurant, restaurant, food",4.5,12,
ChIJHeU6luvZ0y0R2vOqGKeXthM,Warung Betutu Patung Kuda,-8.384088,114.70626329999999,"JP84+9G6, Jl. Kresna, Penyaringan, Kec. Mendoyo, Kabupaten Jembrana, Bali 82261, Indonesia",https://maps.google.com/?cid=1420489476411159514,OPERATIONAL,+62 878-6011-2284,restaurant,"restaurant, food",,,
ChIJN99tMnLZ0y0Rfr5RBYwH49w,WR.MeLLa Rasa Lamongan,-8.3843631,114.70553509999999,"Asian Highway No.2, Penyaringan, Kec. Mendoyo, Kabupaten Jembrana, Bali 82261, Indonesia",https://maps.google.com/?cid=15916573806023523966,CLOSED_TEMPORARILY,,indonesian_restaurant,"indonesian_restaurant, restaurant, food",,,
ChIJsQ_6JgjZ0y0RioXZfzBRP8U,Waroeng Naskleng,-8.3843759,114.70553129999999,"Jl. Raya Denpasar - Gilimanuk, Penyaringan, Kec. Mendoyo, Kabupaten Jembrana, Bali 82261, Indonesia",https://maps.google.com/?cid=14213168217749816714,OPERATIONAL,+62 882-1914-0334,coffee_shop,"coffee_shop, cafe, food, store",,,
ChIJzSnYuYrZ0y0RasJZzUs-6s4,Tambak Gusti kembar,-8.383464,114.7032134,"JP83+J78, Delod Berawah, Mendoyo, Jembrana Regency, Bali 82261, Indonesia",https://maps.google.com/?cid=14909798011652129386,OPERATIONAL,,park,park,,,
ChIJ6T7EpSPY0y0ROldy8FbtNDo,MIE AYAM OBAMA 2,-8.384670200000002,114.70582230000001,"Penyaringan, Mendoyo, Jembrana Regency, Bali, Indonesia",https://maps.google.com/?cid=4194238110645770042,OPERATIONAL,,restaurant,"restaurant, food",,,
ChIJ-RamuCbY0y0RbUlPcBzk62o,Warung Muslim Arimbi,-8.387224699999999,114.7096489,"JP75+4V6, Jl. Raya Pakutatan, Penyaringan, Kec. Mendoyo, Kabupaten Jembrana, Bali 82261, Indonesia",https://maps.google.com/?cid=7704502398341826925,OPERATIONAL,,indonesian_restaurant,"indonesian_restaurant, restaurant, food",,,
ChIJTVNG9CLY0y0RUPbmR_QoZJ4,Kantin Bukde,-8.3830732,114.70518489999999,"JP84+Q3F, Penyaringan, Mendoyo, Jembrana Regency, Bali 82261, Indonesia",https://maps.google.com/?cid=11413292385307129424,OPERATIONAL,,restaurant,"restaurant, food",5,2,
