id,name,latitude,longitude,address,url,status,phone,primary-type,types,rating,rating-count,price-level
ChIJNWp25d0F0i0R_ZQxSCAcQJM,Jero Tumbuk Culture & Retreat,-8.4376046,115.48372359999999,"Jl. Baledan, Selat, Kec. Selat, Kabupaten Karangasem, Bali 80862, Indonesia",https://maps.google.com/?cid=10610511647060628733,OPERATIONAL,+62 813-8130-3696,hotel,"hotel, lodging",4.9,132,
ChIJl9je2ZoF0i0RBilQRfKy8Iw,JFC Selat,-8.4411878,115.48511880000001,"HF5P+G2H, Duda, Selat, Karangasem Regency, Bali 80862, Indonesia",https://maps.google.com/?cid=10155813913335179526,OPERATIONAL,+62 813-3971-4092,restaurant,"restaurant, food",4.2,77,PRICE_LEVEL_INEXPENSIVE
ChIJCQ-u_jsF0i0R2rxV3NtISSc,Warung Makan Bu Tegteg Selat,-8.439084099999999,115.4818114,"HF6J+9P7, Jalan Raya, Duda Tim., Kec. Selat, Kabupaten Karangasem, Bali 80862, Indonesia",https://maps.google.com/?cid=2830873949910711514,OPERATIONAL,+62 813-3852-5677,restaurant,"restaurant, food",5,12,
ChIJ4bmfNUEF0i0R4jU77StJ7J4,NITI RAHAYU,-8.4419784,115.48549179999998,"HF5P+865, Duda, Selat, Karangasem Regency, Bali 80862, Indonesia",https://maps.google.com/?cid=11451608405508830690,OPERATIONAL,,park,park,,,
ChIJHxk7hjAF0i0RHSf2gACRmLs,Warung Makan Diva (Ikan Laut),-8.4424704,115.48426719999999,"HF5M+2P6, Jl. Semarapura-Karangasem, Duda, Kec. Selat, Kabupaten Karangasem, Bali 80862, Indonesia",https://maps.google.com/?cid=13517713712902186781,OPERATIONAL,+62 857-9216-6432,indonesian_restaurant,"indonesian_restaurant, restaurant, food",4,28,
ChIJb69DNIgF0i0RNDObtOdTRx8,Milky Fun Esboba,-8.4417207,115.48578780000001,"HF5P+97Q, Jl. Baledan, Duda, Kec. Selat, Kabupaten Karangasem, Bali 80862, Indonesia",https://maps.google.com/?cid=2253862393154843444,OPERATIONAL,+62 857-3812-2163,restaurant,"restaurant, food",4.2,5,
ChIJtcI84JEb0i0R-yFVl46_C8g,WARUNG OLENG,-8.4426861,115.4841674,"Jl. Semarapura-Karangasem, Duda, Kec. Selat, Kabupaten Karangasem, Bali 80862, Indonesia",https://maps.google.com/?cid=14414825651474604539,OPERATIONAL,+62 821-4693-3244,indonesian_restaurant,"indonesian_restaurant, restaurant, food",5,7,
ChIJHeg2Y0sF0i0RvpkCvawG6LI,Warung Bu Koming,-8.4434377,115.48339870000001,"HF4M+J9C, Jl. Semarapura-Karangasem, Duda, Kec. Selat, Kabupaten Karangasem, Bali 80863, Indonesia",https://maps.google.com/?cid=12891561272323250622,OPERATIONAL,+62 823-4042-4259,restaurant,"restaurant, food",4,4,
ChIJ2RMtg4cF0i0RMgofuhUfNsM,WR.PODOMORO,-8.4387893,115.48170770000002,"HF6J+FMP, Selat, Karangasem Regency, Bali 80862, Indonesia",https://maps.google.com/?cid=14066464664315693618,OPERATIONAL,,restaurant,"restaurant, food",,,
ChIJ2WcKEi4F0i0RX-4wEYXp4SE,GRIYA SOSIS,-8.4388984,115.48002410000001,"HF6J+C2R, Jl. Baledan, Selat, Kec. Selat, Kabupaten Karangasem, Bali 80862, Indonesia",https://maps.google.com/?cid=2441489230739861087,OPERATIONAL,,cafe,"cafe, food",,,
ChIJP44a-UEF0i0RD9N3SMafQ0k,Pak Kubleng,-8.4409891,115.48426889999998,"HF5M+MP8, Jl. Baledan, Duda, Kec. Selat, Kabupaten Karangasem, Bali 80862, Indonesia",https://maps.google.com/?cid=5279238862176506639,OPERATIONAL,,bed_and_breakfast,"bed_and_breakfast, lodging",5,1,
ChIJKd6OiDoF0i0R1HBDvOImin8,Warung Sukaria,-8.4418293,115.4860003,"HF5P+7C6, Jl. Baledan, Duda, Kec. Selat, Kabupaten Karangasem, Bali 80862, Indonesia",https://maps.google.com/?cid=9190200744865919188,OPERATIONAL,,restaurant,"restaurant, food",,,
ChIJnbNPM2YF0i0R4EekB9771Mw,Warung Oleh2 Bali,-8.4417791,115.48478379999999,"HF5M+7WM, Duda, Selat, Karangasem Regency, Bali 80862, Indonesia",https://maps.google.com/?cid=14759698809829476320,OPERATIONAL,,cafe,"cafe, food",,,
ChIJb1zcUPMF0i0RXLpNRGCTlGI,Warung Tika,-8.4390134,115.4822445,"HF6J+9VX, Jl. Baledan, Selat, Kalangidi, Kabupaten Karangasem, Bali 80864, Indonesia",https://maps.google.com/?cid=7103464553942202972,OPERATIONAL,+62 821-4446-3380,restaurant,"restaurant, food",,,
ChIJH-Qg1S0F0i0RamoRymTAAkU,Warung Sate Babi,-8.437521,115.47910309999997,"HF6H+XJX, Selat, Karangasem Regency, Bali 80862, Indonesia",https://maps.google.com/?cid=4972748477689850474,OPERATIONAL,+62 852-3817-4104,indonesian_restaurant,"indonesian_restaurant, restaurant, food",4.4,8,
ChIJxbNUhDoF0i0RX_uEiC9X4jE,Warung Sari Merta,-8.4418636,115.4859934,"Jl. Baledan, Duda, Kec. Selat, Kabupaten Karangasem, Bali 80862, Indonesia",https://maps.google.com/?cid=3594531314260573023,OPERATIONAL,+62 852-3810-5788,restaurant,"restaurant, food",4.5,10,
ChIJRbEVd1EF0i0RnbZjBNyye0I,Warung Bakso Buk Trisna,-8.445386899999999,115.4816738,"HF3J+RMV, Jl. Semarapura-Karangasem, Duda, Kec. Selat, Kabupaten Karangasem, Bali 80662, Indonesia",https://maps.google.com/?cid=4790619286674847389,OPERATIONAL,+62 878-6552-0552,indonesian_restaurant,"indonesian_restaurant, restaurant, food",,,
ChIJBf-JqcIF0i0RI_u55bDVcuI,toko sukarta,-8.4418957,115.48594890000001,"HF5P+69W, Jl. Baledan, Duda, Kec. Selat, Kabupaten Karangasem, Bali 80862, Indonesia",https://maps.google.com/?cid=16317339355661859619,OPERATIONAL,+62 853-3820-5339,indonesian_restaurant,"indonesian_restaurant, restaurant, food",5,5,
ChIJL3aliToF0i0RbiGdDUiWwps,WARUNG MAKAN SARI NADI,-8.4418227,115.48620679999999,"HF5P+7FG, Jl. Baledan, Duda, Kec. Selat, Kabupaten Karangasem, Bali 80862, Indonesia",https://maps.google.com/?cid=11223698457570910574,OPERATIONAL,+62 857-3847-6478,restaurant,"restaurant, food",3,3,
ChIJld8XjD0F0i0RnEIopzWQaV8,Warung Tipat Cantok luh santi,-8.441967,115.48620299999999,"HF5P+6F8, Jl. Baledan, Duda Tim., Kec. Selat, Kabupaten Karangasem, Bali 80862, Indonesia",https://maps.google.com/?cid=6875184866269872796,OPERATIONAL,+62 852-3778-7576,restaurant,"restaurant, food",4.5,4,
