id,name,latitude,longitude,address,url,status,phone,primary-type,types,rating,rating-count,price-level
ChIJqbgnKwAS0i0RrRoZYjFw2WQ,Goa Lawah Temple,-8.551573099999999,115.4688279,"CFX9+9GG, Jl. Raya Goa Lawah, Pesinggahan, Kec. Dawan, Kabupaten Klungkung, Bali 80761, Indonesia",https://maps.google.com/?cid=7266962831140526765,OPERATIONAL,+62 813-3842-6781,hindu_temple,"hindu_temple, tourist_attraction, place_of_worship",4.6,5315,
ChIJp5dJUMET0i0Rm9xJOakfmas,Black sand beach,-8.5527691,115.46897609999999,"80761, Indonesia",https://maps.google.com/?cid=12364949063593483419,OPERATIONAL,,tourist_attraction,tourist_attraction,4.5,196,
ChIJHfztxQES0i0RqMyxwsCjbvA,Pantai Goa Lawah (Timur Pura - Rest Area),-8.5517007,115.47059229999999,"CFXC+868, Pesinggahan, Dawan, Klungkung Regency, Bali 80761, Indonesia",https://maps.google.com/?cid=17324964864836357288,OPERATIONAL,+62 878-6165-1476,tourist_attraction,tourist_attraction,4.5,813,
ChIJoSskMgAS0i0RdGNDtn_tgUA,Goa Lawah Camp,-8.552102399999999,115.4707399,"CFXC+575, Pesinggahan, Dawan, Klungkung Regency, Bali 80761, Indonesia",https://maps.google.com/?cid=4648257423197561716,OPERATIONAL,,campground,"campground, park, lodging",4.5,153,
ChIJOzoUTxwT0i0RUtejngCB9U0,WARUNG PUTRI PAN_GOLA,-8.551989599999999,115.4703157,"CFXC+644, Jl. Raya Goa Lawah, Pesinggahan, Kec. Dawan, Kabupaten Klungkung, Bali 80761, Indonesia",https://maps.google.com/?cid=5617537949876082514,OPERATIONAL,+62 878-5522-5940,restaurant,"restaurant, food",4.9,31,
ChIJhQuMd8IT0i0RVLPaTRFFtoI,Warung Nengah Special Ikan Laut,-8.5516933,115.4697018,"CFXC+83V, Jl. Raya Goa Lawah, Pesinggahan, Kec. Dawan, Kabupaten Klungkung, Bali 80761, Indonesia",https://maps.google.com/?cid=9418791611314910036,OPERATIONAL,+62 857-3820-1944,restaurant,"restaurant, food",5,7,
ChIJ88ohNn8R0i0Rr__rtJ_-hdc,Bali 294,-8.5508274,115.47227889999999,"CFXC+MW6, Pesinggahan, Dawan, Klungkung Regency, Bali 80761, Indonesia",https://maps.google.com/?cid=15530098851945643951,OPERATIONAL,+62 814-9473-3790,restaurant,"restaurant, food",4,2,
ChIJnZfqCUUT0i0RuYknn7MMtOE,SATE BABI RAPGL,-8.551621299999999,115.4703856,"CFXC+95, Pesinggahan, Dawan, Klungkung Regency, Bali 80761, Indonesia",https://maps.google.com/?cid=16263638119950551481,OPERATIONAL,+62 819-3690-9518,brunch_restaurant,"brunch_restaurant, restaurant, food",5,3,
ChIJA_Ve1AES0i0Rry8fxIqHzNg,Warung Rahayu,-8.5516396,115.4701668,"CFXC+83V, Jl. Raya Goa Lawah, Pesinggahan, Kec. Dawan, Kabupaten Klungkung, Bali 80761, Indonesia",https://maps.google.com/?cid=15622010237507022767,OPERATIONAL,+62 878-6259-9491,restaurant,"restaurant, food",4.3,6,
ChIJEQLOM6IT0i0RHDRiVmj6MhQ,Warung Rada,-8.552018499999999,115.47096189999998,"CFXC+575 Goa Lawah Camp, Pesinggahan, Dawan, Klungkung Regency, Bali 80761, Indonesia",https://maps.google.com/?cid=1455500955626910748,OPERATIONAL,+62 859-5387-2617,indonesian_restaurant,"indonesian_restaurant, restaurant, food",5,9,
ChIJG1D1Y0IP0i0R5kBx2VeRB3A,Rahayu Cemara House,-8.549171,115.476333,"FF2G+8M6, Jl. Raya Goa Lawah, Pesinggahan, Kec. Dawan, Kabupaten Klungkung, Bali 80761, Indonesia",https://maps.google.com/?cid=8072580663581163750,OPERATIONAL,,private_guest_room,"private_guest_room, lodging",5,1,
ChIJcycFHH4T0i0RaPvW8UU14Mk,Caratan Bali,-8.5513846,115.4708841,"Pesinggahan, Dawan, Klungkung Regency, Bali, Indonesia",https://maps.google.com/?cid=14546685370933115752,OPERATIONAL,,restaurant,"restaurant, food",5,2,
ChIJm1jk3AES0i0RrMG1VEQcvIQ,Warung Lesehan Lestari,-8.5515566,115.47010159999999,"CFXC+92H, Jl. Raya Goa Lawah, Pesinggahan, Kec. Dawan, Kabupaten Klungkung, Bali 80761, Indonesia",https://maps.google.com/?cid=9564550788432642476,OPERATIONAL,+62 819-9945-4791,indonesian_restaurant,"indonesian_restaurant, restaurant, food",4.1,9,
ChIJV3zuZCgP0i0RwI1NQ-K6-QM,Bali 302,-8.5508588,115.47355469999998,"Jl. Raya Goa Lawah No.16, Antiga Kelod, Kec. Manggis, Kabupaten Karangasem, Bali 80761, Indonesia",https://maps.google.com/?cid=286465532269268416,OPERATIONAL,+62 857-9224-6499,restaurant,"restaurant, food",,,
ChIJU-JvKYoP0i0RBtTQV0nlNak,Lenzer house,-8.5492046,115.476627,"FF2G+8M6, Jl. Raya Goa Lawah, Pesinggahan, Kec. Dawan, Kabupaten Klungkung, Bali 80761, Indonesia",https://maps.google.com/?cid=12192903669344162822,OPERATIONAL,,private_guest_room,"private_guest_room, lodging",,,
ChIJs9SwgP8R0i0RY7jHGtO28jg,Warung Adik,-8.551306400000001,115.4707282,"CFXC+F7H, Jl. Raya Goa Lawah, Pesinggahan, Kec. Dawan, Kabupaten Klungkung, Bali 80761, Indonesia",https://maps.google.com/?cid=4103543228291594339,OPERATIONAL,+62 821-4751-3082,restaurant,"restaurant, food",,,
ChIJz1zc2n4T0i0RhsyjJ6S1nZU,MO.ES,-8.551562299999999,115.4700825,"CFXC+92G, Jl. Raya Goa Lawah, Pesinggahan, Kec. Dawan, Kabupaten Klungkung, Bali, Indonesia",https://maps.google.com/?cid=10780972799639145606,OPERATIONAL,,cafe,"cafe, food",5,1,
ChIJDxbVLgAP0i0R2LC_mOga3R0,Lanying Coffee & Eatery,-8.550867499999999,115.47355469999998,"CFXF+MC3, Banjar Belatung, Pesinggahan, Kec. Dawan, Kabupaten Klungkung, Bali, Indonesia",https://maps.google.com/?cid=2151905783250399448,OPERATIONAL,,coffee_shop,"coffee_shop, cafe, store, food",5,1,
ChIJrRpb2gES0i0Rf1KGVHrpeL0,WARUNG BUK WAYAN,-8.5519455,115.4695443,"CFX9+6RF, Jl. Raya Goa Lawah, Pesinggahan, Kec. Dawan, Kabupaten Klungkung, Bali 80761, Indonesia",https://maps.google.com/?cid=13652918981987029631,OPERATIONAL,,restaurant,"restaurant, food",5,1,
