id,name,latitude,longitude,address,url,status,phone,primary-type,types,rating,rating-count,price-level
ChIJwQo2II2T0S0RIFqjUsZVWyw,JFC TAMBLANG,-8.1300533,115.1984854,"V59X+X9H, Jl. Gn. Batur, Tamblang, Kec. Kubutambahan, Kabupaten Buleleng, Bali 81172, Indonesia",https://maps.google.com/?cid=3196242670827821600,OPERATIONAL,+62 859-3837-7614,fast_food_restaurant,"fast_food_restaurant, restaurant, food",4.2,60,
ChIJH995pi2S0S0RihIiPLFO3lU,BABI GULING BANG JARWO,-8.1299303,115.19868699999998,"Tamblang, Kubutambahan, Buleleng Regency, Bali, Indonesia",https://maps.google.com/?cid=6187469461178684042,OPERATIONAL,,restaurant,"restaurant, food",4,1,
ChIJXdHrj_yT0S0Rhk_fH5CNYO4,Warung 24 Jam Sridevi,-8.129982199999999,115.19837229999997,"Jl. Gn. Batur, Tamblang, Kec. Kubutambahan, Kabupaten Buleleng, Bali 81172, Indonesia",https://maps.google.com/?cid=17176884628940607366,OPERATIONAL,+62 877-6212-1999,restaurant,"restaurant, food",4.2,5,
ChIJn8naB3-T0S0R1iw1KiSRh2o,Lapangan Rumada Tamblang,-8.1300023,115.197856,"V59X+X4X, Tamblang, Kubutambahan, Buleleng Regency, Bali, Indonesia",https://maps.google.com/?cid=7676263674389277910,OPERATIONAL,,park,park,5,1,
ChIJdViN8wCT0S0RqYTxlFj5nc8,SEMPOL AYAM WIKA PASAR TAMBLANG,-8.1294218,115.19906329999999,"V5CX+6JP, Tamblang, Kubutambahan, Buleleng Regency, Bali 81172, Indonesia",https://maps.google.com/?cid=14960387696045950121,OPERATIONAL,,brunch_restaurant,"brunch_restaurant, restaurant, food",4,2,
ChIJY6Lnpi2S0S0R6jKlImZ5tKI,Warung Sari Murni,-8.129887499999999,115.19882159999999,"V5CX+2GW, Jl. Raya Tamblang, Tamblang, Kec. Kubutambahan, Kabupaten Buleleng, Bali 81172, Indonesia",https://maps.google.com/?cid=11724129209527120618,OPERATIONAL,+62 857-9481-9684,cafe,"cafe, food",5,1,
ChIJwaJMBkiT0S0RuFzVQ8q4nE0,"Warung Bu Mangku ""tamblang""",-8.130398099999999,115.19952609999999,"Tamblang, Kubutambahan, Buleleng Regency, Bali 81172, Indonesia",https://maps.google.com/?cid=5592548016148274360,OPERATIONAL,+62 857-3960-6401,food,"restaurant, food",,,
ChIJOxDHhWqT0S0RqTrXMRdcrnY,Warung Nikmat,-8.1296351,115.19758820000001,"V5CX+42W, Jl. Gn. Batur, Tamblang, Kec. Kubutambahan, Kabupaten Buleleng, Bali 81172, Indonesia",https://maps.google.com/?cid=8551873997113342633,OPERATIONAL,+62 877-6256-8031,restaurant,"restaurant, food",4.5,2,
ChIJW7sVLZOT0S0RuNLo8-Aa8oo,The Land of Happiness,-8.126437000000001,115.1968347,"V5FW+CPG, Lanyaan, Tamblang, Kec. Kubutambahan, Kabupaten Buleleng, Bali 81172, Indonesia",https://maps.google.com/?cid=10012094475065152184,OPERATIONAL,,lodging,lodging,5,3,
ChIJh3BPHeaT0S0RqZI-t64B_Tw,Warung Nasi Men Jantuk,-8.128765,115.19723269999999,"V5CW+FVX, Jl. Raya Singaraja, Tamblang, Kec. Kubutambahan, Kabupaten Buleleng, Bali 81172, Indonesia",https://maps.google.com/?cid=4394670661293740713,CLOSED_TEMPORARILY,,restaurant,"indonesian_restaurant, restaurant, food",,,
ChIJ3fyD-WST0S0RNqsQ3ceLFlQ,Martabak Bali Tamblang,-8.1297187,115.1981749,"Tamblang, Kubutambahan, Singaraa, Bali 81172, Indonesia",https://maps.google.com/?cid=6059184039197190966,OPERATIONAL,+62 815-4766-3780,restaurant,"restaurant, food",,,
ChIJrTcwuLyT0S0RlOr_ELiop8U,warung R3,-8.1312477,115.2025316,"V693+G23, Tamblang, Kubutambahan, Buleleng Regency, Bali 81172, Indonesia",https://maps.google.com/?cid=14242537855095138964,OPERATIONAL,+62 819-3750-5576,restaurant,"restaurant, food",5,1,
