id,name,latitude,longitude,address,url,status,phone,primary-type,types,rating,rating-count,price-level
ChIJhRJFjgOT0S0R8C0wXZBsi7w,Dapur Bu Ika,-8.149329999999999,115.24895900000001,"V62X+7H8, Jl. Gn. Batur, Mengening, Kec. Kubutambahan, Kabupaten Buleleng, Bali 81172, Indonesia",https://maps.google.com/?cid=13586072068187762160,OPERATIONAL,,indonesian_restaurant,"indonesian_restaurant, restaurant, food",,,
ChIJvSW-dVaT0S0Ryvxsyr2U35U,Pondok aNcut moNgo,-8.1489298,115.2503684,"Jl. Gn. Batur, Tajun, Kec. Kubutambahan, Kabupaten Buleleng, Bali 81172, Indonesia",https://maps.google.com/?cid=10799513974323608778,OPERATIONAL,+62 877-6248-3075,tourist_attraction,tourist_attraction,3,2,
ChIJORG9jI2S0S0RGIeA6qd5KP0,Warning Makan Darma,-8.1476907,115.2478052,"V62X+W4F, Jl. Gn. Batur, Mengening, Kec. Kubutambahan, Kabupaten Buleleng, Bali 81172, Indonesia",https://maps.google.com/?cid=18241964052764985112,OPERATIONAL,,restaurant,"restaurant, food",5,1,
ChIJD8wmVLaT0S0Ras6cbhd37ls,Warung Luh Seniasih,-8.1488319,115.2489063,"V62X+FH7, Jl. Gn. Batur, Mengening, Kec. Kubutambahan, Kabupaten Buleleng, Bali 81172, Indonesia",https://maps.google.com/?cid=6624363044432301674,OPERATIONAL,+62 817-4768-278,coffee_shop,"coffee_shop, cafe, food, store",3.6,8,
ChIJ3Tc5lW-T0S0RqkO7ccHzNME,PetirtaaN KayehaN moNgo,-8.1509889,115.2506218,"R7X2+J65, Jl. Gn. Batur, Tajun, Kec. Kubutambahan, Kabupaten Buleleng, Bali 81172, Indonesia",https://maps.google.com/?cid=13922020360271381418,OPERATIONAL,,tourist_attraction,tourist_attraction,5,1,
ChIJw3PpjSuT0S0RmyovwLoLk8o,JRMD home,-8.1516342,115.25359350000001,"R7X3+8C, Tajun, Kubutambahan, Buleleng Regency, Bali 81172, Indonesia",https://maps.google.com/?cid=14597023713954048667,OPERATIONAL,,historical_landmark,historical_landmark,,,
ChIJzyfQJ1WT0S0RI_e4MaLeupU,Home ADIT,-8.1547425,115.24662029999999,"R6WW+4J5, Mengening, Kubutambahan, Buleleng Regency, Bali 81172, Indonesia",https://maps.google.com/?cid=10789180645519718179,OPERATIONAL,,private_guest_room,"private_guest_room, lodging",,,
