id,name,latitude,longitude,address,url,status,phone,primary-type,types,rating,rating-count,price-level
ChIJlXM8rTg90i0ReSPxtI47c58,Solana Luxury Wellness Retreat,-8.554830299999999,115.25470390000001,"Jl. Raya Silakarang Singapadu Kaler No.BR, Singapadu Kaler, Kec. Sukawati, Kabupaten Gianyar, Bali 80582, Indonesia",https://maps.google.com/?cid=11489592558459364217,OPERATIONAL,+62 859-4306-1163,health,"spa, hotel, lodging, health",4.9,98,
ChIJqRCdEuA90i0RROalLukRO-w,Kadewa Retreat Ubud,-8.551115099999999,115.2550157,"Jl. Bhisma Dua No.8, Banjar Gelogor, Lodtunduh, Kecamatan Ubud, Kabupaten Gianyar, Bali 80571, Indonesia",https://maps.google.com/?cid=17022218909784598084,OPERATIONAL,+62 811-3985-555,,lodging,4.7,65,
ChIJIQuYo1490i0RaDFoi1EeuQQ,AYUNA Family Ubud,-8.5510099,115.25705880000001,"Jl. Lod Tunduh, Lodtunduh, Kecamatan Ubud, Kabupaten Gianyar, Bali 80571, Indonesia",https://maps.google.com/?cid=340336582423228776,OPERATIONAL,+62 878-6047-4220,lodging,lodging,4.8,87,
ChIJfzpOXsE90i0RpeXrAE4Y8U0,Ubud Lestari Villa,-8.5510509,115.25546589999999,"Lodtunduh, Ubud, Gianyar Regency, Bali 80571, Indonesia",https://maps.google.com/?cid=5616296933609694629,OPERATIONAL,+62 813-5300-1080,hotel,"hotel, lodging",4.4,102,
ChIJMXJl48M90i0R8frhLx_MF4U,Casalita Ubud Villas,-8.553742699999999,115.25637379999999,"Jl. Raya Gelogor, Lodtunduh, Kecamatan Ubud, Kabupaten Gianyar, Bali 80571, Indonesia",https://maps.google.com/?cid=9590358365828152049,OPERATIONAL,+62 818-0555-8889,,"guest_house, lodging",4.3,20,
ChIJ44IfOp490i0RPMRm0PH2vi4,The Moss by Goldmine,-8.5496681,115.25790759999998,"Jl. Tegal Utu, Lodtunduh, Kecamatan Ubud, Kabupaten Gianyar, Bali 80571, Indonesia",https://maps.google.com/?cid=3368401089763656764,OPERATIONAL,+62 823-4043-4636,restaurant,"restaurant, food",4.8,106,
ChIJyfQ71sA90i0R4B1ZjVKPqiU,Beji Hill Villa,-8.549064099999999,115.2547115,"Lodtunduh Ubud, Lodtunduh, Kec. Gianyar, Kabupaten Gianyar, Bali 80571, Indonesia",https://maps.google.com/?cid=2714139310165663200,OPERATIONAL,+62 813-3930-4726,,lodging,4.8,40,
ChIJA5wOuto90i0Rrou3TcLO3VM,Beji Hill Waterfall,-8.5489467,115.25441629999997,"Lodtunduh Ubud, Lodtunduh, Ubud, Kec. Gianyar, Kabupaten Gianyar, Bali 80571, Indonesia",https://maps.google.com/?cid=6043213608923925422,OPERATIONAL,,tourist_attraction,tourist_attraction,3.5,8,
ChIJN5LTZd090i0RQhEmVE0pExE,Rafting Bali Booking,-8.5548451,115.25396149999999,"Br, Jl. Raya Silakarang Singapadu Kaler, Singapadu Kaler, Kec. Sukawati, Kabupaten Gianyar, Bali 80582, Indonesia",https://maps.google.com/?cid=1230372535303278914,OPERATIONAL,+98 912 383 8115,tourist_attraction,tourist_attraction,4.4,7,
ChIJhcgP44490i0RYTDFwQIVYSQ,Lod Ubud Villa,-8.5520493,115.25315409999999,"Br, Jl. Raya Silakarang Singapadu Kaler, Singapadu Kaler, Kec. Sukawati, Kabupaten Gianyar, Bali 80571, Indonesia",https://maps.google.com/?cid=2621399559691382881,OPERATIONAL,+62 821-4474-0088,,lodging,4.9,99,
ChIJnZa02Po90i0RlOpjRnkGBb4,Rice Padi Artha,-8.5509686,115.256118,"Unnamed Road, C7X4+JC9, Lodtunduh, Kecamatan Ubud, Kabupaten Gianyar, Bali 80571, Indonesia",https://maps.google.com/?cid=13692357360031623828,OPERATIONAL,+62 813-3955-6696,hotel,"hotel, lodging",4.1,37,
ChIJ7xWKYsA90i0Rp1dwXy-HTcs,Villa Lumia Bali,-8.5473265,115.25669039999998,"Jl. Tegal Utu, Gg. Lumia, Banjar Kelingkung, Lodtunduh, Kecamatan Ubud, Kabupaten Gianyar, Bali 80571, Indonesia",https://maps.google.com/?cid=14649513800440502183,OPERATIONAL,+62 361 8493608,,"guest_house, lodging",4.8,51,
ChIJgwdCe5E90i0R7aCHM6bVDdc,Waroeng KKP,-8.5509661,115.25695449999999,"Lodtunduh, Ubud, Gianyar Regency, Bali 80571, Indonesia",https://maps.google.com/?cid=15496276802657558765,OPERATIONAL,+62 895-3440-28959,restaurant,"restaurant, food",4.9,96,
ChIJodb-YcQ90i0ROBK8nueJrWw,Villa Uma Luwih,-8.5536414,115.25293850000001,"C7W3+G5W, Singapadu Kaler, Sukawati, Gianyar Regency, Bali 80571, Indonesia",https://maps.google.com/?cid=7831066954960736824,OPERATIONAL,+62 819-1641-6258,lodging,lodging,4.2,55,
ChIJefG8S8Q90i0RflZnxTZ8FAo,Bee Coffee & Bakehouse,-8.5531468,115.2514374,"Jl. Raya Kengetan, Singakerta, Kecamatan Ubud, Kabupaten Gianyar, Bali 80571, Indonesia",https://maps.google.com/?cid=726342014595454590,OPERATIONAL,+62 821-2449-8452,coffee_shop,"coffee_shop, cafe, store, food",4.7,80,PRICE_LEVEL_INEXPENSIVE
ChIJhWip5cM90i0RBrY-d_8ydAo,"Villa SANTAI, Lod Tunduh, Ubud",-8.551757199999999,115.25496,"C7X3+7XW, Lodtunduh, Ubud, Gianyar Regency, Bali 80571, Indonesia",https://maps.google.com/?cid=753283110476363270,OPERATIONAL,,,lodging,4.4,32,
ChIJjXffRcA90i0R1C29Lf_bt-o,GLORIA KOST,-8.5477458,115.2582053,"Lodtunduh, Ubud, Gianyar Regency, Bali 80571, Indonesia",https://maps.google.com/?cid=16913228814643703252,OPERATIONAL,+62 812-9603-7539,extended_stay_hotel,"extended_stay_hotel, hotel, lodging",4.2,22,
ChIJSXj-rKo90i0Rni8MxFrgcmU,Wos Ubud Villa,-8.5521136,115.2527542,"C7X3+542, Singapadu Kaler, Sukawati, Gianyar Regency, Bali 80571, Indonesia",https://maps.google.com/?cid=7310151825616547742,OPERATIONAL,,lodging,lodging,4.6,20,
ChIJOfWAsaY90i0RqdWinSpZ2og,Bali fun tubing,-8.5538911,115.2519692,"Jl. Raya Silakarang Singapadu Kaler, Singapadu Kaler, Kec. Sukawati, Kabupaten Gianyar, Bali 80571, Indonesia",https://maps.google.com/?cid=9861292373649315241,OPERATIONAL,+62 813-3737-7477,tourist_attraction,tourist_attraction,4.8,13,
ChIJfdbtHaE90i0RbupxRzwOLTc,sansaria villa,-8.554008099999999,115.2539527,"Jl. Bhisma Dua No.10, Lodtunduh, Kecamatan Ubud, Kabupaten Gianyar, Bali 80571, Indonesia",https://maps.google.com/?cid=3975849698097490542,OPERATIONAL,+62 811-9841-560,hotel,"hotel, lodging",2,1,
