id,name,latitude,longitude,address,url,status,phone,primary-type,types,rating,rating-count,price-level
ChIJi8MVL56J0S0Rm19XhNPS1Eg,Saras Restaurant,-8.2912535,115.1698383,"Jl. Baturiti Bedugul No.7, Batunya, Kec. Baturiti, Kabupaten Tabanan, Bali 82191, Indonesia",https://maps.google.com/?cid=5248051271693721499,OPERATIONAL,+62 368 21187,restaurant,"restaurant, food",4.2,3363,PRICE_LEVEL_MODERATE
ChIJ0-ewnZ6J0S0R42lSer-LFVg,Rumah Makan Taman Sari,-8.293252599999999,115.17085449999999,"Jl. Pancasari - Baturiti, Batunya, Bedugul, Kabupaten Tabanan, Bali 82161, Indonesia",https://maps.google.com/?cid=6347132904355817955,OPERATIONAL,+62 811-394-831,restaurant,"restaurant, food",4.3,2527,PRICE_LEVEL_MODERATE
ChIJlTeRtOWJ0S0RWLHHSEBO4Qc,Nasi Tempong Indra Bedugul,-8.2892212,115.16836239999999,"P569+889, Jl. Baturiti Bedugul, Batunya, Kec. Baturiti, Kabupaten Tabanan, Bali 82191, Indonesia",https://maps.google.com/?cid=567821066031313240,OPERATIONAL,,restaurant,"restaurant, food",4.3,1230,PRICE_LEVEL_MODERATE
ChIJSWEMh7iJ0S0RdWvY8D_J8F0,Bli Wayan Cafe & Kitchen,-8.290896,115.1693822,"Jl. Raya Bedugul, Batunya, Kec. Baturiti, Kabupaten Tabanan, Bali 82191, Indonesia",https://maps.google.com/?cid=6769131516398693237,OPERATIONAL,+62 815-5848-0000,restaurant,"restaurant, food",4.3,1016,PRICE_LEVEL_INEXPENSIVE
ChIJn4bzs-2J0S0RDaHvvDM3Z50,Wr. Nasi Babi Guling Samsam Bedugul(3 DEWI),-8.290042,115.1683333,"Jl. Baturiti Bedugul, Batunya, Kec. Baturiti, Kabupaten Tabanan, Bali 82191, Indonesia",https://maps.google.com/?cid=11342094881908564237,OPERATIONAL,+62 812-7387-3486,restaurant,"restaurant, food",4.7,36,
ChIJTxeuuYOJ0S0Rwr2cfoFnjBw,Point Coffee,-8.2894135,115.16808350000001,"Jl. Baturiti Bedugul, Batunya, Kec. Baturiti, Kabupaten Tabanan, Bali 82191, Indonesia",https://maps.google.com/?cid=2057132935674117570,OPERATIONAL,+62 21 1500280,coffee_shop,"coffee_shop, cafe, food, store",4.3,13,
ChIJ7XJ_aGiJ0S0RJBPPwuQ0ZpU,Arunika Coffee Eatery,-8.2885705,115.16812130000001,"Jl. Baturiti Bedugul, Batunya, Kec. Baturiti, Kabupaten Tabanan, Bali 82191, Indonesia",https://maps.google.com/?cid=10765350116401287972,OPERATIONAL,+62 815-4735-5198,coffee_shop,"coffee_shop, cafe, restaurant, food, store",4.5,111,
ChIJcWVxg56J0S0RDPmrtYBbi5s,Bakmi Akai (Bedugul),-8.292887,115.170807,"P54C+R8V, Jl. Baturiti Bedugul, Batunya, Kec. Baturiti, Kabupaten Tabanan, Bali 82161, Indonesia",https://maps.google.com/?cid=11208152706003499276,CLOSED_TEMPORARILY,+62 361 237197,restaurant,"chinese_restaurant, restaurant, food",4.2,289,
ChIJdUmwcZaJ0S0RwLGGL4syW94,Gegep Coffee,-8.2909113,115.16937840000001,"Jl. Raya Bedugul Bedugul, Batunya, Kec. Baturiti, Kabupaten Tabanan, Bali 82191, Indonesia",https://maps.google.com/?cid=16022455672679870912,OPERATIONAL,+62 815-5848-2222,coffee_shop,"coffee_shop, cafe, food, store",4.4,10,
ChIJIfIsnXWJ0S0RL1myr02FJKM,"WR. MUSLIM MAS EMIR (Bakso & Mie Ayam). Mie Ayam Ceker, Telor, Bakso",-8.2894384,115.16834129999998,"P569+68G, Jl. Baturiti Bedugul, Batunya, Kec. Baturiti, Kabupaten Tabanan, Bali 82191, Indonesia",https://maps.google.com/?cid=11755667496050514223,OPERATIONAL,+62 822-3660-3690,restaurant,"indonesian_restaurant, restaurant, food",4.2,88,
ChIJbd8ziJ6J0S0RScx_O0xVGi8,Rumah makan alami,-8.2925563,115.1701783,"P54C+X3F, Jl. Baturiti Bedugul, Batunya, Kec. Baturiti, Kabupaten Tabanan, Bali 82161, Indonesia",https://maps.google.com/?cid=3394119055081196617,OPERATIONAL,,indonesian_restaurant,"indonesian_restaurant, restaurant, food",5,4,
ChIJA5pZPZyJ0S0R8yzfMz5sU_s,Kalingga,-8.2935532,115.1719255,"P54C+HQF, Jl. Baturiti Bedugul, Batunya, Kec. Baturiti, Kabupaten Tabanan, Bali 82191, Indonesia",https://maps.google.com/?cid=18109937541000932595,OPERATIONAL,+62 813-3866-5698,,lodging,4.6,11,
ChIJ5VzCtqeJ0S0RS-vpIDANV28,Say Burger @Indomaret Taman Tanda Bali,-8.2894654,115.1681016,"P569+669, Jl. Baturiti Bedugul, Batunya, Kec. Baturiti, Kabupaten Tabanan, Bali 82191, Indonesia",https://maps.google.com/?cid=8022895761545620299,OPERATIONAL,,hamburger_restaurant,"hamburger_restaurant, american_restaurant, restaurant, food",5,2,
ChIJG85wOp6J0S0RXC3sqnruJWI,WARUNG BIKERS,-8.2886437,115.16824539999999,"P569+G7X, Jl. Baturiti Bedugul, Batunya, Kec. Baturiti, Kabupaten Tabanan, Bali 82191, Indonesia",https://maps.google.com/?cid=7072321000476257628,OPERATIONAL,+62 858-5815-0397,restaurant,"restaurant, food",5,4,
ChIJ6VDJUgCJ0S0RMUdV1kVgdlo,Bagindo Padang Restaurant,-8.288337,115.1679936,"P569+J47, Jl. Baturiti Bedugul, Batunya, Kec. Baturiti, Kabupaten Tabanan, Bali 82191, Indonesia",https://maps.google.com/?cid=6518503363730294577,OPERATIONAL,,indonesian_restaurant,"indonesian_restaurant, restaurant, food",5,3,
ChIJS4TOK56J0S0RXuuzth5OYNw,Kopi Abc,-8.2902077,115.1684482,"P559+W98, Jl. Baturiti Bedugul, Batunya, Kec. Baturiti, Kabupaten Tabanan, Bali 82191, Indonesia",https://maps.google.com/?cid=15879778179929598814,OPERATIONAL,,cafe,"cafe, food",5,1,
ChIJOXY0iJ6J0S0RX4SLMcY0_es,Warung Semeton Bali,-8.2887007,115.16920329999998,"P569+GM8, Jl. Baturiti Bedugul, Batunya, Kec. Baturiti, Kabupaten Tabanan, Bali 82191, Indonesia",https://maps.google.com/?cid=17004805793860256863,OPERATIONAL,+62 821-4728-5849,restaurant,"restaurant, food",4.7,6,
ChIJR2LnLfiJ0S0R2N11MQMaTOI,Taman Pucak Giri,-8.2894309,115.1678243,"P569+669, Jl. Baturiti Bedugul, Batunya, Kec. Baturiti, Kabupaten Tabanan, Bali 82191, Indonesia",https://maps.google.com/?cid=16306436951818755544,OPERATIONAL,,park,park,,,
ChIJOXY0iJ6J0S0Rx3QGFm4pb7o,Warung Makan Pak Dewa,-8.2883652,115.1690524,"P569+MJ3, Jl. Baturiti Bedugul, Batunya, Kec. Baturiti, Kabupaten Tabanan, Bali 82191, Indonesia",https://maps.google.com/?cid=13434001766262142151,OPERATIONAL,+62 853-3852-0086,restaurant,"restaurant, food",5,1,
ChIJQTLFPJyJ0S0RDlo5LuUlK_A,Green Villa,-8.2933716,115.1719255,"P54C+MQ3, Jalan Villa Green Apple, Batunya, Kec. Baturiti, Kabupaten Tabanan, Bali 82161, Indonesia",https://maps.google.com/?cid=17305967659354511886,OPERATIONAL,,restaurant,"restaurant, food",3.9,7,
