id,name,latitude,longitude,address,url,status,phone,primary-type,types,rating,rating-count,price-level
ChIJv-NCtCEZ0i0RbIT8M3h1v3g,Air Terjun Muntig,-8.47508,115.29777519999998,"Banjar Pengembungan, Pejeng Kangin, Kec. Tampaksiring, Kabupaten Gianyar, Bali 80552, Indonesia",https://maps.google.com/?cid=8700802164231799916,OPERATIONAL,,tourist_attraction,tourist_attraction,3.3,6,
ChIJhZboR7YZ0i0RracEYV8e0Iw,Surya Agung Bali rental,-8.473524,115.30237799999999,"Br. Pengembungan, Pejeng Kangin, Kec. Tampaksiring, Kabupaten Gianyar, Bali 80552, Indonesia",https://maps.google.com/?cid=10146643355464148909,OPERATIONAL,+62 818-0552-9888,,car_rental,5,30,
ChIJXbU8C6QZ0i0RwThRvE98BVs,Puri Kelodan Pengembungan,-8.474451,115.30205339999999,"Pejeng Kangin, Tampaksiring, Gianyar Regency, Bali 80552, Indonesia",https://maps.google.com/?cid=6558785114238695617,OPERATIONAL,+62 821-4783-9797,,lodging,5,5,
ChIJ4QVnFIMZ0i0RVSv9Vnjpres,Manyar 8,-8.469389399999999,115.30021729999999,"Br pengembungan, Pejeng Kangin, Kec. Tampaksiring, Kabupaten Gianyar, Bali 80552, Indonesia",https://maps.google.com/?cid=16982486472948788053,OPERATIONAL,+62 813-3056-1586,,lodging,,,
ChIJi9A2nxEZ0i0Rc6ki1kmWmFE,Warung Mek Ming,-8.474611500000002,115.3023647,"G8G2+5W5, Pejeng Kangin, Tampaksiring, Gianyar Regency, Bali 80552, Indonesia",https://maps.google.com/?cid=5879614557401557363,OPERATIONAL,+62 812-3651-7714,restaurant,"restaurant, food",5,4,
ChIJNwYHdxkY0i0RZ7jrIM2CGXk,Warung wah cahya,-8.4750024,115.30243039999999,"Jl. Raya Pejeng Kangin, Pejeng Kangin, Kec. Tampaksiring, Kabupaten Gianyar, Bali 80552, Indonesia",https://maps.google.com/?cid=8726149570539272295,OPERATIONAL,+62 878-6148-3031,indonesian_restaurant,"indonesian_restaurant, restaurant, food",,,
ChIJH9MRDfcZ0i0RSyrLnS7BsJU,brother undagi,-8.4706601,115.29970929999999,"G7HX+MVV, Jl. Raya Pejeng Kangin, Pejeng Kangin, Kec. Tampaksiring, Kabupaten Gianyar, Bali 80552, Indonesia",https://maps.google.com/?cid=10786333513512331851,OPERATIONAL,,private_guest_room,"private_guest_room, lodging",,,
ChIJ9Uxr7RkY0i0Rh7XbmctD8c0,Surya loka,-8.4734379,115.3023372,"jl raya pengembungan, gang tridatu, Pejeng Kangin, Kec. Tampaksiring, Kabupaten Gianyar, Bali 80552, Indonesia",https://maps.google.com/?cid=14839716788901229959,OPERATIONAL,+62 818-0552-9888,,lodging,,,
ChIJEXV6bgAZ0i0RbiSIRK2fbXw,Tukad,-8.4715539,115.29754499999999,"G7HX+92F, Tukad belalu, Pejeng Kangin, Kec. Tampaksiring, Kabupaten Gianyar, Bali, Indonesia",https://maps.google.com/?cid=8965997999692457070,OPERATIONAL,,tourist_attraction,tourist_attraction,,,
