id,name,latitude,longitude,address,url,status,phone,primary-type,types,rating,rating-count,price-level
ChIJORo9qu5E0i0RdNI20zwpQDQ,Puri Sabina Bed & Breakfast,-8.8016123,115.14893819999999,"Jl. Puri Sabina No.1, Jimbaran, Kec. Kuta Sel., Kabupaten Badung, Bali 80361, Indonesia",https://maps.google.com/?cid=3765054629700096628,OPERATIONAL,+62 812-3955-6859,private_guest_room,"private_guest_room, bed_and_breakfast, lodging",4.4,359,
ChIJVVX53dlE0i0RTesXkmgC_w8,Rebels Point,-8.803664,115.14645770000001,"Jl. Blong Keker No.88, Jimbaran, Kec. Kuta Sel., Kabupaten Badung, Bali 80361, Indonesia",https://maps.google.com/?cid=1152642677781031757,OPERATIONAL,+62 882-0082-18634,hotel,"hotel, lodging",4.6,59,
ChIJ13mqXdxE0i0Rjo7GWTS90ZA,Kampung 168,-8.7999353,115.1500312,"Jl. Bandung Jl. Puri Gading, Kampung 168, Jimbaran, Kec. Kuta Sel., Kabupaten Badung, Bali 80361, Indonesia",https://maps.google.com/?cid=10435329844136283790,OPERATIONAL,+62 822-3633-0654,extended_stay_hotel,"extended_stay_hotel, hotel, lodging",4.3,315,
ChIJGTOl3t5E0i0R7QKs6lcNM50,Gading Kencana Residence - Jimbaran,-8.8007118,115.1447714,"Perumahan Gading Kencana, Jl. Puri Gading, Jimbaran, Kec. Kuta Sel., Kabupaten Badung, Bali 80361, Indonesia",https://maps.google.com/?cid=11327412159017386733,OPERATIONAL,,local_government_office,"real_estate_agency, lodging, finance, local_government_office",3.3,37,
ChIJd1DBAbZF0i0RjYV7MeuYTSg,"XO Burger Bali, Puri Gading",-8.804627,115.1464736,"Jl. Blong Keker, Gang Pandu Jl. Puri Gading, Jimbaran, Kec. Kuta Sel., Kabupaten Badung, Bali 80361, Indonesia",https://maps.google.com/?cid=2904145470638753165,OPERATIONAL,+62 878-6236-2302,hamburger_restaurant,"hamburger_restaurant, american_restaurant, restaurant, food",4.7,172,
ChIJEer0NORF0i0Rd6XJ4d-Scww,Vanilla Suite Jimbaran,-8.8027739,115.14842259999999,"Jalan Blong Keker, Gg. Elang Jl. Puri Gading, Jimbaran, Kec. Kuta Sel., Kabupaten Badung, Bali 80361, Indonesia",https://maps.google.com/?cid=897222241040311671,OPERATIONAL,+62 821-4653-6606,hotel,"hotel, lodging",5,100,
ChIJudFs3KtF0i0RUGCuwTTzz2s,"Kitchen house, burger, pasta, pizza",-8.8054583,115.14592949999998,"Jl. Blong Keker, Jimbaran, Kec. Kuta Sel., Kabupaten Badung, Bali 80361, Indonesia",https://maps.google.com/?cid=7768695290150674512,OPERATIONAL,+62 819-1617-1915,restaurant,"restaurant, food",4.7,157,
ChIJ496mba9F0i0RoezVaw7Q0vE,Villa Bahagia by Bukit Vista,-8.8038444,115.1472374,"Alang Alang Residence, Perumahan Puri Gading, Jl. Blong Keker Alang Alang Residence No.10, Jimbaran, South Kuta, Badung Regency, Bali 80361, Indonesia",https://maps.google.com/?cid=17425218668607171745,OPERATIONAL,,lodging,lodging,4.2,36,
ChIJ-4HjeXpF0i0R2FWbKIR89NU,ShRi Cafe Vegan & Vegetarian,-8.8009497,115.14842159999999,"Jl. Puri Gading, Jimbaran, Kec. Kuta Sel., Kabupaten Badung, Bali 80361, Indonesia",https://maps.google.com/?cid=15417084331454846424,OPERATIONAL,+62 812-4604-7175,vegetarian_restaurant,"vegetarian_restaurant, restaurant, food",4.3,96,PRICE_LEVEL_INEXPENSIVE
ChIJb63nOThF0i0RE-P3vlqm_cw,Riung Rasa Indonesian Backyard BBQ,-8.8004892,115.14677459999999,"Jl. Puri Gading No.Garden 77, Jimbaran, Kec. Kuta Sel., Kabupaten Badung, Bali 80361, Indonesia",https://maps.google.com/?cid=14771145261526278931,OPERATIONAL,+62 818-0939-0461,restaurant,"restaurant, food",4.9,68,
ChIJg7qpvztF0i0RnkftJNWnXdg,Puri Gading Villa Jimbaran by The Lavana,-8.801287,115.1508163,"Jl. Surabaya, Jimbaran, Kec. Kuta Sel., Kabupaten Badung, Bali 80361, Indonesia",https://maps.google.com/?cid=15590802018915927966,OPERATIONAL,+62 896-8000-0788,hotel,"hotel, lodging",4.3,44,
ChIJI85-Fz5F0i0RllmFyl1q0qc,Saka Luxury Villa - Jimbaran,-8.802088,115.14451249999998,"Jl. Puri Gading, Perumahan Gading Kencana Nomor D28 1 & 2, Banjar, Jimbaran, South Kuta, Badung Regency, Bali 80361, Indonesia",https://maps.google.com/?cid=12092844900505442710,OPERATIONAL,+62 853-3347-9222,hotel,"hotel, lodging",4.9,17,
ChIJ7V2fksJF0i0Rj-KFIFRwFJU,Bailey's Food & Cafe,-8.8038504,115.14646730000001,"Jl. Blong Keker no.86x, Jimbaran, Kec. Kuta Sel., Kabupaten Badung, Bali 80361, Indonesia",https://maps.google.com/?cid=10742334517810684559,OPERATIONAL,+62 823-3957-3493,cafe,"cafe, coffee_shop, store, restaurant, food",5,131,
ChIJ-SFaELNF0i0R5hkqZrERrfU,Shortcut Coffee,-8.8041658,115.14622820000001,"Jl. Blong Keker No.68, Jimbaran, Kec. Kuta Sel., Kabupaten Badung, Bali 80361, Indonesia",https://maps.google.com/?cid=17702825163884206566,OPERATIONAL,+62 812-6203-079,coffee_shop,"coffee_shop, cafe, store, food",4.5,105,
ChIJszW_s99E0i0R_OypolDm1k8,Raja Woods Villa,-8.798552899999999,115.14415089999999,"Sakura Regency Blok IV B no 17,, Jimbaran, Kec. Kuta Sel., Kabupaten Badung, Bali 80361, Indonesia",https://maps.google.com/?cid=5753038808013204732,OPERATIONAL,+62 821-4423-0311,lodging,lodging,4.6,49,
ChIJSReY7eZF0i0RO522r_VukHQ,Villa Raffles Jimbaran Bali,-8.8016192,115.1435489,"54XV+9C3, Jl. Puri Gading Jl. Raffles, Jimbaran, Kec. Kuta Sel., Kabupaten Badung, Bali 80361, Indonesia",https://maps.google.com/?cid=8399335306539998523,OPERATIONAL,,,"hotel, lodging",4.2,5,
ChIJ5cUoiHJF0i0R3Y4xn-QLGW0,The Bucket Jimbaran,-8.800485600000002,115.1498407,"Perum, Jl. Puri Gading Jl. Bandung No.1, Jimbaran, Kec. Kuta Sel., Kabupaten Badung, Bali 80361, Indonesia",https://maps.google.com/?cid=7861327701103185629,OPERATIONAL,+62 812-5949-5698,restaurant,"restaurant, food",4.6,42,
ChIJgTUz-0BF0i0RwcfhwzpPg9I,Puri Saribu Studio Houses,-8.8038876,115.1497414,"Jalan Saribu No 12, Perumahan Puri Gading, Jimbaran, Kec. Kuta Sel., Kabupaten Badung, Bali 80362, Indonesia",https://maps.google.com/?cid=15169055083727013825,OPERATIONAL,+62 813-5327-1754,guest_house,"guest_house, lodging",5,23,
ChIJ3-Cist1E0i0Rtgi99vhL-8A,Beten Santen Kost,-8.7990131,115.1494522,"642X+9QW, Jl. Jepun, Jimbaran, Kec. Kuta Sel., Kabupaten Badung, Bali 80361, Indonesia",https://maps.google.com/?cid=13905791807100094646,OPERATIONAL,+62 819-1649-4537,,"private_guest_room, lodging",4.7,72,
ChIJ0XEGp2pF0i0Rq0QjjOEEJp4,Gallery Cafe,-8.800858,115.1482259,"Jl. Puri Gading, Jimbaran, Kec. Kuta Sel., Kabupaten Badung, Bali 80361, Indonesia",https://maps.google.com/?cid=11395801273872893099,OPERATIONAL,+62 882-8979-6832,cafe,"cafe, food",4,25,
