id,name,latitude,longitude,address,url,status,phone,primary-type,types,rating,rating-count,price-level
ChIJRc2IhSAb0i0RpdQdzBgsjHc,Pondok pan lekong,-8.416282899999999,115.45047979999998,"HFM2+F5Q, Muncan, Selat, Karangasem Regency, Bali 80862, Indonesia",https://maps.google.com/?cid=8614308672268260517,OPERATIONAL,,hostel,"hostel, lodging",,,
ChIJ1Scqctkb0i0R7kJc-ZW2tZY,Gedebonk Thuh,-8.4178632,115.45184180000001,"Unnamed Road, HFJ2+VP4, Muncan, Kec. Selat, Kabupaten Karangasem, Bali 80862, Indonesia",https://maps.google.com/?cid=10859786831723774702,OPERATIONAL,,private_guest_room,"private_guest_room, lodging",5,1,
ChIJycGydp0b0i0R4S1FyP84v4k,Pondok Sinar Melati,-8.4198574,115.45212439999999,"HFJ2+3R5, Muncan, Selat, Karangasem Regency, Bali 80862, Indonesia",https://maps.google.com/?cid=9925714774975655393,OPERATIONAL,+62 859-3502-2287,private_guest_room,"private_guest_room, lodging",5,2,
ChIJi0nv5E0b0i0RCfk17aJ7YNY,Dira setiawan,-8.416131499999999,115.4533187,"HFM3+G8W, Muncan, Selat, Karangasem Regency, Bali 80862, Indonesia",https://maps.google.com/?cid=15447482661575457033,OPERATIONAL,,bar,bar,,,
ChIJM0TTuUkb0i0R5jcT8UINfsM,Nia vina,-8.4163059,115.4537579,"HFM3+FGC, Muncan, Selat, Karangasem Regency, Bali 80862, Indonesia",https://maps.google.com/?cid=14086711265625061350,OPERATIONAL,+62 823-4184-2128,bar,bar,,,
ChIJzwyUhgEb0i0RtVsac5Iygs4,TriyasaCuervo,-8.4186742,115.45411129999998,"Unnamed Road, HFJ3+GJQ, Muncan, Kec. Selat, Kabupaten Karangasem, Bali 80862, Indonesia",https://maps.google.com/?cid=14880511723363261365,OPERATIONAL,,bar,bar,,,
ChIJKW_vj2Yb0i0RosELMIo_vb8,Dina amyrak,-8.4176124,115.45440459999999,"HFJ3+XQ2, Muncan, Selat, Karangasem Regency, Bali 80862, Indonesia",https://maps.google.com/?cid=13816269094586663330,OPERATIONAL,,cafe,"cafe, food",,,
