id,name,latitude,longitude,address,url,status,phone,primary-type,types,rating,rating-count,price-level
ChIJX_JjxxUj0i0RiwE5J1LJrzU,Cretya Sunset,-8.4304538,115.26916630000001,"Jl. Raya Bresela No.8, Bresela, Kec. Payangan, Kabupaten Gianyar, Bali 80572, Indonesia",https://maps.google.com/?cid=3868531959617094027,OPERATIONAL,+62 853-3723-0775,restaurant,"restaurant, food",4.7,467,
ChIJ68qdAm8i0i0RFCgxWljNcSk,Padi Bali Eco Villas,-8.4318149,115.26829559999999,"Jl. Raya Bresela, Bresela, Kec. Payangan, Kabupaten Gianyar, Bali 80572, Indonesia",https://maps.google.com/?cid=2986393807277336596,OPERATIONAL,+62 831-1953-6934,,lodging,4.5,102,
ChIJ7WweCm8i0i0RrL2CTYHYAGg,Uma Caming Villas & Gym,-8.4327049,115.2686614,"Jl. Raya Bresela, Bresela, Kec. Payangan, Kabupaten Gianyar, Bali 80572, Indonesia",https://maps.google.com/?cid=7494227829807300012,OPERATIONAL,+62 878-6036-7621,,lodging,4.6,109,
ChIJYWNoQlQj0i0R18rl27kakE8,Bersila La Maison Du Bonheur,-8.4308291,115.27114209999999,"Jalan Rurung Cenik, Bresela, Kec. Payangan, Kabupaten Gianyar, Bali 80572, Indonesia",https://maps.google.com/?cid=5733111711203183319,OPERATIONAL,+62 857-3744-0080,hotel,"hotel, lodging",4.1,70,
ChIJ8-84O0gi0i0R7b5DV98h4Eg,Warung Nano Nano,-8.4315056,115.27248009999998,"H79C+9XX, Jl. Taman Sari Ujung Jl. Banjar Gadungan, Bresela, Kec. Payangan, Kabupaten Gianyar, Bali 80572, Indonesia",https://maps.google.com/?cid=5251234408639479533,OPERATIONAL,+62 831-1471-4402,indonesian_restaurant,"indonesian_restaurant, restaurant, food",4.8,12,
ChIJrXAGVG4i0i0R04j-exbOa1c,Warung Makan Merta Segara,-8.431464799999999,115.2692702,"H799+CP6, Jl. Raya Bresela, Bresela, Kec. Payangan, Kabupaten Gianyar, Bali 80572, Indonesia",https://maps.google.com/?cid=6299355099772651731,OPERATIONAL,+62 878-6298-7687,restaurant,"restaurant, food",4.5,2,
ChIJMynV20Yj0i0Rpg9bRwjKycg,U-Eat,-8.4326293,115.2728636,"Jl gandungan, Bresela, Kec. Payangan, Kabupaten Gianyar, Bali 80571, Indonesia",https://maps.google.com/?cid=14468317414810128294,OPERATIONAL,+62 812-3756-1677,mediterranean_restaurant,"mediterranean_restaurant, vegan_restaurant, vegetarian_restaurant, restaurant, food",5,13,
