id,name,latitude,longitude,address,url,status,phone,primary-type,types,rating,rating-count,price-level
ChIJR3Y7U05B0i0REoBn3AH7DtA,Orange Guest House,-8.7197746,115.1984827,"Jl. Bypass Ngurah Rai, Pemogan, Denpasar Selatan, Kota Denpasar, Bali 80221, Indonesia",https://maps.google.com/?cid=14992196194974269458,OPERATIONAL,+62 878-9020-5661,guest_house,"guest_house, lodging",3.9,91,
ChIJDbwJqoVB0i0Rp2mNCos1GWY,Kakman Regency,-8.722463,115.1964333,"75HW+2H7, Pemogan, Denpasar Selatan, Denpasar City, Bali 80221, Indonesia",https://maps.google.com/?cid=7356970337580181927,CLOSED_TEMPORARILY,,lodging,lodging,5,1,
ChIJsePOcU9B0i0RGzid_7pt8vM,Warung Buleleng,-8.7187959,115.1998031,"75JX+FWM, Jl. Raya Pemogan, Pemogan, Denpasar Selatan, Kota Denpasar, Bali 80221, Indonesia",https://maps.google.com/?cid=17578232945500305435,OPERATIONAL,,restaurant,"restaurant, food",5,3,
ChIJ85WRXE5B0i0RTPrDRZoTbeE,Genesis Hotel,-8.7186158,115.2009844,"Jl. Bypass Ngurah Rai No.888, Pemogan, Denpasar Selatan, Kota Denpasar, Bali 80221, Indonesia",https://maps.google.com/?cid=16243660984311609932,OPERATIONAL,,hotel,"hotel, lodging",4.3,4,
ChIJuUBJIE5B0i0RrsOVtPHLAzg,Pondok D'Bucu,-8.7220908,115.1964155,"Jl. Bypass Ngurah Rai Gg. Kak Man No.10, Pemogan, Denpasar Selatan, Kota Denpasar, Bali 80221, Indonesia",https://maps.google.com/?cid=4036293930031367086,OPERATIONAL,+62 819-9911-6556,,lodging,5,12,
ChIJl2Ii5ERB0i0REXpVDCJVRG0,Tarpon Fly Fishing,-8.7200466,115.2042035,"76H3+XMP, Jl. Pura Dalem, Canggu, Kec. Kuta Utara, Kabupaten Badung, Bali, Indonesia",https://maps.google.com/?cid=7873511653274647057,OPERATIONAL,,national_park,"national_park, park",4.6,8,
ChIJs0mOpE9B0i0RMuJyla7k9Gs,Surya Jaya Tour Istirahat Cafe. PT,-8.7193959,115.1995306,"Jl. Bypass Ngurah Rai No.601, Pemogan, Denpasar Selatan, Kota Denpasar, Bali 80221, Indonesia",https://maps.google.com/?cid=7779093894858465842,OPERATIONAL,+62 361 425253,cafe,"cafe, food",,,
ChIJkY0Ark9B0i0Rz7Pwi-j5daY,Bali Romantic Oasis. PT,-8.7200997,115.1981536,"JL. By Pass Ngurah Rai, Komp. Pertokoan Kuta Megah Blok C3, Pemogan, Denpasar Selatan, Denpasar City, Bali 80221, Indonesia",https://maps.google.com/?cid=11994767959746720719,OPERATIONAL,+62 361 767100,,lodging,,,
