id,name,latitude,longitude,address,url,status,phone,primary-type,types,rating,rating-count,price-level
ChIJLVTjPnHz0S0RJ-zwyRwCOJ0,Restaurant Makan E-2,-8.2257266,115.3240707,"Q8FF+PJ4, Jalan Raya, Kintamani, Kec. Kintamani, Kabupaten Bangli, Bali 80652, Indonesia",https://maps.google.com/?cid=11328807185320832039,OPERATIONAL,+62 852-1656-5552,restaurant,"restaurant, food",4.5,73,
ChIJs6Vus5jz0S0RfKVayIT1If4,Warung kadek's bakso semeton bali,-8.2297739,115.32535349999999,"Q8CG+34X, Jalan Raya, Kintamani, Kec. Kintamani, Kabupaten Bangli, Bali 80652, Indonesia",https://maps.google.com/?cid=18312187510511019388,OPERATIONAL,,indonesian_restaurant,"indonesian_restaurant, restaurant, food",4.7,20,
ChIJOe2s9JXz0S0RRDK1pExDfDE,WR. BAKSO MASNO KINTAMANI (Cabang Kintamani 2),-8.2307088,115.32565309999998,"Jl. Raya Kintamani, Kintamani, Singaraja, Kabupaten Bangli, Bali 80652, Indonesia",https://maps.google.com/?cid=3565799001430504004,OPERATIONAL,+62 853-3802-3232,restaurant,"restaurant, food",4,2,
ChIJTeCTi0Pz0S0R9RFZ6Dm2EX4,Bakso Semeton Bali ARJUNA,-8.229697,115.32537699999999,"Q8CG+45C, Jalan Raya, Kintamani, Kec. Kintamani, Kabupaten Bangli, Bali 80652, Indonesia",https://maps.google.com/?cid=9084242283210543605,OPERATIONAL,+62 831-4764-0810,indonesian_restaurant,"indonesian_restaurant, restaurant, food",5,2,
ChIJ63VAau7z0S0RVL0S798Q7KM,Warung Makan Jro Bagor,-8.2296423,115.32524649999999,"Q8CG+43X, Jalan Raya, Kintamani, Kec. Kintamani, Kabupaten Bangli, Bali 80652, Indonesia",https://maps.google.com/?cid=11811834476660702548,OPERATIONAL,+62 819-1629-3784,restaurant,"restaurant, food",4.8,8,
ChIJj2RTYUvz0S0Rf1i5lxytT6U,Warung Dewi Sulung,-8.2264781,115.3242754,"Q8FF+CP2, Kintamani, Bangli Regency, Bali 80652, Indonesia",https://maps.google.com/?cid=11911929877734447231,OPERATIONAL,+62 812-3997-152,restaurant,"restaurant, food",4.5,15,
ChIJ82Nqv8jz0S0R7084wG9WD0k,Kenceng Banah,-8.2261328,115.3242957,"Q8FF+GPV, Jalan Raya, Kintamani, Kec. Kintamani, Kabupaten Bangli, Bali 80652, Indonesia",https://maps.google.com/?cid=5264521527385673711,CLOSED_TEMPORARILY,,tourist_attraction,tourist_attraction,,,
