id,name,latitude,longitude,address,url,status,phone,primary-type,types,rating,rating-count,price-level
ChIJR6SocJw_0i0Rrf_hqvvLaYI,Pintu Masuk Teba Majalangu,-8.6400946,115.2596131,"Jl. Bakung No.I, Kesiman Kertalangu, Kec. Denpasar Tim., Kota Denpasar, Bali 80237, Indonesia",https://maps.google.com/?cid=9397266379249418157,OPERATIONAL,,tourist_attraction,tourist_attraction,4.6,13,
ChIJE0vDFrQ_0i0RTIiSkKnmgyI,LOII Coffee,-8.6356486,115.2553793,"Jl. WR Supratman No.341, Kesiman Kertalangu, Kec. Denpasar Tim., Kota Denpasar, Bali 80237, Indonesia",https://maps.google.com/?cid=2487085035188029516,OPERATIONAL,+62 361 461977,cafe,"cafe, food",4.5,188,PRICE_LEVEL_MODERATE
ChIJaRn89i8_0i0RKPilOAh4-iw,Ubud Corner Kitchen,-8.6335471,115.2588776,"Jl. Raya Batubulan No.1, Batubulan, Kec. Sukawati, Kabupaten Gianyar, Bali 80237, Indonesia",https://maps.google.com/?cid=3241034858551965736,OPERATIONAL,+62 821-4768-9118,restaurant,"restaurant, food",4.6,27,
ChIJb-wfNpI_0i0RIkaGz8h38sg,JFC Tohpati kertalangu,-8.6349948,115.25572299999999,"Jl. WR Supratman No.330, Kesiman Kertalangu, Kec. Denpasar Tim., Kota Denpasar, Bali 80237, Indonesia",https://maps.google.com/?cid=14479767456308413986,OPERATIONAL,+62 852-3822-9930,fast_food_restaurant,"fast_food_restaurant, restaurant, food",4.4,377,PRICE_LEVEL_INEXPENSIVE
ChIJKznVuVM_0i0RjrTMiHrsd1c,Lumpia Risol Mega Kitchen,-8.6339072,115.25689790000001,"Jl. WR Supratman No.344-352, Sumerta Kaja, Kec. Denpasar Tim., Denpasar Timur, Bali 80236, Indonesia",https://maps.google.com/?cid=6302766214553580686,OPERATIONAL,+62 877-4985-5660,restaurant,"store, restaurant, food",4.7,36,
ChIJnVE2adU_0i0RK3uoWQNdAJc,Sidemen Cocktail,-8.6379251,115.2615466,"9766+RJF, Jl. Tirta Lepang, Kesiman Kertalangu, Kec. Denpasar Tim., Kota Denpasar, Bali 80237, Indonesia",https://maps.google.com/?cid=10880798968697617195,OPERATIONAL,,bar,bar,1,1,
ChIJi3jaSI0_0i0ROyOXMDPXIEk,super fried chicken,-8.637756699999999,115.25952620000001,"No.63, tohpati, Jl. Bakung, Kesiman Kertalangu, Kec. Denpasar Tim., Kota Denpasar, Bali 80237, Indonesia",https://maps.google.com/?cid=5269448178881995579,OPERATIONAL,,meal_takeaway,"meal_takeaway, restaurant, food",4.3,74,
ChIJSy0PWwU_0i0R00lKDn9YSZ4,Warung Nasi Lawar Men Jana,-8.6344812,115.25667,"Jl. Bakung No.5, Tohpati, Kec. Denpasar Tim., Kota Denpasar, Bali 80237, Indonesia",https://maps.google.com/?cid=11405744834016332243,OPERATIONAL,+62 851-5941-4177,indonesian_restaurant,"indonesian_restaurant, restaurant, food",4.9,67,
ChIJEXqjZLY_0i0R_F0Qs4AOxNo,Griya Shanti Homestay and Spa,-8.636906399999999,115.2638118,"Jl. Pratu Made Rambug Gg. Tirta Empul 1 No.10 2, Batubulan, Kec. Sukawati, Kabupaten Gianyar, Bali 80237, Indonesia",https://maps.google.com/?cid=15763740541626375676,OPERATIONAL,+62 811-3889-369,private_guest_room,"private_guest_room, lodging",4.3,26,
ChIJJ2pRCpM_0i0RKFwsDbXgmSE,Rumah Makan Padang Rida,-8.633736299999999,115.2568354,"Jl. WR Supratman No.342, Kesiman Kertalangu, Kec. Denpasar Tim., Kota Denpasar, Bali 80237, Indonesia",https://maps.google.com/?cid=2421213342903065640,OPERATIONAL,+62 821-4758-9676,indonesian_restaurant,"indonesian_restaurant, restaurant, food",4.3,110,
ChIJwVcZEpI_0i0RVLPHS1DWQNU,Maharani Vegetarian Tohpati,-8.6364375,115.25526029999999,"Jl. WR Supratman No.335, Kesiman Kertalangu, Kec. Denpasar Tim., Kota Denpasar, Bali 80237, Indonesia",https://maps.google.com/?cid=15366517568945238868,OPERATIONAL,+62 853-3311-1436,vegetarian_restaurant,"vegetarian_restaurant, restaurant, food",4.7,37,PRICE_LEVEL_INEXPENSIVE
ChIJ-ywFdYc_0i0RjsAir2YCWiY,BELIKOPI. BATU BULAN BALI,-8.6338484,115.25634260000001,"Jl. WR Supratman No.27, Kesiman Kertalangu, Kec. Denpasar Tim., Kota Denpasar, Bali 80237, Indonesia",https://maps.google.com/?cid=2763523961393430670,OPERATIONAL,,cafe,"cafe, food",3.9,9,
ChIJRQtGdPI_0i0RfmdsM6SPshw,OYO 2321 Griya Shanti Homestay,-8.636835999999999,115.2638202,"11, Jl. Pratu Made Rambug No.11, Batubulan, Sukawati, Gianyar Regency, Bali 80237, Indonesia",https://maps.google.com/?cid=2067873114316629886,OPERATIONAL,+62 21 29707601,hotel,"hotel, lodging",3.4,13,
ChIJ__W2rIY_0i0RfS_vsb1SGt8,Warung Bubur Ayam Bali,-8.6359935,115.26335669999997,"9777+J85, Jl. Pratu Made Rambug, Batubulan, Kec. Sukawati, Kabupaten Gianyar, Bali 80582, Indonesia",https://maps.google.com/?cid=16076252794539945853,OPERATIONAL,+62 812-3967-9008,restaurant,"restaurant, food",3.7,3,
ChIJ31Q3nvI_0i0RrK4XcyrDgRI,House of SSS,-8.6367319,115.26174119999999,"Jl. Pratu Made Rambug Perumahan UNUD No.54, Banjar Menguntur, Batubulan, Kec. Sukawati, Kabupaten Gianyar, Bali 80582, Indonesia",https://maps.google.com/?cid=1333561551765352108,OPERATIONAL,+62 813-5305-2233,guest_house,"guest_house, lodging",3.7,7,
ChIJM8Aks_4_0i0R_21Vlf9DbNw,Happy Time Bubble Drink Tohpati,-8.6338516,115.2563652,"Jl. WR Supratman No.354, Tohpati, Kec. Denpasar Tim., Kota Denpasar, Bali 80752, Indonesia",https://maps.google.com/?cid=15883144750830022143,OPERATIONAL,+62 819-9916-3824,cafe,"cafe, food",5,14,
ChIJ8f____JA0i0Rxp0q-SblvqU,Mie Pandawa,-8.6365367,115.2552348,"Jl. WR Supratman No.335, Kesiman Kertalangu, Tohpati, Kota Denpasar, Bali 80237, Indonesia",https://maps.google.com/?cid=11943235217384971718,OPERATIONAL,+62 819-9997-7900,restaurant,"restaurant, food",4.4,98,
ChIJQ-gc7LM_0i0RN6NqwuXAWI8,KOS Budhi Ulun Carik,-8.6396169,115.2574123,"9764+5X3, Jl. Ulun Carik, Kesiman Kertalangu, Kec. Denpasar Tim., Kota Denpasar, Bali 80237, Indonesia",https://maps.google.com/?cid=10329217838416044855,OPERATIONAL,+62 821-4450-7244,,lodging,5,2,
ChIJaVvHI_M_0i0RBtpDQBP1lfg,Six A Six Warung,-8.639916999999999,115.261402,"Jl. Bakung No.66, Kesiman Kertalangu, Kec. Denpasar Tim., Kota Denpasar, Bali 80237, Indonesia",https://maps.google.com/?cid=17912492555967388166,OPERATIONAL,+62 878-6261-2020,cafe,"cafe, food",4.5,89,
ChIJN4VBsJM_0i0R7ZeTLTx0uFA,Warung Babi Guling Ibu Dayu Ubud,-8.634000499999999,115.25622050000001,"Jl. WR Supratman No.353, Kesiman Kertalangu, Kec. Denpasar Tim., Kota Denpasar, Bali 80237, Indonesia",https://maps.google.com/?cid=5816526720560502765,OPERATIONAL,,indonesian_restaurant,"indonesian_restaurant, restaurant, food",4,12,
