id,name,latitude,longitude,address,url,status,phone,primary-type,types,rating,rating-count,price-level
ChIJD63JkHsv0i0RmiW8gGaGJXM,Kebun durian aribarriell,-8.442455599999999,115.01125710000001,"Br dukuh,ds mundehkauh, kec selbar, H256+2G6, Angkah, Kec. Selemadeg Bar., Kabupaten Tabanan, Bali, Indonesia",https://maps.google.com/?cid=8297185663304607130,OPERATIONAL,,tourist_attraction,tourist_attraction,,,
ChIJBxrDUwAv0i0RscGgKmEX730,AIR TERJUN TIBU SAMPI,-8.445017199999999,115.00962829999999,"H235+XV, Angkah, Selemadeg Barat, Tabanan Regency, Bali, Indonesia",https://maps.google.com/?cid=9074497480269283761,OPERATIONAL,,tourist_attraction,tourist_attraction,,,
ChIJTy9MEB4v0i0R8JfGEkzDCjE,PONDOK SOBANGAN,-8.4397492,115.0108666,"H266+485, Angkah, Selemadeg Barat, Tabanan Regency, Bali 82162, Indonesia",https://maps.google.com/?cid=3533851589125511152,OPERATIONAL,,,lodging,,,
ChIJ6U5pc-sv0i0RcejNL8e-B28,Aridana's house,-8.4416427,115.00808490000001,"H255+87, Angkah, Selemadeg Barat, Tabanan Regency, Bali, Indonesia",https://maps.google.com/?cid=8000573025756768369,OPERATIONAL,,,lodging,,,
ChIJDdvuK3Av0i0RMeHoABwQV9s,Winda's House,-8.442794899999999,115.0066504,"Banjar Dinas Margetelu, Angkah, Kec. Selemadeg Bar., Kabupaten Tabanan, Bali 82162, Indonesia",https://maps.google.com/?cid=15805119129740435761,OPERATIONAL,+62 878-2544-9125,,lodging,,,
