id,name,latitude,longitude,address,url,status,phone,primary-type,types,rating,rating-count,price-level
ChIJq2bpaoQt0i0RDc4jXtY_Bqk,Mejan Beach,-8.4990463,114.95863550000001,"GX25+9FJ, Jl. Batu Mejan, Lalanglinggah, Kec. Selemadeg Bar., Kabupaten Tabanan, Bali 82162, Indonesia",https://maps.google.com/?cid=12179492432205041165,OPERATIONAL,,tourist_attraction,tourist_attraction,4.6,52,
ChIJof8cQ4Ut0i0RyCeeEQLb7yE,Mejan Home Stay,-8.497968,114.96193529999998,"GX26+RQ7 Br Dinas Kutuh, Jl. Pantai Kelating, Majan, Kec. Selemadeg, Kabupaten Tabanan, Bali 82164, Indonesia",https://maps.google.com/?cid=2445413924617463752,OPERATIONAL,+62 821-4532-1441,guest_house,"guest_house, lodging",4.6,11,
ChIJ6T9V2gAt0i0RD558KSujH9Y,Villa Yuyu Balian,-8.4978856,114.9616521,"Jl. Batu Mejan, Lalanglinggah, Kec. Selemadeg Bar., Kabupaten Tabanan, Bali 82162, Indonesia",https://maps.google.com/?cid=15429230254169562639,OPERATIONAL,,hotel,"hotel, lodging",4.6,18,
ChIJiUruRB0t0i0R-jl1C8JUb2w,ACK NEW SURABERATA,-8.4944378,114.9636512,"Jl. Raya Denpasar - Gilimanuk Jl. Surabrata No.40, Lalanglinggah, Kec. Selemadeg Bar., Kabupaten Tabanan, Bali 82162, Indonesia",https://maps.google.com/?cid=7813557070903720442,OPERATIONAL,+62 822-3777-9942,restaurant,"restaurant, food",4.8,28,
ChIJEd3_C5At0i0Rf8E2Oxq4BH8,Warung Nomnom,-8.4944288,114.96360600000001,"Jl. Surabrata No.40, Lalanglinggah, Kec. Selemadeg Bar., Kabupaten Tabanan, Bali 82162, Indonesia",https://maps.google.com/?cid=9152642765525795199,OPERATIONAL,+62 881-5701-759,restaurant,"restaurant, food",4.7,12,
ChIJOUDEqm0t0i0RrkfjARCd_kI,Warung Muslim Bu Dany (Masakan Padang),-8.4941092,114.96282439999999,"GX47+944, Jl. Raya Denpasar - Gilimanuk, Lalanglinggah, Kec. Selemadeg Bar., Kabupaten Tabanan, Bali 82162, Indonesia",https://maps.google.com/?cid=4827468542664460206,OPERATIONAL,+62 821-4571-7398,indonesian_restaurant,"indonesian_restaurant, restaurant, food",4.5,11,
ChIJK9tF_9kt0i0RnsHJQiUjizY,NASI GORENG GILA (JAWA),-8.4942317,114.96307530000001,"GX47+869, Lalanglinggah, Selemadeg Barat, Tabanan Regency, Bali 82162, Indonesia",https://maps.google.com/?cid=3930273742752170398,OPERATIONAL,+62 838-0627-6544,indonesian_restaurant,"indonesian_restaurant, restaurant, food",,,
ChIJH-JM9F8t0i0Rdd9KzzON-2Y,JM House,-8.497690799999999,114.96190310000001,"GX26+WQC, Jl. Batu Mejan, Lalanglinggah, Kec. Selemadeg Bar., Kabupaten Tabanan, Bali 82162, Indonesia",https://maps.google.com/?cid=7420680064683663221,OPERATIONAL,,bar,bar,,,
ChIJ8TtSrZst0i0RZubMd5cHtPw,Warung Lokal 3DS,-8.4925061,114.96055829999999,"Jl. Raya Denpasar - Gilimanuk No.401, Lalanglinggah, Kec. Selemadeg Bar., Kabupaten Tabanan, Bali 82162, Indonesia",https://maps.google.com/?cid=18209187540497131110,OPERATIONAL,+62 857-9238-2513,store,"store, cafe, food",4.4,15,
ChIJc_Y_7oUt0i0RjBSbcKRUdGQ,Balian Hill Homestay,-8.499067900000002,114.9627802,"GX27+94C, Jl. Pantai Balian, Lalanglinggah, Kec. Selemadeg Bar., Kabupaten Tabanan, Bali, Indonesia",https://maps.google.com/?cid=7238503566331810956,OPERATIONAL,+62 813-5321-2486,hotel,"hotel, lodging",5,1,
ChIJGw3VfEot0i0RhQaZfi_f-SM,D'UMA,-8.4923234,114.9585795,"Jl. Surabrata, Lalanglinggah, Kec. Selemadeg Bar., Kabupaten Tabanan, Bali 82162, Indonesia",https://maps.google.com/?cid=2592348455608845957,OPERATIONAL,,indonesian_restaurant,"indonesian_restaurant, restaurant, food",5,3,
ChIJea4I9kst0i0RVvrgzIb1V-s,Banana home,-8.4961631,114.96133379999999,"GX36+GGP, Lalanglinggah, Selemadeg Barat, Tabanan Regency, Bali 82162, Indonesia",https://maps.google.com/?cid=16958292881198611030,OPERATIONAL,,guest_house,"guest_house, lodging",,,
ChIJ48gE280t0i0RPP_P1xMSeI8,WRPI,-8.4920879,114.95758,"GX55+528, Jl. Raya Denpasar - Gilimanuk Jl. Surabrata, Lalanglinggah, Kec. Selemadeg Bar., Kabupaten Tabanan, Bali, Indonesia",https://maps.google.com/?cid=10338032821063384892,CLOSED_TEMPORARILY,,night_club,night_club,,,
