id,name,latitude,longitude,address,url,status,phone,primary-type,types,rating,rating-count,price-level
ChIJ_fGhREH10S0RDMCKY1Ujgzg,Pahdi Specialty Coffee,-8.2750595,115.348932,"P8FX+WJF, Jl. Raya Penelokan, Batur Tengah, Kec. Kintamani, Kabupaten Bangli, Bali 80652, Indonesia",https://maps.google.com/?cid=4072137337722290188,OPERATIONAL,+62 811-3971-277,coffee_shop,"coffee_shop, cafe, food, store",4.3,1145,
ChIJc4Dd_0v00S0RLMreutGZpRY,Grand Puncak Sari Restaurant,-8.2728057,115.34741229999999,"JL. Raya Penelokan, Kintamani, Batur Tengah, Kec. Bangli, Kabupaten Bangli, Bali 80652, Indonesia",https://maps.google.com/?cid=1631879566054050348,OPERATIONAL,,restaurant,"restaurant, food",4.2,4110,PRICE_LEVEL_MODERATE
ChIJXXVXLkv00S0REUGfDmJUCLw,Batur Sari Restaurant,-8.27716,115.35110680000001,"Jl. Raya Penelokan, Batur Tengah, Kec. Kintamani, Kabupaten Bangli, Bali 80652, Indonesia",https://maps.google.com/?cid=13549172259072983313,OPERATIONAL,+62 366 51007,restaurant,"restaurant, food",4,3585,PRICE_LEVEL_MODERATE
ChIJs9dmBEz00S0Rg9nm--KCEU0,Madu Sari Hotel & Restaurant,-8.2757852,115.3496924,"Jl. Raya Penelokan, Batur Tengah, Kec. Kintamani, Kabupaten Bangli, Bali 80652, Indonesia",https://maps.google.com/?cid=5553363726924962179,OPERATIONAL,+62 366 51810,restaurant,"breakfast_restaurant, indonesian_restaurant, restaurant, food",3.8,478,PRICE_LEVEL_MODERATE
ChIJHxbXr3n10S0RCik6WJliA8Q,ATTALAS,-8.2766475,115.35050860000001,"Jl. Raya Penelokan, Batur Tengah, Kec. Kintamani, Kabupaten Bangli, Bali 80652, Indonesia",https://maps.google.com/?cid=14124241267113732362,OPERATIONAL,+62 815-2924-2216,coffee_shop,"coffee_shop, cafe, food, store",4.4,147,
ChIJj3Tpby310S0RrqB_0GJwesE,Olympus Coffee Bali,-8.2729391,115.347656,"Jl. Raya Penelokan, Batur Tengah, Kec. Kintamani, Kabupaten Bangli, Bali 80652, Indonesia",https://maps.google.com/?cid=13941579166185922734,OPERATIONAL,+62 812-3333-9711,restaurant,"restaurant, coffee_shop, cafe, food, store",4.6,371,
ChIJiwxn5Xb10S0R9luJcBw8p-E,El Pico,-8.2768195,115.35064659999999,"Central Batur, Kintamani, Bangli Regency, Bali, Indonesia",https://maps.google.com/?cid=16260031072489266166,OPERATIONAL,+62 819-4328-7476,restaurant,"restaurant, food",4.4,94,
ChIJE6JRPEv10S0RXGpICmBZF0g,Mutiara Resto Kintamani,-8.2773383,115.35172940000001,"Jl. Raya Penelokan, Batur Tengah, Kec. Kintamani, Kabupaten Bangli, Bali 80362, Indonesia",https://maps.google.com/?cid=5194718964219406940,OPERATIONAL,+62 812-4677-3599,restaurant,"restaurant, food",4,168,PRICE_LEVEL_INEXPENSIVE
ChIJ2UVvAU_00S0RYvNsINxqGig,Restoran Gunung Sari,-8.2752381,115.3492948,"P8FX+WP3, Jl. Raya Penelokan, Batur Tengah, Kec. Kintamani, Kabupaten Bangli, Bali 80652, Indonesia",https://maps.google.com/?cid=2889739604580954978,OPERATIONAL,+62 812-3618-328,restaurant,"restaurant, breakfast_restaurant, food",4.2,311,
ChIJu0_vpIX10S0Rds0l3GiJn4E,Vedzpresso Coffee,-8.277172799999999,115.35108849999999,"Jl. Raya Penelokan, Batur Tengah, Kec. Kintamani, Kabupaten Bangli, Bali 80652, Indonesia",https://maps.google.com/?cid=9340335235652767094,OPERATIONAL,+62 821-4607-8005,coffee_shop,"coffee_shop, cafe, food, store",4.2,62,
ChIJsyjLXeP10S0RwBFYFxPRCxY,Airy Kintamani Madu Sari Bali,-8.2757852,115.3496926,"P8FX+MVP, Jl. Raya Penelokan, Batur Tengah, Kec. Kintamani, Kabupaten Bangli, Bali 80652, Indonesia",https://maps.google.com/?cid=1588593173504463296,OPERATIONAL,+62 804 111 2479,hotel,"hotel, lodging",4.3,15,
ChIJdZebvyj10S0RpvQDm8qNAZs,Mujair nyat nyat enak,-8.2782013,115.3528327,"Di sebelah bengkel Tawan, Jl. Raya Penelokan, Batur Tengah, Kec. Kintamani, Kabupaten Bangli, Bali 80652, Indonesia",https://maps.google.com/?cid=11169364452179178662,OPERATIONAL,,brunch_restaurant,"brunch_restaurant, restaurant, food",4.8,6,
ChIJcQLNMbX10S0R1qdzqFZqooc,Warung Makan Purnama Sari,-8.278152,115.35268229999998,"Jl. Raya Penelokan, Batur Tengah, Kec. Kintamani, Kabupaten Bangli, Bali 80652, Indonesia",https://maps.google.com/?cid=9773491061773281238,OPERATIONAL,+62 831-1535-7114,restaurant,"restaurant, food",4.4,49,
ChIJXWncYRr10S0RESFvoTF6qvI,Royal Cafe,-8.273699299999999,115.3482585,"Jl. Raya Penelokan, Batur Sel., Kec. Kintamani, Kabupaten Bangli, Bali 80652, Indonesia",https://maps.google.com/?cid=17485922856799772945,OPERATIONAL,+62 877-3536-9368,restaurant,"restaurant, food",5,3,
ChIJozpp2JX10S0R9cILlZB9gco,Batur Sari Swing,-8.277185,115.35145469999999,"P9F2+4HG, Central Batur, Kintamani, Bangli Regency, Bali 80652, Indonesia",https://maps.google.com/?cid=14592082327586456309,OPERATIONAL,,tourist_attraction,tourist_attraction,5,1,
ChIJH0LFp1v00S0ReRQDdbt-cBU,Catur Dewi Hotel & Restaurant,-8.2748885,115.34886039999999,"P8GX+2GX, Jl. Raya Penelokan, Batur Sel., Kec. Kintamani, Kabupaten Bangli, Bali 80652, Indonesia",https://maps.google.com/?cid=1544874015775200377,OPERATIONAL,+62 366 52467,hotel,"hotel, lodging",4.1,22,
ChIJvWYWCgL10S0RJO-EempNmGs,Kintamani Photo Spot,-8.2758807,115.34989399999999,"P8FX+MVP, Jl. Raya Penelokan, Batur Tengah, Kec. Kintamani, Kabupaten Bangli, Bali 80652, Indonesia",https://maps.google.com/?cid=7753031878235713316,OPERATIONAL,,tourist_attraction,tourist_attraction,4.8,4,
ChIJ51tGxlX10S0RqXrpI25-RuM,Kintamani Hotel and Restaurant,-8.2777159,115.35117149999999,"P9C2+WF7, Jl. Raya Pujung, Batur Tengah, Kec. Kintamani, Kabupaten Bangli, Bali 80652, Indonesia",https://maps.google.com/?cid=16376916106493393577,OPERATIONAL,+62 822-3673-7428,hotel,"hotel, lodging",4.3,15,
ChIJw-H-aEv00S0RZJL9wpH6A4I,Warung Abang Sari,-8.276790499999999,115.35067120000001,"P9F2+77M, Jl. Raya Penelokan, Batur Tengah, Kec. Kintamani, Kabupaten Bangli, Bali 80652, Indonesia",https://maps.google.com/?cid=9368607153809363556,OPERATIONAL,+62 857-3947-7465,restaurant,"restaurant, food",4.3,87,
ChIJgbFeogH10S0RyfLx_iGXSOg,Aroma coffee & eatery kintamani,-8.277073999999999,115.35120020000001,"Jl. Raya Penelokan, Batur Tengah, Kec. Kintamani, Kabupaten Bangli, Bali 80652, Indonesia",https://maps.google.com/?cid=16737794187389432521,OPERATIONAL,+62 878-6000-3288,coffee_shop,"coffee_shop, cafe, food, store",4.4,7,
