id,name,latitude,longitude,address,url,status,phone,primary-type,types,rating,rating-count,price-level
ChIJq2a9rbw-0i0R6TCZuj3iVZo,Gumuh Sari Rekreasi,-8.5798398,115.2073841,"Jl. Tegal Gumuh No.9, Darmasaba, Kec. Abiansemal, Kabupaten Badung, Bali 80352, Indonesia",https://maps.google.com/?cid=11121043609612792041,OPERATIONAL,+62 811-3752-333,,"gym, athletic_field, health, restaurant, food",4.1,932,
ChIJ95j2474-0i0RDmLgruk_EI4,warung makan babi guling pak kecap,-8.5781025,115.21071479999999,"jalan raya tanah asri sibang gede, Darmasaba, Kec. Abiansemal, Kabupaten Badung, Bali 80352, Indonesia",https://maps.google.com/?cid=10236752225907008014,OPERATIONAL,+62 821-4454-7556,indonesian_restaurant,"indonesian_restaurant, restaurant, food",4.2,235,PRICE_LEVEL_INEXPENSIVE
ChIJZ12CdUw_0i0RwND3yyzzmD4,Pung Green Sibang Mujair Ny4tNy4t & BAKAR Kintamani,-8.577757799999999,115.2095565,"Jl. Tanah Ayu, Sibang Gede, Kec. Abiansemal, Kabupaten Badung, Bali 80352, Indonesia",https://maps.google.com/?cid=4510622400537678016,OPERATIONAL,+62 811-3960-5788,restaurant,"restaurant, food",4.8,405,
ChIJGfgug6E_0i0RbbgVqAFwhWw,Penginapan Segara Madu,-8.5784715,115.2080894,"Darmasaba, Jl. Gumuh Sari 1 No.2, Darmasaba, Kec. Abiansemal, Kabupaten Badung, Bali 80352, Indonesia",https://maps.google.com/?cid=7819779480416008301,OPERATIONAL,,,lodging,4.2,11,
ChIJK7cAM10_0i0Rm6FKZ1PIk1s,Umahkade.Riverside,-8.582692,115.2108839,"Unnamed Road, C686+W9C, Sibang Gede, Kec. Abiansemal, Kabupaten Badung, Bali 80352, Indonesia",https://maps.google.com/?cid=6598838139568693659,OPERATIONAL,+62 813-3987-2261,,lodging,5,15,
ChIJCyibm5I_0i0R25j9phbevNg,Warung d'Kebun Coffee Shop & Eatery,-8.5790118,115.21179749999997,"C6C6+9PV, Jl. Tanah Ayu, Sibang Gede, Kec. Abiansemal, Kabupaten Badung, Bali 80352, Indonesia",https://maps.google.com/?cid=15617601796686321883,OPERATIONAL,+62 812-3758-9698,restaurant,"restaurant, food",4.5,19,
ChIJs6VXu-0_0i0Rzf1U1RXr6b0,LALAPAN BOSS | Harga Kaki Lima Rasa Bintang Lima | Lezat & Murah,-8.5830331,115.20841809999999,"Jl. Gumuh Ayu X No.3, Darmasaba, Kec. Abiansemal, Kabupaten Badung, Bali 80352, Indonesia",https://maps.google.com/?cid=13684727421747920333,OPERATIONAL,+62 812-3889-7992,restaurant,"restaurant, food",5,21,
ChIJJ_VkGFc_0i0RXTka2V98Z8M,BE GENYOL BERNARD2,-8.5784991,115.21184319999999,"Jl. Tanah Ayu No.1, Sibang Gede, Kec. Abiansemal, Kabupaten Badung, Bali 80352, Indonesia",https://maps.google.com/?cid=14080359511103256925,OPERATIONAL,+62 896-9528-2991,restaurant,"restaurant, food",4.5,22,
ChIJnc4PVnQ_0i0RYFgs_A8PCBg,RM Nasi Padang Mesari Bundo,-8.5780867,115.2108836,"Jl. Tanah Asri No.4, Sibang Gede, Kec. Abiansemal, Kabupaten Badung, Bali 80352, Indonesia",https://maps.google.com/?cid=1731650618053646432,OPERATIONAL,+62 896-0564-8839,indonesian_restaurant,"indonesian_restaurant, restaurant, food",4.9,7,
ChIJcSb3-pc_0i0RHG8bb_hsZrk,Warung ELING Spesial Nasi Ayam Betutu dan Lawar Kuwir,-8.5781204,115.21084259999999,"Jl. Tanah Asri No.4, Sibang Gede, Kec. Abiansemal, Kabupaten Badung, Bali 80352, Indonesia",https://maps.google.com/?cid=13359485158912913180,OPERATIONAL,+62 878-6221-7872,restaurant,"restaurant, food",4.2,6,
ChIJiR9h9Xk_0i0RNMPq-WiPPIU,Warung JK,-8.5781612,115.20997050000001,"C6C5+PXQ, Jl. Tanah Asri, Sibang Gede, Kec. Abiansemal, Kabupaten Badung, Bali 80352, Indonesia",https://maps.google.com/?cid=9600706186679337780,OPERATIONAL,+62 823-4065-1473,restaurant,"restaurant, food",4.5,59,
ChIJBdqSVxg_0i0RRYCVr8YDpS0,Masakan Padang Lumbung Ayu 2,-8.5778493,115.2112416,"C6C6+VF9, Sibang Gede, Abiansemal, Badung Regency, Bali 80352, Indonesia",https://maps.google.com/?cid=3289039254748233797,OPERATIONAL,,indonesian_restaurant,"indonesian_restaurant, restaurant, food",5,9,
ChIJ8RknSr0_0i0RKBrD3vMjTKA,Rian Bali Rental,-8.5828738,115.20950719999999,"Jl. Gumuh Ayu X No.3-1, Darmasaba, Kec. Abiansemal, Kabupaten Badung, Bali 80352, Indonesia",https://maps.google.com/?cid=11550646674619832872,OPERATIONAL,+62 878-6116-6636,car_rental,car_rental,5,3,
ChIJY7G3rNI_0i0Rc8zO0-pA6hM,Kos Bos Afan,-8.5807556,115.21161099999999,"C696+MJX, Sibang Gede, Abiansemal, Badung Regency, Bali 80352, Indonesia",https://maps.google.com/?cid=1435030808590994547,OPERATIONAL,,,lodging,3,1,
ChIJ_5zoILU_0i0R0ih0U4adik4,Dapur Enaaak,-8.5830331,115.20841809999999,"Jl. Gumuh Ayu X No.3B, Darmasaba, Kec. Abiansemal, Kabupaten Badung, Bali 80352, Indonesia",https://maps.google.com/?cid=5659509081995749586,OPERATIONAL,+62 812-4638-1022,indonesian_restaurant,"indonesian_restaurant, restaurant, food",,,
ChIJZd1RZb0-0i0RcB_3jqbxYR4,WARUNG IDEA,-8.581378899999999,115.21193219999998,"Sibang Gede, Abiansemal, Badung Regency, Bali, Indonesia",https://maps.google.com/?cid=2189296591544196976,OPERATIONAL,,restaurant,"restaurant, food",,,
ChIJgVM93JY_0i0RCY--D2mvGtg,Tukad Cengana,-8.5846851,115.2116048,"C686+4JH, Darmasaba, Abiansemal, Badung Regency, Bali 80352, Indonesia",https://maps.google.com/?cid=15571951527357484809,OPERATIONAL,,park,park,4.5,2,
ChIJB4Axu2c_0i0RWGkWzU7tRJ8,Ditra House,-8.58581,115.210526,"C676+V86, Jl. Kresna, Darmasaba, Kec. Kuta, Kabupaten Badung, Bali 80117, Indonesia",https://maps.google.com/?cid=11476558673150896472,OPERATIONAL,,hotel,"hotel, lodging",5,2,
ChIJqYarZ2I_0i0RRULeRV9amio,"Xie xie Boba, DapurQiswa",-8.5830252,115.21153930000001,"Perum Taman Pak Oles, Blok F/2, Br. Pane, Sibang Gede, Kec. Abiansemal, Kabupaten Badung, Bali 80352, Indonesia",https://maps.google.com/?cid=3069865461247001157,OPERATIONAL,+62 878-6116-3101,coffee_shop,"coffee_shop, cafe, bakery, food, store",4.5,2,
ChIJtwhhGSQ_0i0R7Y2Uig_lruY,Lalapan Gus Ucup,-8.580031,115.20734800000001,"Sari, Jl. Tegal Gumuh Gg. 1 No.3, Darmasaba, Kec. Abiansemal, Kabupaten Badung, Bali 80352, Indonesia",https://maps.google.com/?cid=16622475129583341037,OPERATIONAL,,restaurant,"restaurant, food",5,2,
