id,name,latitude,longitude,address,url,status,phone,primary-type,types,rating,rating-count,price-level
ChIJq3QFpi1H0i0RbTsqQ0bHQRQ,Quest Hotel San Denpasar,-8.677235099999999,115.19046429999999,"Jl. Mahendradatta No.93, Padangsambian, Kec. Denpasar Bar., Kota Denpasar, Bali 80117, Indonesia",https://maps.google.com/?cid=1459666858833230701,OPERATIONAL,+62 361 4717000,hotel,"hotel, convention_center, event_venue, lodging, restaurant, food",4.5,5435,
ChIJ1Zp1kiFB0i0RtT6VZoLSUFA,Aralea CoLiving,-8.6772472,115.19581539999999,"XXI, Jl. Marlboro, Pemecutan Klod, Kec. Denpasar Bar., Kota Denpasar, Bali 80119, Indonesia",https://maps.google.com/?cid=5787356978679725749,OPERATIONAL,,hotel,"hotel, lodging",4.8,142,
ChIJec80g_BB0i0R8Pq69_wEYZk,Tintin Coliving,-8.673356199999999,115.1940423,"Jl. Lange V No.189, Tegal Harum, Kec. Denpasar Bar., Kota Denpasar, Bali 80119, Indonesia",https://maps.google.com/?cid=11052120445078403824,OPERATIONAL,+62 812-4567-8159,guest_house,"guest_house, lodging",4.8,106,
ChIJOcdE581A0i0R14GzZka54ZY,Dee Mansion,-8.6780142,115.19206709999999,"Jl. Pura Demak IV No.57, Tegal Harum, Kec. Denpasar Bar., Kota Denpasar, Bali 80119, Indonesia",https://maps.google.com/?cid=10872174687470977495,OPERATIONAL,+62 361 8495358,hotel,"hotel, lodging",4.2,474,
ChIJiRSMhmNB0i0R_1PQuctGP8M,WISTARA FAMILY CAFE,-8.6788092,115.19009240000001,"Jl. Mahendradatta Selatan No.9, Padangsambian, Kec. Denpasar Bar., Kota Denpasar, Bali 80114, Indonesia",https://maps.google.com/?cid=14069041601738462207,OPERATIONAL,+62 821-4433-1116,restaurant,"restaurant, cafe, indonesian_restaurant, food",4.4,698,PRICE_LEVEL_MODERATE
ChIJkeWs0cxA0i0RRNHfpqcHP2M,Cove Kanaya,-8.679152799999999,115.1894715,"Jl. Pura Banyu Kuning No.1A, Padangsambian, Kec. Denpasar Bar., Kota Denpasar, Bali 80117, Indonesia",https://maps.google.com/?cid=7151443149928255812,OPERATIONAL,,guest_house,"guest_house, lodging",4.1,69,
ChIJC_z2tDRH0i0RHnmxHkDZ85c,Sasmara Apartment,-8.6758389,115.18878149999999,"Jl. Pura Banyu Kuning I No.9, Padangsambian, Kec. Denpasar Bar., Kota Denpasar, Bali 80119, Indonesia",https://maps.google.com/?cid=10949333988483889438,OPERATIONAL,+62 817-9919-899,guest_house,"guest_house, lodging",4.6,152,
ChIJHQabjYlB0i0RtjfRXxbPWdg,Jonkira Ramen Halal Bali,-8.6785941,115.193202,"Jl. Pura Demak No.34, Pemecutan Klod, Kec. Denpasar Bar., Kota Denpasar, Bali 80119, Indonesia",https://maps.google.com/?cid=15589719280123459510,OPERATIONAL,+62 822-2988-0838,japanese_restaurant,"japanese_restaurant, restaurant, food",4.4,264,
ChIJsTpwrM5A0i0RXn_rL2V80gA,I Love Grass,-8.676941099999999,115.1952583,"Jl. Pura Demak No.77, Pemecutan Klod, Kec. Denpasar Bar., Kota Denpasar, Bali 80119, Indonesia",https://maps.google.com/?cid=59246519146741598,OPERATIONAL,+62 813-3793-0280,hotel,"hotel, lodging",4.4,135,
ChIJ8c-xTDNH0i0ROPPgPm3SXEk,RAIN Residence,-8.678062599999999,115.1888328,"Jl. Pura Banyu Kuning Mahendradata, Padangsambian, Kec. Denpasar Bar., Kota Denpasar, Bali 80115, Indonesia",https://maps.google.com/?cid=5286331429274317624,OPERATIONAL,+62 896-5249-1110,,lodging,4,25,
ChIJ3WIkjehB0i0REXt2woLaSGI,Fish Streat Bali,-8.6786345,115.1931939,"Jl. Pura Demak No.34, Pemecutan Klod, Kec. Denpasar Bar., Kota Denpasar, Bali 80119, Indonesia",https://maps.google.com/?cid=7082150669183253265,OPERATIONAL,+62 813-3735-0250,seafood_restaurant,"seafood_restaurant, restaurant, food",4,353,PRICE_LEVEL_MODERATE
ChIJv5_6PZxH0i0RR6K64aphF9A,Mahendradatta homes,-8.676064499999999,115.18942460000001,"Jl. Pura Banyu Kuning No.2, Padangsambian, Kec. Denpasar Bar., Kota Denpasar, Bali 80119, Indonesia",https://maps.google.com/?cid=14994560870912795207,OPERATIONAL,+62 853-3911-2642,lodging,lodging,4.8,6,
ChIJeQBeEstA0i0RnU4ulyAumzY,Penginapan Mutiara Indah,-8.6756095,115.18851769999998,"85FQ+QC2, Jl. Pura Banyu Kuning, Padangsambian, Kec. Denpasar Bar., Kota Denpasar, Bali 80119, Indonesia",https://maps.google.com/?cid=3934789416948485789,OPERATIONAL,+62 813-3845-8464,,"hostel, lodging",3.8,57,
ChIJj8EKYstA0i0RqRnuFTls7d4,Koi Hotel & Residence,-8.6764631,115.19126130000001,"Jl. Mahendradatta No.107, Padangsambian, Kec. Denpasar Bar., Kota Denpasar, Bali 80119, Indonesia",https://maps.google.com/?cid=16063614438337288617,OPERATIONAL,+62 361 8466679,hotel,"hotel, bed_and_breakfast, lodging",4.1,244,
ChIJnQBR_89H0i0R6wQTleImngs,SING SING RESIDENCE,-8.679004800000001,115.1898619,"Jl. Mahendradatta Selatan No.9, Padangsambian, Kec. Denpasar Bar., Kota Denpasar, Bali 80117, Indonesia",https://maps.google.com/?cid=837149335343006955,OPERATIONAL,+62 821-4783-4927,hotel,"hotel, lodging",2.6,14,
ChIJvfDrKM1A0i0RM2lNrC-lrtI,Warung Sikasep,-8.679947,115.18968059999997,"Jalan Mahendradatta no. 9 Pondok 545, Denpasar Barat, Kota Denpasar, Padangsambian, Kec. Denpasar Bar., denpasar barat, Bali 80119, Indonesia",https://maps.google.com/?cid=15181253018085321011,OPERATIONAL,+62 819-3618-8109,cafe,"cafe, indonesian_restaurant, restaurant, food",4.4,971,PRICE_LEVEL_INEXPENSIVE
ChIJPUGDIMxA0i0RJDZBXfX4ZDk,Kos Only One 2,-8.6780674,115.194295,"Gg. Marlboro XVII No.28, Pemecutan Klod, Kec. Denpasar Bar., Kota Denpasar, Bali 80119, Indonesia",https://maps.google.com/?cid=4135704090548188708,OPERATIONAL,+62 813-1999-7988,private_guest_room,"private_guest_room, lodging",4.6,113,
ChIJ47xBZ8tA0i0RegrpCdiCkng,Monjali Bali,-8.6764683,115.19023199999998,"Jl. Mahendradatta No.107, Padangsambian, Kec. Denpasar Bar., Kota Denpasar, Bali 80117, Indonesia",https://maps.google.com/?cid=8688150495541922426,OPERATIONAL,+62 811-3995-168,indonesian_restaurant,"indonesian_restaurant, restaurant, food",4.1,1102,PRICE_LEVEL_MODERATE
ChIJVcVats1A0i0Rlk2AmtsdaVM,THE AYUDYA PURA DEMAK,-8.6798541,115.193287,"Jl. Pura Demak No.27, Pemecutan Klod, Kec. Denpasar Bar., Kota Denpasar, Bali 80119, Indonesia",https://maps.google.com/?cid=6010368006729780630,OPERATIONAL,+62 812-3999-4399,extended_stay_hotel,"extended_stay_hotel, hotel, lodging",4.6,76,
ChIJb7V4EsxA0i0Rga689USQZW8,Only One 3,-8.677421299999999,115.1936073,"Jl. Pura Demak VII No.2, Tegal Harum, Kec. Denpasar Bar., Kota Denpasar, Bali 80119, Indonesia",https://maps.google.com/?cid=8026980536712736385,OPERATIONAL,,,lodging,4.5,73,
