id,name,latitude,longitude,address,url,status,phone,primary-type,types,rating,rating-count,price-level
ChIJN00k9dEi0i0RVfghN6k5ZUU,Warung Kayana,-8.4808295,115.2468094,"G69W+MP7, Jl. Raya Kedewatan, Kedewatan, Kecamatan Ubud, Kabupaten Gianyar, Bali 80571, Indonesia",https://maps.google.com/?cid=5000466360202033237,OPERATIONAL,+62 361 8989607,barbecue_restaurant,"barbecue_restaurant, restaurant, food",4.4,3369,PRICE_LEVEL_INEXPENSIVE
ChIJf7IrN8wi0i0R379TtmdoHTU,Balinese Home Cooking,-8.481716300000002,115.251393,"Jl. RSI Markandya II Br.Payogan No.:20, Kedewatan, Kecamatan Ubud, Kabupaten Gianyar, Bali 80571, Indonesia",https://maps.google.com/?cid=3827330052984651743,OPERATIONAL,+62 813-3941-4629,restaurant,"barbecue_restaurant, indonesian_restaurant, restaurant, food",4.8,1856,PRICE_LEVEL_INEXPENSIVE
ChIJnaUbMc8i0i0RLhloahFqAqw,Puri Payogan Villa,-8.478932900000002,115.25188270000001,"Jl. RSI Markandya II No.27, Banjar Payogan, Desa Kedewatan Ubud, Bali 80561, In, Kedewatan, Kecamatan Ubud, Kabupaten Gianyar, Bali 80561, Indonesia",https://maps.google.com/?cid=12394585747509221678,OPERATIONAL,+62 361 8989390,hotel,"hotel, lodging",4.4,131,
ChIJmYGklDwj0i0R1PE9plyfzUM,AWATARA BOUTIQUE RESORT UBUD,-8.4795375,115.24755329999999,"Kedewatan, Ubud, Gianyar Regency, Bali 80571, Indonesia",https://maps.google.com/?cid=4885736391041741268,OPERATIONAL,+62 361 8982999,resort_hotel,"resort_hotel, hotel, lodging",4.1,96,
ChIJW3FBK00j0i0RoFHXz2RLiwU,E2C Coffee & Eatery Ubud,-8.4790071,115.25306630000001,"Jl. RSI Markandya II No.21, Kedewatan, Kecamatan Ubud, Kabupaten Gianyar, Bali 80561, Indonesia",https://maps.google.com/?cid=399495888308228512,OPERATIONAL,+62 811-1957-8999,restaurant,"restaurant, food",4.8,353,PRICE_LEVEL_MODERATE
ChIJ_dABOM4i0i0RVEV11n4q5D0,Pondok Cocoa Retreat,-8.478759499999999,115.24951340000001,"Jl. Raya Kedewatan No.56, Kedewatan, Kecamatan Ubud, Kabupaten Gianyar, Bali 80571, Indonesia",https://maps.google.com/?cid=4459736255255889236,OPERATIONAL,,hotel,"hotel, lodging",4.1,32,
ChIJVVVVVc4i0i0RpzZk2B8MufY,Jungle Retreat,-8.4783019,115.24637820000001,"Jl. Raya Kedewatan, Kedewatan, Kecamatan Ubud, Kabupaten Gianyar, Bali 80571, Indonesia",https://maps.google.com/?cid=17778254334935709351,OPERATIONAL,+62 361 975478,hotel,"hotel, lodging",4.4,187,
ChIJaQxRFUYj0i0RvJk76t3097M,Kayana House Ubud,-8.476973899999999,115.25004600000001,"Jl. Cocoa I No.6, Kedewatan, Kecamatan Ubud, Kabupaten Gianyar, Bali 80571, Indonesia",https://maps.google.com/?cid=12968102885991356860,OPERATIONAL,+62 818-0548-4309,private_guest_room,"private_guest_room, lodging",4.9,14,
ChIJUcXbrhkj0i0RdOfJcTLY0lY,Indian Tandoor Ubud by Kupu Kupu Barong,-8.478190099999999,115.24654860000001,"Jl. Raya Kedewatan, Kedewatan, Kecamatan Ubud, Kabupaten Gianyar, Bali 80571, Indonesia",https://maps.google.com/?cid=6256300543540062068,OPERATIONAL,+62 361 975478,indian_restaurant,"indian_restaurant, restaurant, food",3.6,37,
ChIJJ4WqWC490i0R62xg9cHVDJg,Sari Profit Rafting,-8.4810374,115.2468107,"Jalan Raya Kedewatan No. 21 Ubud, Kedewatan, Gianyar, Kabupaten Gianyar, Bali 80571, Indonesia",https://maps.google.com/?cid=10956367022507715819,OPERATIONAL,+62 813-3331-5161,,tourist_attraction,4.6,76,
ChIJLdQB6dEi0i0RH6DZm-jI2Ug,Mason Adventure & Chocolate Centre,-8.479929,115.2469745,"Jalan Raya Kedewatan II, Kedewatan, Kecamatan Ubud, Kabupaten Gianyar, Bali 80571, Indonesia",https://maps.google.com/?cid=5249447742049722399,OPERATIONAL,+62 361 8989777,sports_complex,"sports_complex, spa, restaurant, food",4.6,218,
ChIJifbPPMMi0i0RbR8hO7RXdC8,Nasi ayam betutu kedewatan ibu adnyani,-8.4801666,115.2474357,"Jalan Raya Kedewatan ,no 44 Kedewatan 2 44, Kedewatan, Kecamatan Ubud, Kabupaten Gianyar, Bali 80571, Indonesia",https://maps.google.com/?cid=3419454448678805357,OPERATIONAL,+62 361 980476,indonesian_restaurant,"indonesian_restaurant, restaurant, food",4.7,142,
ChIJcb0lqVsj0i0RHjVECi-OBk4,Gandhiwa,-8.484311,115.25025429999998,"Jl. Rsi Markandya I No.7, Kedewatan, Kecamatan Ubud, Kabupaten Gianyar, Bali 80571, Indonesia",https://maps.google.com/?cid=5622337517505492254,OPERATIONAL,,private_guest_room,"private_guest_room, lodging",5,4,
ChIJx-xyMh0j0i0RmEzWRUJ7m60,DIWATA house,-8.478315600000002,115.2462652,"Jl. Batu Kurung III No.3, Kedewatan, Kecamatan Ubud, Kabupaten Gianyar, Bali 80571, Indonesia",https://maps.google.com/?cid=12509727914521414808,OPERATIONAL,,private_guest_room,"private_guest_room, lodging",5,7,
ChIJBaO2x80i0i0Rp6gyQkuFTec,Villa Saraswati Ubud,-8.480812499999999,115.25031249999998,"Jl. Mpu Beradah No.: 7, Banjar Payogan, Kedewatan, Kecamatan Ubud, Kabupaten Gianyar, Bali 80571, Indonesia",https://maps.google.com/?cid=16667124354247731367,OPERATIONAL,+62 818-1818-9897,hotel,"hotel, lodging",4.7,33,
ChIJfdRwTfQj0i0Rej7xQLYLoeE,Manada Guesthouse,-8.4824594,115.25015359999999,"Jl. Mpu Tantular, Kedewatan, Kecamatan Ubud, Kabupaten Gianyar, Bali 80571, Indonesia",https://maps.google.com/?cid=16258289007185706618,OPERATIONAL,+62 822-3756-4166,private_guest_room,"private_guest_room, lodging",4.5,39,
ChIJPVni4s4i0i0RagzNsr_b9_w,Ubud Harmony Villa,-8.4787743,115.25210849999999,"Jl. RSI Markandya II No.26, Kedewatan, Kecamatan Ubud, Kabupaten Gianyar, Bali 80561, Indonesia",https://maps.google.com/?cid=18228279633190390890,OPERATIONAL,+62 821-4714-9263,hotel,"hotel, lodging",4.3,23,
ChIJJcM2xNIi0i0RDe8g3995OmY,JFC Jaya Fried Chicken,-8.476356299999999,115.24913319999999,"Jl. Raya Kedewatan, Kedewatan, Kecamatan Ubud, Kabupaten Gianyar, Bali 80571, Indonesia",https://maps.google.com/?cid=7366334142946012941,OPERATIONAL,+62 818-0544-4988,meal_takeaway,"fast_food_restaurant, meal_takeaway, restaurant, food",4.1,68,
ChIJHVj7LqIj0i0RLPe78pWktlE,Uddhara Bali,-8.4771584,115.250636,"Jl. Cocoa II, Kedewatan, Kecamatan Ubud, Kabupaten Gianyar, Bali 80571, Indonesia",https://maps.google.com/?cid=5888074526762989356,OPERATIONAL,+62 812-3972-1003,hotel,"hotel, lodging",5,4,
ChIJKWjU4s4i0i0R-WOwNcRyJPQ,ubud Jungle Villa Arya,-8.478497899999999,115.2519525,"Jl. RSI Markandya II, Kedewatan, Kecamatan Ubud, Kabupaten Gianyar, Bali 80561, Indonesia",https://maps.google.com/?cid=17592312231455908857,OPERATIONAL,+62 813-3813-4526,,lodging,4.6,11,
