id,name,latitude,longitude,address,url,status,phone,primary-type,types,rating,rating-count,price-level
ChIJq6qqqi6M0S0RMAulUwplPlM,Bengbengan Waterfall,-8.2028125,115.1899375,"Lemukih, Sawan, Buleleng Regency, Bali 81171, Indonesia",https://maps.google.com/?cid=5998342848731482928,OPERATIONAL,+62 878-4472-6800,tourist_attraction,tourist_attraction,4.8,25,
ChIJcUr9ypiN0S0RVIMa2INkdoc,Ceburan ricefield,-8.203575899999999,115.1897708,"Q5WQ+VXR, Lemukih, Sawan, Buleleng Regency, Bali 81171, Indonesia",https://maps.google.com/?cid=9761099759801238356,OPERATIONAL,,tourist_attraction,tourist_attraction,,,
ChIJC_QvDACN0S0RmbrkL7dHEyY,Uma gede Arim,-8.2043992,115.1914982,"Q5VR+P5, Lemukih, Sawan, Buleleng Regency, Bali, Indonesia",https://maps.google.com/?cid=2743615450106870425,OPERATIONAL,,tourist_attraction,tourist_attraction,,,
ChIJ-wH1dlyN0S0RJ3jesPPvHzc,Tiboles waterfall,-8.204082,115.1896699,"Q5WQ+VXR, Lemukih, Sawan, Buleleng Regency, Bali 81171, Indonesia",https://maps.google.com/?cid=3972157226287527975,OPERATIONAL,,tourist_attraction,tourist_attraction,5,1,
ChIJxYeSlCKN0S0Rqo3eIhyJuns,Ceburan rest area,-8.202816,115.1898282,"Q5WQ+VXR, Lemukih, Sawan, Buleleng Regency, Bali 81171, Indonesia",https://maps.google.com/?cid=8915589166270418346,CLOSED_TEMPORARILY,,tourist_attraction,tourist_attraction,5,1,
ChIJOXvHFMeN0S0Ro4_zS5gPtxM,Tiboles rice field,-8.2050251,115.18904859999999,"Q5VQ+XJ, Lemukih, Sawan, Buleleng Regency, Bali, Indonesia",https://maps.google.com/?cid=1420621354242379683,OPERATIONAL,,tourist_attraction,tourist_attraction,5,1,
ChIJ17KCJIyN0S0R0niR8cAVN4k,Munduk manik forest,-8.2090297,115.1898349,"Q5RQ+9W, Lemukih, Sawan, Buleleng Regency, Bali, Indonesia",https://maps.google.com/?cid=9887395425345960146,OPERATIONAL,,hiking_area,"hiking_area, park",,,
ChIJLysZl6aN0S0Rltjqq5lX1cQ,Uma tangkup(ricefield),-8.2031875,115.1913125,"Q5WR+PG, Lemukih, Sawan, Buleleng Regency, Bali, Indonesia",https://maps.google.com/?cid=14183338918999152790,OPERATIONAL,,tourist_attraction,tourist_attraction,5,1,
