id,name,latitude,longitude,address,url,status,phone,primary-type,types,rating,rating-count,price-level
ChIJWS_cFAIj0i0R_mKN1uo1uyI,Ayung Resort Ubud,-8.4498983,115.2347794,"Banjar Begawan, Melinggih Kelod, Kec. Payangan, Kabupaten Gianyar, Bali 80572, Indonesia",https://maps.google.com/?cid=2502653300672652030,OPERATIONAL,+62 361 9001333,resort_hotel,"resort_hotel, hotel, lodging",4.7,1413,
ChIJl8UJr6oj0i0RrXcn9jp6adk,COMO Shambhala Estate,-8.450783200000002,115.23545069999999,"Banjar Begawan, Desa, Melinggih Kelod, Kec. Payangan, Kabupaten Gianyar, Bali 80571, Indonesia",https://maps.google.com/?cid=15666187172441454509,OPERATIONAL,+62 361 978888,hotel,"hotel, lodging, spa",4.8,307,
ChIJSdWJG3M90i0RCTLu8PoId3g,Rijasa Agung Resort Villas,-8.4495573,115.23428299999999,"Banjar Begawan Desa, Melinggih Kelod, Kec. Payangan, Kabupaten Gianyar, Bali 80353, Indonesia",https://maps.google.com/?cid=8680416680656908809,OPERATIONAL,+62 361 980411,resort_hotel,"resort_hotel, hotel, lodging",4.5,166,
ChIJWbhFUv8i0i0Re1mCGIdc3N4,Vaneka Garden House,-8.4465234,115.2356882,"Banjar Begawan, Melinggih Kelod, Payangan, Gianyar Regency, Bali 80572, Indonesia",https://maps.google.com/?cid=16058812106597882235,OPERATIONAL,+62 813-3831-5303,guest_house,"guest_house, hotel, lodging",4.8,45,
ChIJ-64a1LYj0i0RhnR3pLc5yUM,Wijaya Kusuma Restaurant,-8.449921999999999,115.2347836,"JL. Begawan Giri , Melinggih Kelod, Payangan, Melinggih Kelod, Kec. Gianyar, Kabupaten Gianyar, Bali 80572, Indonesia",https://maps.google.com/?cid=4884498731761104006,OPERATIONAL,+62 361 9001333,restaurant,"restaurant, food",5,28,
ChIJm5Osf0Y90i0RPjZTYMvtlCU,glow Restaurant (at COMO Shambhala Estate),-8.4508712,115.23546049999999,"COMO Shambhala Estate, Melinggih Kelod, Kec. Payangan, Kabupaten Gianyar, Bali 80353, Indonesia",https://maps.google.com/?cid=2708050733706720830,OPERATIONAL,+62 361 978888,brunch_restaurant,"brunch_restaurant, breakfast_restaurant, restaurant, food",4.5,28,
ChIJ-U14gaoj0i0R2jdfYM39jCo,Lotus Begawan,-8.4467068,115.2335786,"Br Begawan, Melinggih Kelod, Kec. Payangan, Kabupaten Gianyar, Bali 80572, Indonesia",https://maps.google.com/?cid=3066104504859441114,OPERATIONAL,,hotel,"hotel, lodging",3.8,5,
ChIJN_iSiv8i0i0Rjt6v8ON8fis,Kudus House at COMO Shambhala Estate,-8.4517959,115.2351736,"Jl. Begawan Giri, Ubud, Melinggih Kelod, Kec. Gianyar, Kabupaten Gianyar, Bali 80353, Indonesia",https://maps.google.com/?cid=3134079709133921934,OPERATIONAL,+62 361 978888,restaurant,"restaurant, food",4.1,11,
ChIJtSESkZUj0i0Rd_7K31rVAbE,Kubu begawan,-8.4494244,115.23469289999998,"H62M+6VP Br Begawan, Melinggih Kelod, Kec. Payangan, Kabupaten Gianyar, Bali 80353, Indonesia",https://maps.google.com/?cid=12754710205968350839,OPERATIONAL,,private_guest_room,"private_guest_room, lodging",5,1,
ChIJxRiRNooj0i0RDvppl5X_sVk,Dek Sartana Home,-8.446797799999999,115.2343729,"Jl. Raya Payangan No.Br, Begawan, Kec. Payangan, Kabupaten Gianyar, Bali 80572, Indonesia",https://maps.google.com/?cid=6463227958208887310,OPERATIONAL,+62 878-6276-9282,private_guest_room,"private_guest_room, lodging",5,2,
ChIJQ9ipqwEj0i0RNW3Craj0ICM,Nkri Art Gallery,-8.449475099999999,115.2335936,"Melinggih Kelod, Payangan, Gianyar Regency, Bali, Indonesia",https://maps.google.com/?cid=2531291995889102133,OPERATIONAL,,art_gallery,art_gallery,,,
ChIJqVcOgvEj0i0RWiRjbIXGHPA,Start Mahkota Rafting,-8.4474222,115.2345624,"H63M+2RM, Melinggih Kelod, Payangan, Gianyar Regency, Bali 80572, Indonesia",https://maps.google.com/?cid=17301922144801989722,OPERATIONAL,+62 812-3913-286,tourist_attraction,tourist_attraction,5,2,
ChIJBaovpg8j0i0RFOW8IKaMjvI,Dapur Nararya,-8.4467596,115.2345598,"Br. Begawan, Desa Melinggih, Kelod, Kec. Payangan, Kabupaten Gianyar, Bali 80572, Indonesia",https://maps.google.com/?cid=17478061849013183764,OPERATIONAL,+62 812-3939-0825,restaurant,"restaurant, food",,,
ChIJw9DqSQAj0i0Rv4jRCIY21Mc,Kedai Makan Nyonyah,-8.448846999999999,115.2347694,"H62M+FW6, Jl. Begawan Giri, Melinggih Kelod, Kec. Payangan, Kabupaten Gianyar, Bali 80572, Indonesia",https://maps.google.com/?cid=14399193857911785663,OPERATIONAL,+62 878-6141-7747,restaurant,"restaurant, food",,,
ChIJITFOewcj0i0RdPyYC4OxNhA,Warung Bubur Men Rika,-8.4475202,115.22818830000001,"Jl. Mangut No.19, Carangsari, Kec. Petang, Kabupaten Badung, Bali 80353, Indonesia",https://maps.google.com/?cid=1168316329742630004,OPERATIONAL,,restaurant,"restaurant, food",5,4,
ChIJjfIIFe0j0i0RoAuMtM1KEv0,Puri Bhagawan,-8.447028699999999,115.2360685,"H63P+5CP, Jl. Begawan Giri, Melinggih Kelod, Kec. Payangan, Kabupaten Gianyar, Bali 80572, Indonesia",https://maps.google.com/?cid=18235720088534387616,OPERATIONAL,,art_gallery,art_gallery,5,3,
ChIJRZEYNCUj0i0RoS8dKRW02F8,Bayu Pratama Home,-8.4476669,115.23463539999997,"H62M+WV, Melinggih Kelod, Payangan, Gianyar Regency, Bali 80572, Indonesia",https://maps.google.com/?cid=6906468031549747105,OPERATIONAL,,private_guest_room,"private_guest_room, lodging",,,
ChIJC2QrRmgj0i0Rn3UVR6GWlKU,warung puck boy,-8.4462226,115.23429189999999,"H63M+GP7, begawan, Melinggih Kelod, Kec. Payangan, Kabupaten Gianyar, Bali 80572, Indonesia",https://maps.google.com/?cid=11931326932237776287,OPERATIONAL,+62 877-0327-6699,coffee_shop,"coffee_shop, cafe, store, food",,,
ChIJvc-AqKoj0i0R6zYzMMs2-5o,Bendungan gianyar,-8.446493,115.23562050000001,"H63P+C65, Jl. Begawan Giri, Melinggih Kelod, Kec. Payangan, Kabupaten Gianyar, Bali 80572, Indonesia",https://maps.google.com/?cid=11167579947310200555,OPERATIONAL,,hotel,"hotel, lodging",3,1,
ChIJDczzFPYj0i0R2UA4MmW9WA0,Warung dingdong,-8.4450529,115.23425990000001,"H63M+XPC, Melinggih Kelod, Payangan, Gianyar Regency, Bali 80572, Indonesia",https://maps.google.com/?cid=961726762775494873,OPERATIONAL,,coffee_shop,"coffee_shop, cafe, store, food",5,3,
