id,name,latitude,longitude,address,url,status,phone,primary-type,types,rating,rating-count,price-level
ChIJ-xPCR9g_0i0Red0eqygUR1U,RUMKA BALI,-8.6207539,115.2391837,"Jl. Kaswari, Penatih, Kec. Denpasar Tim., Kota Denpasar, Bali 80237, Indonesia",https://maps.google.com/?cid=6144902381472505209,OPERATIONAL,+62 878-5259-3822,restaurant,"restaurant, food",4.4,242,
ChIJN3obnKE_0i0RIjBH0Q-aguE,OYO 90400 Roommate,-8.625564500000001,115.24144340000001,"Jl. Trengguli No.102, Penatih, Bali, Kota Denpasar, Bali 80238, Indonesia",https://maps.google.com/?cid=16249719798232461346,OPERATIONAL,,hotel,"hotel, lodging",3.5,80,
ChIJY2AMeJg_0i0RtKiAFl7xtWI,Pondok wisata sanjaya,-8.6191064,115.2454753,"BR Laplap, Jl. Siulan Gg. Sandat No.15, Penatih, Kec. Denpasar Tim., Kota Denpasar, Bali 80237, Indonesia",https://maps.google.com/?cid=7112856572908316852,OPERATIONAL,+62 858-5806-4451,hostel,"hostel, lodging",3.5,4,
ChIJh09hB3c_0i0RWtaBBGfcWo8,Kos Bu Made99 Penatih,-8.6186698,115.2397183,"Jl. Trenggana Gg. VII No.16, Penatih, Kec. Denpasar Tim., Kota Denpasar, Bali 80238, Indonesia",https://maps.google.com/?cid=10329811030343013978,OPERATIONAL,+62 896-8800-6833,,"rest_stop, lodging",4.9,9,
ChIJTbUMlaY_0i0RalkSaDscxnc,Taksibaliku Rentcar,-8.6216209,115.24110700000001,"Jl. Trenggana No.12, Penatih, Kec. Denpasar Tim., Kota Denpasar, Bali 80237, Indonesia",https://maps.google.com/?cid=8630616777376815466,OPERATIONAL,+62 818-0560-0866,car_rental,car_rental,4.2,39,
ChIJ7_jiKhs_0i0RBKu4GUkURhU,Krisna Bali Transport Penatih,-8.621752899999999,115.23938769999998,"Gg. Alpukat, Penatih, Kec. Denpasar Tim., Kota Denpasar, Bali 80237, Indonesia",https://maps.google.com/?cid=1532935027362933508,OPERATIONAL,,car_rental,car_rental,5,1,
ChIJafAdDZQ_0i0RQsSNQAhE7o4,Warung Ma'k Nyus,-8.621013999999999,115.2407804,"96HR+H8R, Jl. Trenggana, Penatih, Kec. Denpasar Tim., Kota Denpasar, Bali 80238, Indonesia",https://maps.google.com/?cid=10299244200076362818,OPERATIONAL,+62 857-3964-7278,indonesian_restaurant,"indonesian_restaurant, restaurant, food",4.7,125,PRICE_LEVEL_INEXPENSIVE
ChIJldkwolo_0i0RDzlolVfxlS0,Kolam pancing Mina asri penatih,-8.6208768,115.2458008,"96JW+27C, Penatih Dangin Puri, East Denpasar, Denpasar City, Bali 80237, Indonesia",https://maps.google.com/?cid=3284796861707729167,OPERATIONAL,+62 813-3870-9565,park,park,4.6,12,
ChIJM6_tSe4_0i0RD_6z4yzbPrY,Es Teh Indonesia - Penatih,-8.62359,115.2404535,"Jl. Padma No.165, Penatih, Kec. Denpasar Tim., Kota Denpasar, Bali 80237, Indonesia",https://maps.google.com/?cid=13132174549304213007,OPERATIONAL,+62 878-6207-6088,cafe,"cafe, food",4.7,86,
ChIJv7OVZhw_0i0RzJb4r2H6dos,ACK Siulan2,-8.6174708,115.2433691,"Jl. Siulan No.237-239, Penatih Dangin Puri, Kec. Denpasar Tim., Kota Denpasar, Bali 80237, Indonesia",https://maps.google.com/?cid=10049494915994916556,OPERATIONAL,,fast_food_restaurant,"fast_food_restaurant, restaurant, food",4.3,46,
ChIJQ3PayKc_0i0R9_03V-Ef738,Pasraman Padukuhan Samiaga,-8.6190566,115.23871969999999,"Jl. Kaswari, Penatih, Kec. Denpasar Tim., Kota Denpasar, Bali 80237, Indonesia",https://maps.google.com/?cid=9218622014942084599,OPERATIONAL,+62 812-3768-8699,museum,museum,4.7,19,
ChIJT37CDGQ_0i0R9gD6UsD9b3A,Warung Pojok,-8.6212731,115.24082530000001,"Jl. Trenggana No.17, Penatih, Kec. Denpasar Tim., Kota Denpasar, Bali 80237, Indonesia",https://maps.google.com/?cid=8101973257130475766,OPERATIONAL,,restaurant,"restaurant, food",3.3,36,
ChIJV2DVS60_0i0RhUFeKLqRhF4,Garashe residence,-8.6227302,115.2372426,"Jl. Padma Gg. Jayaraya No.16, Penatih, Kec. Denpasar Tim., Kota Denpasar, Bali 80237, Indonesia",https://maps.google.com/?cid=6810728765218242949,OPERATIONAL,,hostel,"hostel, lodging",4,5,
ChIJ4f7lcFw_0i0RpWEtt4NdbvU,JFC Trenggana,-8.620961000000001,115.24078209999999,"Jl. Trenggana No.25, Penatih, Kec. Denpasar Tim., Kota Denpasar, Bali 80237, Indonesia",https://maps.google.com/?cid=17685175607025820069,OPERATIONAL,,restaurant,"restaurant, food",4.2,16,
ChIJe440k6Y_0i0R8dyGrTE8zvY,Bakso pemuda solo,-8.621245199999999,115.24079680000001,"Jl. Trenggana No.21, Penatih, Kec. Denpasar Tim., Kota Denpasar, Bali 80238, Indonesia",https://maps.google.com/?cid=17784218162595028209,OPERATIONAL,+62 878-6058-3102,indonesian_restaurant,"indonesian_restaurant, restaurant, food",4.4,30,
ChIJAR_2z6Y_0i0RMX0jT55kSko,Babi Guling Men Iloeh,-8.6222336,115.24012389999999,"Jl. Trenggana No.7, Penatih, Kec. Denpasar Tim., Kota Denpasar, Bali 80237, Indonesia",https://maps.google.com/?cid=5353201738178592049,OPERATIONAL,+62 361 4669193,indonesian_restaurant,"indonesian_restaurant, restaurant, food",4.5,38,
ChIJTVFzFgA_0i0RY2CHP9zRrLo,Puri Trenggana,-8.6218349,115.24148779999999,"96HR+7H9, Jl. Trenggana, Penatih, Kec. Denpasar Tim., Kota Denpasar, Bali 80237, Indonesia",https://maps.google.com/?cid=13451356930937675875,OPERATIONAL,+62 812-1050-1426,,lodging,5,1,
ChIJ_-_JAzs_0i0R_PfMtZkWd-w,Point Coffee,-8.618188400000001,115.24067079999999,"Jl. Trenggana No.55, Penatih, Kec. Denpasar Tim., Kota Denpasar, Bali 80237, Indonesia",https://maps.google.com/?cid=17039112564615477244,OPERATIONAL,+62 1 500 280,coffee_shop,"coffee_shop, cafe, store, food",3.5,4,
ChIJJYZqztc_0i0R96ghxCElpAs,Babi guling penatih jik buncing,-8.61779,115.24090000000001,"Jl. Trenggana No.44, Penatih, Kec. Denpasar Tim., Denpasar timur, Bali 80238, Indonesia",https://maps.google.com/?cid=838836257552443639,OPERATIONAL,+62 821-4436-4020,indonesian_restaurant,"indonesian_restaurant, restaurant, food",4.6,5,
ChIJPf9Zqmk_0i0RxALNWLdztZ8,Kos Anindira,-8.620133299999999,115.23992979999998,"Gg. V No.12f, Penatih, Kec. Denpasar Tim., Kota Denpasar, Bali 80237, Indonesia",https://maps.google.com/?cid=11508231654121210564,OPERATIONAL,,hostel,"hostel, lodging",,,
