id,name,latitude,longitude,address,url,status,phone,primary-type,types,rating,rating-count,price-level
ChIJq5vIdvSM0S0RZLcRLWPabxU,Kopi Catur Arabika Kintamani,-8.2232807,115.2419785,"Catur, Kec. Kintamani, Kabupaten Bangli, Bali 80652, Indonesia",https://maps.google.com/?cid=1544693316704122724,OPERATIONAL,+62 818-0563-8708,restaurant,"restaurant, food",4.2,30,PRICE_LEVEL_INEXPENSIVE
ChIJA32HUKaN0S0RZ4JSsCV7_ks,Rumah yoga yantika,-8.223097899999999,115.2452631,"Q6GW+Q46, Catur, Kintamani, Bangli Regency, Bali, Indonesia",https://maps.google.com/?cid=5475949598731305575,OPERATIONAL,,park,park,,,
ChIJI2jxM-2M0S0ROy8ev6q_3HQ,Warung Muslim Pak Sera'i,-8.2241577,115.2478218,"Q6GX+84P, Jalan, Catur, Kec. Kintamani, Kabupaten Bangli, Bali 80652, Indonesia",https://maps.google.com/?cid=8420816143347756859,OPERATIONAL,+62 813-5317-3338,restaurant,"restaurant, food",4.6,28,
ChIJz_mauMuN0S0RmBm79ELf1As,Rumah makan muslim Banyuwangi BU ELLA,-8.2240214,115.24749419999999,"Banjar lampu, Catur, Kec. Kintamani, Kabupaten Bangli, Bali, Indonesia",https://maps.google.com/?cid=852551708146604440,OPERATIONAL,+62 821-4706-4740,restaurant,"restaurant, food",4,2,
ChIJt6xQUe2M0S0RCVvde-5Ntn8,"Wr.Lalapan ""Purnama""",-8.223989999999999,115.24861100000001,"Catur, Kintamani, Bangli Regency, Bali, Indonesia",https://maps.google.com/?cid=9202628575253846793,OPERATIONAL,,restaurant,"restaurant, food",,,
ChIJ-2fQuNeN0S0RIPM4llNPOr4,Pondok wayan sukanada,-8.223332899999999,115.24228749999997,"Q6GR+MW7 banjar lampu, Catur, Kec. Kintamani, Kabupaten Bangli, Bali 80652, Indonesia",https://maps.google.com/?cid=13707355636276720416,OPERATIONAL,,cafe,"cafe, food",5,5,
ChIJ9RQJPs6N0S0RPM0L2gFwlG4,Warung Banyuwangi,-8.2250443,115.2446415,"Q6FV+XVJ, Jalan, Catur, Kec. Kintamani, Kabupaten Bangli, Bali 80652, Indonesia",https://maps.google.com/?cid=7968116793980734780,OPERATIONAL,+62 859-6901-5191,indonesian_restaurant,"indonesian_restaurant, restaurant, food",4.3,4,
ChIJRVQCNMGN0S0R0C2OfU2QbYg,Bakso Babi.made Bali,-8.224976999999999,115.24485259999999,"Q6GV+2W5, Jl. Catur, Catur, Kec. Kintamani, Kabupaten Bangli, Bali 80652, Indonesia",https://maps.google.com/?cid=9830672224113012176,OPERATIONAL,+62 821-4738-7582,indonesian_restaurant,"indonesian_restaurant, restaurant, food",,,
ChIJsci30YyM0S0RYYTT4hOFHCc,Gorengan Catut. GBT,-8.2249802,115.2446156,"Q6GV+2R5, Jl. Catur, Catur, Kec. Kintamani, Kabupaten Bangli, Bali 80652, Indonesia",https://maps.google.com/?cid=2818273787283473505,OPERATIONAL,+62 812-3838-2400,restaurant,"restaurant, food",4.1,13,
