id,name,latitude,longitude,address,url,status,phone,primary-type,types,rating,rating-count,price-level
ChIJm3Y6zOcv0i0RsKOs9wXPLbk,Warung Day-U,-8.466144,115.0231313,"Tiying Gading, Selemadeg Barat, Tabanan Regency, Bali 82162, Indonesia",https://maps.google.com/?cid=13343548895505720240,OPERATIONAL,+62 877-6286-6000,restaurant,"restaurant, food",4.8,76,
ChIJgQd78l0u0i0RWFKd1cyqvOE,Ayam Bakar Tepi Jalan,-8.4670946,115.0235297,"G2MF+5C6, Jl. Antosari Pupuan, Tiying Gading, Kec. Selemadeg Bar., Kabupaten Tabanan, Bali 82162, Indonesia",https://maps.google.com/?cid=16266063750889296472,OPERATIONAL,+62 877-6160-1275,restaurant,"restaurant, cafe, food",4.3,46,
ChIJKbQQMF4u0i0RVry9T1Wqx-o,Warung Keet,-8.4644846,115.0234073,"G2PF+693, Tiying Gading, Selemadeg Barat, Tabanan Regency, Bali 82162, Indonesia",https://maps.google.com/?cid=16917677808627334230,OPERATIONAL,,bar,bar,2,2,
ChIJFe9S7c4v0i0RHH9dL4ZvnrU,Tami umo,-8.4627897,115.02132789999997,"JGHM+PMH, Banjar, Tiying Gading, Kec. Selemadeg Bar., Kabupaten Tabanan, Bali 82162, Indonesia",https://maps.google.com/?cid=13087020189296197404,OPERATIONAL,,park,park,,,
ChIJtZZAmLAv0i0ROHuLWuLxKzY,Warung Mangku Jendul,-8.460659699999999,115.0242966,"G2QF+PPM, Tiying Gading, Selemadeg Barat, Tabanan Regency, Bali 82162, Indonesia",https://maps.google.com/?cid=3903479456530660152,OPERATIONAL,,coffee_shop,"coffee_shop, cafe, food, store",,,
ChIJ_YFTcQAv0i0RZP_P_uhMJt0,DP 9,-8.4687321,115.0243369,"G2JF+GP, Tiying Gading, Selemadeg Barat, Tabanan Regency, Bali, Indonesia",https://maps.google.com/?cid=15935508895088246628,OPERATIONAL,,park,park,,,
ChIJOTGq4bsv0i0RFzTBiBf85QQ,Zorgh Side Villa P&B,-8.460481999999999,115.021885,"G2QC+JW7, Tiying Gading, Selemadeg Barat, Tabanan Regency, Bali 82162, Indonesia",https://maps.google.com/?cid=352965323827262487,OPERATIONAL,+62 813-5351-1427,tourist_attraction,tourist_attraction,5,1,
