id,name,latitude,longitude,address,url,status,phone,primary-type,types,rating,rating-count,price-level
ChIJ46pd1o3x0S0R0DvCbEwMumM,Host @ Volcano,-8.2152628,115.39261460000002,"Q9MV+V2X, Songan A, Kintamani, Bangli Regency, Bali 80652, Indonesia",https://maps.google.com/?cid=7186069677804764112,OPERATIONAL,+62 819-1675-0545,hotel,"hotel, lodging",4.8,226,
ChIJgwMi4LPx0S0R9GNorZW852E,Pertiwi Camp Kintamani,-8.2151847,115.39530479999999,"Jl. Kayupadi, Pinggan, Kec. Kintamani, Kabupaten Bangli, Bali 80652, Indonesia",https://maps.google.com/?cid=7054814692344620020,OPERATIONAL,+62 878-5622-7430,campground,"campground, lodging, park",4,46,
ChIJOSi34-zx0S0RUuR4IHoGNbo,Wanahita Kintamani,-8.2153999,115.39583909999998,"Pinggan, Kintamani, Bangli Regency, Bali 80652, Indonesia",https://maps.google.com/?cid=13417637786420831314,OPERATIONAL,,camping_cabin,"camping_cabin, lodging",5,8,
ChIJY9nOkCjx0S0RasdcSQ4aN98,"Camp ground, Cemara",-8.2137236,115.39418500000001,"Q9PV+GM7, Pinggan, Kintamani, Bangli Regency, Bali 80652, Indonesia",https://maps.google.com/?cid=16084353242839697258,OPERATIONAL,+62 831-1969-3977,campground,"campground, lodging, park",4.2,14,
ChIJYU23lTrx0S0RGFRNMlvarmo,Wates desa pinggan&songan,-8.215831699999999,115.3960884,"Q9MW+MC8 Pertiwi Camp Kintamani, Jl. Kayupadi, Pinggan, Kec. Kintamani, Kabupaten Bangli, Bali 80652, Indonesia",https://maps.google.com/?cid=7687321699188823064,OPERATIONAL,,historical_landmark,historical_landmark,,,
