id,name,latitude,longitude,address,url,status,phone,primary-type,types,rating,rating-count,price-level
ChIJ63-LKUQl0i0RJhkwB1BgXGo,Rekreasi Keluarga TIRTA MAS,-8.4636284,115.18054740000001,"G5PJ+G6V, Sembung, Mengwi, Badung Regency, Bali 80351, Indonesia",https://maps.google.com/?cid=7664106562711984422,OPERATIONAL,+62 812-3919-4754,restaurant,"restaurant, food",4.4,19,
ChIJFzDn3uwl0i0R-3zVxZoBFvE,Warung jajanan bali buk alit,-8.4634691,115.1812932,"G5PJ+JG7, Sembung, Mengwi, Badung Regency, Bali 80351, Indonesia",https://maps.google.com/?cid=17372074376883961083,OPERATIONAL,+62 813-3766-4704,meal_takeaway,"meal_takeaway, restaurant, food",5,14,
ChIJr2unhBYl0i0R0rOa2May3Dg,Wisata Alam Dedari,-8.4619935,115.1780043,"G5QH+636, Kuwum, Mengwi, Badung Regency, Bali 82181, Indonesia",https://maps.google.com/?cid=4097346328107594706,OPERATIONAL,,park,park,,,
ChIJc-YFJWQl0i0RoMsh_UMZnBI,asthakitchen,-8.468286500000001,115.1757889,"Jl. Kekeran Manikgunung, Selanbawak, Kec. Marga, Kabupaten Tabanan, Bali 82181, Indonesia",https://maps.google.com/?cid=1340974568849918880,OPERATIONAL,,restaurant,"restaurant, food",5,1,
ChIJ760BJ1Ml0i0RWOI2Tj6Xppc,Warung bu cantika nyelati,-8.4609758,115.17905979999999,"G5QH+JJ3, Jl. Kekeran Manikgunung, Kuwum, Kec. Mengwi, Kabupaten Badung, Bali 82181, Indonesia",https://maps.google.com/?cid=10927587839717073496,OPERATIONAL,,coffee_shop,"coffee_shop, cafe, store, food",4,1,
