id,name,latitude,longitude,address,url,status,phone,primary-type,types,rating,rating-count,price-level
ChIJKyzboog30i0RzgGQFwzCGaw,MNC Bali Resort,-8.6222101,115.0940395,"Jl. Tanah Lot No.KM 1, Beraban, Kec. Kediri, Kabupaten Tabanan, Bali 82171, Indonesia",https://maps.google.com/?cid=12401156406132081102,OPERATIONAL,,hotel,"hotel, lodging",4.8,15,
ChIJQ1U0OHo50i0Redrn7YQ6Mj8,Nuanu Ganesha,-8.6231926,115.09872139999999,"93GX+PFH, Beraban, Kediri, Tabanan Regency, Bali 82121, Indonesia",https://maps.google.com/?cid=4553766515826481785,OPERATIONAL,+62 812-3862-8263,hiking_area,"hiking_area, park",5,6,
ChIJIWizzsU30i0Rfj_NW7XwjOc,Ketut Riuh's Kosan,-8.617926599999999,115.0937046,"Jl. Tanah Lot, Banjar Enjungpura, Beraban, Kec. Kediri, Kabupaten Tabanan, Bali 82121, Indonesia",https://maps.google.com/?cid=16684975381220769662,OPERATIONAL,+62 812-3944-3706,,lodging,5,1,
ChIJebnUFGY30i0RkFDPcY6k4Vk,Red House Homestay,-8.61812,115.09345420000001,"Jl. Tanah Lot, Bali Banjar, Enjung pura, Kabupaten Tabanan, Bali 82121, Indonesia",https://maps.google.com/?cid=6476638670837207184,OPERATIONAL,+62 857-9256-6964,guest_house,"guest_house, lodging",5,1,
ChIJpRLSq_830i0RgumSp053L88,Kosan Pak Della,-8.618357099999999,115.0931973,"Jl. Raya Tanah Lot, masuk Jl. EnjungPura No.37, Beraban, Kec. Kediri, Kabupaten Tabanan, Bali 82121, Indonesia",https://maps.google.com/?cid=14929282469459061122,OPERATIONAL,+62 819-1623-0962,,lodging,,,
