id,name,latitude,longitude,address,url,status,phone,primary-type,types,rating,rating-count,price-level
ChIJow6OaJGP0S0ROh6zk7-obCw,Bali Farm House,-8.2443238,115.1497093,"Jl. Raya Singaraja-Denpasar, Pancasari, Kec. Sukasada, Kabupaten Buleleng, Bali 81161, Indonesia",https://maps.google.com/?cid=3201118975923789370,OPERATIONAL,+62 368 2021200,tourist_attraction,tourist_attraction,4,487,
ChIJ8bB7i9OO0S0RZBBwg0pqAvw,Taman Denbukit Camping Ground,-8.247520999999999,115.14775159999999,"Desa Bedugul, Jl. Sugriwa Dasong Pancasari, Pancasari, Kec. Sukasada, Kabupaten Buleleng, Bali 81161, Indonesia",https://maps.google.com/?cid=18159193515776544868,OPERATIONAL,+62 812-3753-1022,campground,"campground, tourist_attraction, park, lodging",4.6,396,
ChIJ-ViEOtaP0S0RJRBHU8ZasXc,Wisma Nangun Kerti Bedugul,-8.2452743,115.1531728,"Jl. Pancasari - Baturiti, Pancasari, Kec. Sukasada, Kabupaten Buleleng, Bali 81161, Indonesia",https://maps.google.com/?cid=8624774569238401061,OPERATIONAL,+62 362 3425160,hotel,"hotel, lodging",4.4,492,
ChIJk400wFeP0S0Rrewhv9Zkiic,Alamu Eco Lodge,-8.2427116,115.14661609999999,"Jl. Wisata Alam Danau Buyan, Pancasari, Kec. Sukasada, Kabupaten Buleleng, Bali 81152, Indonesia",https://maps.google.com/?cid=2849200587757710509,OPERATIONAL,,,lodging,4.6,105,
ChIJ57-ac1mP0S0R_RZ4nXa9TWU,Alam Buyan Cafe,-8.242629299999999,115.1463919,"Jl. Wisata Alam Danau Buyan, Pancasari, Kec. Sukasada, Kabupaten Buleleng, Bali 81152, Indonesia",https://maps.google.com/?cid=7299698888183125757,OPERATIONAL,,cafe,"cafe, food",4.6,45,
ChIJb1je3tOO0S0RDWYtCp90E1c,The Buyan Villas Resort,-8.246123299999999,115.14945619999999,"Q43X+HQ4, Jl. Raya Bedugul, Pancasari, Singaraja, Kabupaten Buleleng, Bali 81162, Indonesia",https://maps.google.com/?cid=6274486932276602381,OPERATIONAL,+62 858-4797-1998,hotel,"hotel, resort_hotel, lodging",4.4,182,
ChIJyWQ8GiSP0S0ReHCV_Fmhmu0,Strawberry Petik Sendiri,-8.243258299999999,115.1479676,"Jl. Pancasari - Baturiti No.54, Pancasari, Kec. Sukasada, Kabupaten Buleleng, Bali 81161, Indonesia",https://maps.google.com/?cid=17121174341264175224,OPERATIONAL,+62 857-9237-4360,tourist_attraction,tourist_attraction,4.8,12,
ChIJQVcLtdCO0S0Rvn1pu1tJLKs,Tepi Buyan (Babi Genyol & Ayam Betutu),-8.2422813,115.14748749999998,"Jl. Pancasari - Baturiti, Pancasari, Kec. Sukasada, Kabupaten Buleleng, Bali 81161, Indonesia",https://maps.google.com/?cid=12334314137796050366,OPERATIONAL,+62 878-6099-0474,indonesian_restaurant,"indonesian_restaurant, restaurant, food",4.3,243,PRICE_LEVEL_INEXPENSIVE
ChIJZ88bN6mP0S0R15Xso4yNfzA,Waroeng Buyan 818,-8.2466826,115.1515019,"Jl. Raya Singaraja-Denpasar, Pancasari, Kec. Sukasada, Kabupaten Buleleng, Bali 81161, Indonesia",https://maps.google.com/?cid=3494667471047923159,OPERATIONAL,+62 853-6171-8818,restaurant,"restaurant, food",4.4,137,
ChIJAy5rnCCP0S0RAQ_R6kmR6Xc,Rumah Makan Lestari Babi Guling,-8.2449615,115.1501769,"Jl. Pancasari - Baturiti, Pancasari, Kec. Sukasada, Kabupaten Buleleng, Bali 81161, Indonesia",https://maps.google.com/?cid=8640597106745216769,OPERATIONAL,+62 859-3616-4177,restaurant,"restaurant, food",4.2,50,
ChIJrSSlko2P0S0Rl2GWOmOyuqU,Ack pancasari,-8.2475977,115.1517203,"Q522+XM9, Pancasari, Sukasada, Buleleng Regency, Bali 81161, Indonesia",https://maps.google.com/?cid=11942053501180731799,OPERATIONAL,,fast_food_restaurant,"fast_food_restaurant, restaurant, food",4,22,
ChIJsz2h8WGP0S0RCoCSXkJKNNw,Warung muslim 2,-8.243522,115.1492418,"Jl. Raya Singaraja-Denpasar, Pancasari, Kec. Sukasada, Kabupaten Buleleng, Bali, Indonesia",https://maps.google.com/?cid=15867389036048056330,OPERATIONAL,,restaurant,"restaurant, food",3.8,30,
ChIJv8tJ39SP0S0RJoJhk0erpNY,Green Lake Cabin,-8.2450989,115.14663050000001,"Q43W+XM6, Pancasari, Sukasada, Buleleng Regency, Bali, Indonesia",https://maps.google.com/?cid=15466675344200794662,OPERATIONAL,+62 878-6577-5544,camping_cabin,"camping_cabin, lodging",4.8,6,
ChIJwcw8L9GO0S0RmIRGknvVKqE,Pondok Sania's Bedugul,-8.243976199999999,115.14798630000001,"Q44X+C55, Pancasari, Sukasada, Buleleng Regency, Bali 81161, Indonesia",https://maps.google.com/?cid=11613329315840033944,OPERATIONAL,+62 818-0560-6000,,lodging,4.1,10,
ChIJudzKXhaP0S0Rj6BZXVhtM0s,Oemah Gusti,-8.246820099999999,115.14959750000001,"Q43X+7RH, Jl. Kedasong, Pancasari, Kec. Sukasada, Kabupaten Buleleng, Bali 81161, Indonesia",https://maps.google.com/?cid=5418795002947543183,OPERATIONAL,+62 812-3872-2118,,lodging,4.6,12,
ChIJ4-pdz-iJ0S0ROuKaDDp0YII,bedugulcamping,-8.2419905,115.15140319999999,"Jl. Raya Singaraja-Denpasar, Pancasari, Kec. Sukasada, Kabupaten Buleleng, Bali 82191, Indonesia",https://maps.google.com/?cid=9394636615363256890,OPERATIONAL,+62 821-9675-1579,,lodging,5,2,
ChIJ1U9eSU2P0S0RcU0-V1CO7Hw,Ngopi yuk,-8.2422513,115.14754579999999,"Jl. Pancasari - Baturiti No.54, Pancasari, Kec. Sukasada, Kabupaten Buleleng, Bali 81161, Indonesia",https://maps.google.com/?cid=9001726230919007601,OPERATIONAL,,indonesian_restaurant,"indonesian_restaurant, restaurant, food",5,2,
ChIJMdZOas6P0S0RsrGxm0HM4nU,Rumah Makan Mutiara Syobak & Nasi Campur,-8.2448125,115.1498125,"Pancasari, Sukasada, Buleleng Regency, Bali 81161, Indonesia",https://maps.google.com/?cid=8494576429331231154,OPERATIONAL,+62 856-9353-7812,restaurant,"restaurant, food",4.4,22,
ChIJM0Fyk6eP0S0RkR3yx9hh3us,Warung BABI GULING BU EKA,-8.2477789,115.15089519999998,"Q522+V9J, Depan pasar, Pancasari, Kec. Sukasada, Kabupaten Buleleng, Bali, Indonesia",https://maps.google.com/?cid=16996129627438194065,OPERATIONAL,+62 887-0306-0619,brunch_restaurant,"brunch_restaurant, restaurant, food",,,
ChIJw4oCmR6P0S0RRL-h8xEFkQg,Stefani Cabins,-8.245088899999999,115.14781570000001,"Q43X+W4P, Pancasari, Sukasada, Buleleng Regency, Bali 81161, Indonesia",https://maps.google.com/?cid=617280198586515268,OPERATIONAL,+62 819-9912-1666,camping_cabin,"camping_cabin, lodging",5,6,
