id,name,latitude,longitude,address,url,status,phone,primary-type,types,rating,rating-count,price-level
ChIJp6fBwvIX0i0RuSO3qP1oIhs,Temesi Waterfall,-8.552769699999999,115.3477449,"Jalan subak pengliklikan, Temesi, Kec. Gianyar, Kabupaten Gianyar, Bali 80515, Indonesia",https://maps.google.com/?cid=1955240626898805689,OPERATIONAL,,tourist_attraction,tourist_attraction,5,119,
ChIJvTlnJ1MX0i0RvV6aHelOsQ0,Griya Puri Carik,-8.550205499999999,115.34672069999999,"C8XW+WM9, Temesi, Gianyar, Gianyar Regency, Bali 80515, Indonesia",https://maps.google.com/?cid=986656556501851837,OPERATIONAL,,private_guest_room,"private_guest_room, lodging",,,
ChIJ5ZaQCRMX0i0RJta4Ao0vK6M,Kubu Ambengan Temesi,-8.5509764,115.34973069999998,"Jl. Raya Temesi No.100X, Temesi, Kec. Gianyar, Kabupaten Gianyar, Bali 80515, Indonesia",https://maps.google.com/?cid=11757543534863373862,OPERATIONAL,+62 361 945979,private_guest_room,"private_guest_room, lodging",3.7,3,
ChIJ3bACJpEW0i0RVY90z1C1XPk,Bali Liberty Tour,-8.5470031,115.34819390000001,"Temesi, Gianyar, Gianyar Regency, Bali 80515, Indonesia",https://maps.google.com/?cid=17968435971983970133,OPERATIONAL,+62 812-4653-724,car_rental,"car_rental, travel_agency, store",5,25,
ChIJ-zKDIZAW0i0Rf8HgWZfTrNo,Agung Cottages,-8.548769,115.343345,"Jl. Gautama No.18, Tegal Tugu, Kec. Gianyar, Kabupaten Gianyar, Bali 80512, Indonesia",https://maps.google.com/?cid=15757201843263947135,OPERATIONAL,+62 366 975414,hotel,"hotel, lodging",,,
ChIJYzHerZoW0i0RLMiwTQiyuME,Kokokan Hotel,-8.550721500000002,115.34337760000001,"JL Br Pengosekan Ubud, C8XV+P96, Tegal Tugu, Kec. Gianyar, Kabupaten Gianyar, Bali 80571, Indonesia",https://maps.google.com/?cid=13959102793767766060,OPERATIONAL,+62 366 976659,hotel,"hotel, lodging",,,
ChIJ_____48W0i0RrS8kt9C-DkQ,Begawan Pilage Resort PT,-8.5501978,115.3430203,"JL Br Begawan Meling, C8XV+W6C, Tegal Tugu, Kec. Gianyar, Kabupaten Gianyar, Bali 80512, Indonesia",https://maps.google.com/?cid=4904066847888125869,OPERATIONAL,+62 366 978173,resort_hotel,"resort_hotel, hotel, lodging",,,
ChIJ_bV6CQAX0i0Rwht-jO4DxaU,Rumah Pande Nyoman Mudana,-8.5507493,115.3494659,"Jl. Raya Temesi No.100X, Temesi, Kec. Gianyar, Kabupaten Gianyar, Bali 80515, Indonesia",https://maps.google.com/?cid=11944957909764283330,OPERATIONAL,,private_guest_room,"private_guest_room, lodging",5,1,
ChIJ86j7MQAX0i0Rly-5gGToI9U,Warung belong,-8.549571,115.3495312,"F82X+5RC, Temesi, Gianyar, Gianyar Regency, Bali 80515, Indonesia",https://maps.google.com/?cid=15358374672617516951,OPERATIONAL,,coffee_shop,"coffee_shop, cafe, store, food",,,
ChIJBSJMLwwX0i0RrdbQw6_NRmc,Warung Bakso Temesi,-8.5500411,115.34990309999999,"Jl. Raya Temesi, Temesi, Kec. Gianyar, Kabupaten Gianyar, Bali 80515, Indonesia",https://maps.google.com/?cid=7441861589064537773,OPERATIONAL,,restaurant,"restaurant, food",,,
ChIJcQyMWJcW0i0Rx8LMxzEtM9M,Warung Bu Made,-8.549655699999999,115.34989639999999,"Temesi, Gianyar, Gianyar Regency, Bali, Indonesia",https://maps.google.com/?cid=15218557257643770567,OPERATIONAL,,restaurant,"restaurant, food",,,
