id,name,latitude,longitude,address,url,status,phone,primary-type,types,rating,rating-count,price-level
ChIJIz4AOi4l0i0RnDEenMXZnao,Puri Gede Penebel,-8.4225742,115.1453013,"Jl. Kresna No.3, Banjar Penebel Kaja, Kec. Penebel, Kabupaten Tabanan, Bali 82181, Indonesia",https://maps.google.com/?cid=12294222000542331292,OPERATIONAL,+62 817-176-598,tourist_attraction,tourist_attraction,4.7,33,
ChIJ03CFxhMl0i0RlAD_S1LhH-I,Banjar dinas karadan,-8.4240408,115.14867499999998,"H4GX+8C9, Desa, Penebel, Kec. Penebel, Kabupaten Tabanan, Bali 82181, Indonesia",https://maps.google.com/?cid=16293989720428314772,OPERATIONAL,,tourist_attraction,tourist_attraction,5,1,
ChIJS-mRzdUl0i0R0j2sdz4_Fow,Gandadi Garasi Coffee,-8.4278245,115.1443507,"Penebel, Tabanan Regency, Bali 82181, Indonesia",https://maps.google.com/?cid=10094325152325844434,OPERATIONAL,+62 878-6187-8785,coffee_shop,"coffee_shop, cafe, store, food",4.9,20,
ChIJWwBeL-Al0i0RFVumKjei2cA,DaLa Koffie,-8.4268545,115.143805,"Jalan Raya Sebelah Utara Lapangan Umum, Penebel, Kec. Penebel, Kabupaten Tabanan, Bali 82152, Indonesia",https://maps.google.com/?cid=13896316483050822421,OPERATIONAL,+62 857-3927-2629,coffee_shop,"coffee_shop, cafe, store, food",5,6,
ChIJ5d9gAjMk0i0R_nyx-Bvva90,Mie Ayam Bakso 99,-8.4252875,115.14390979999999,"H4FV+VHM, Jl. Ps. Hewan, Penebel, Kec. Penebel, Kabupaten Tabanan, Bali 82181, Indonesia",https://maps.google.com/?cid=15955109008305650942,OPERATIONAL,+62 857-3900-0373,restaurant,"indonesian_restaurant, restaurant, food",4.3,15,
ChIJdxP-jy0k0i0RiZpNGz_dh1M,Nasi Lawar Penatih,-8.4219653,115.14529329999999,"H4HW+647, Jl. Raya Babahan Senganan, Penebel, Kec. Penebel, Kabupaten Tabanan, Bali 82152, Indonesia",https://maps.google.com/?cid=6019022690114706057,OPERATIONAL,+62 812-3856-8071,indonesian_restaurant,"indonesian_restaurant, restaurant, food",4.7,6,
ChIJ3afoBFMl0i0RrsZXh6pRFgY,Three Mountain Food and Drink,-8.426644699999999,115.1436925,"H4FV+8FW, Penebel, Tabanan Regency, Bali, Indonesia",https://maps.google.com/?cid=438627806572168878,OPERATIONAL,,restaurant,"restaurant, food",5,2,
ChIJ3Qb6Uc4h0i0RDq7xlYQgmrQ,Warung Babi Guling Pradana,-8.422255,115.14491830000001,"H4HV+3XV, Jl. Raya, Penebel, Kec. Penebel, Kabupaten Tabanan, Bali 80572, Indonesia",https://maps.google.com/?cid=13013749827063885326,OPERATIONAL,+62 819-9902-9976,restaurant,"restaurant, food",,,
ChIJrxgF4NEl0i0RoJOKjI9m2bg,RM. AYAM KREMES DAN AYAM GEPREK HALAL,-8.422763600000001,115.14307500000001,"H4GV+V6W, Penebel, Tabanan Regency, Bali 82152, Indonesia",https://maps.google.com/?cid=13319790139649201056,OPERATIONAL,,restaurant,"restaurant, food",,,
ChIJo--wDjMk0i0RvVW-EmpTpOo,Kios Bu Har,-8.4260956,115.14402989999999,"H4FV+HJ6, Jl.Raya, Penebel, Kec. Penebel, Kabupaten Tabanan, Bali 82181, Indonesia",https://maps.google.com/?cid=16907730616101787069,OPERATIONAL,+62 878-6058-5326,restaurant,"restaurant, food",5,3,
ChIJxQNhSskl0i0RxDTBIhKGUpo,Warung Nasi Kuning Buk Anom,-8.423517,115.1456836,"Jl. Penebel - Biaung No.10, Penebel, Kec. Penebel, Kabupaten Tabanan, Bali 82181, Indonesia",https://maps.google.com/?cid=11120097842381796548,OPERATIONAL,,indonesian_restaurant,"indonesian_restaurant, restaurant, food",5,1,
ChIJNXIHhjIk0i0RYWfSAGGd6wk,Warung Madura,-8.4231936,115.14405729999999,"H4GV+PJF, jalan raya, penebel kelod, Kec. Penebel, Kabupaten Tabanan, Bali 82181, Indonesia",https://maps.google.com/?cid=714838005819533153,OPERATIONAL,+62 878-6181-5206,brunch_restaurant,"brunch_restaurant, restaurant, food",4.1,7,
ChIJb6J05Fcl0i0ROc3Br5tg6f0,Warung Nadi (Warung Nasi Bali),-8.4233371,115.14487939999998,"H4GV+MX6, Penebel, Tabanan Regency, Bali 82181, Indonesia",https://maps.google.com/?cid=18296261182954261817,OPERATIONAL,,indonesian_restaurant,"indonesian_restaurant, restaurant, food",5,5,
ChIJk4txaS4l0i0RTZ3I0x-aqZY,Warung T &J,-8.4225651,115.14493630000001,"Jl. Raya Babahan Senganan No.10, Penebel, Kec. Penebel, Kabupaten Tabanan, Bali 82181, Indonesia",https://maps.google.com/?cid=10856377838241094989,OPERATIONAL,,brunch_restaurant,"brunch_restaurant, restaurant, food",,,
ChIJG8lVhaol0i0RTsgF9I69DOY,Warung Jaen San,-8.4236077,115.1448608,"H4GV+HW5, Jl. Raya Babahan Senganan, Penebel, Kec. Penebel, Kabupaten Tabanan, Bali 82181, Indonesia",https://maps.google.com/?cid=16576832750120978510,OPERATIONAL,,cafe,"cafe, food",,,
ChIJozoz9zIk0i0RUpEoDS3fz40,Warung Bengkel,-8.4244366,115.1440811,"H4GV+6JG, Jl. Ps. Hewan, Penebel, Kec. Penebel, Kabupaten Tabanan, Bali 82181, Indonesia",https://maps.google.com/?cid=10218631464114229586,OPERATIONAL,+62 856-3834-016,restaurant,"restaurant, food",,,
ChIJYQNN_zIk0i0RB4D7HNILtU0,Warung Ayu,-8.425136799999999,115.1443401,"H4FV+WPW, Jl. Raya Babahan Senganan, Penebel, Kec. Penebel, Kabupaten Tabanan, Bali 82181, Indonesia",https://maps.google.com/?cid=5599394708762361863,OPERATIONAL,,indonesian_restaurant,"indonesian_restaurant, restaurant, food",4.8,10,
ChIJGwD-Y_8l0i0RWTqfGHqO0Fc,Warung LakLak Penebel,-8.4248277,115.14386549999999,"H4GV+3G9, Penebel, Tabanan Regency, Bali, Indonesia",https://maps.google.com/?cid=6327714131505789529,OPERATIONAL,,indonesian_restaurant,"indonesian_restaurant, restaurant, food",5,1,
ChIJU21S5Agl0i0RA0lXuW8Tp1w,WBS-Bilyard.centre,-8.42598,115.14451720000001,"H4FV+JR2, Jl. Raya Buruan, Petung, Kec. Penebel, Kabupaten Tabanan, Bali 82181, Indonesia",https://maps.google.com/?cid=6676326343171852547,OPERATIONAL,+62 812-3920-875,bar,bar,,,
ChIJfzRfpzMk0i0RTZaKQr_VrN0,Warung D'PETUNG,-8.426302,115.1445885,"Jl. Raya Buruan No.28, Penebel, Kec. Penebel, Kabupaten Tabanan, Bali 82181, Indonesia",https://maps.google.com/?cid=15973376995808155213,OPERATIONAL,+62 831-1490-5774,store,"store, cafe, food",5,1,
