id,name,latitude,longitude,address,url,status,phone,primary-type,types,rating,rating-count,price-level
ChIJQ5Wv5IQi0i0RD4jc2-mZjHo,Greenkubu Restaurant and Swing,-8.4520774,115.2742628,"Jalan Cinta, Br, Jl. Pejengaji, Tegallalang, Gianyar Regency, Bali 80561, Indonesia",https://maps.google.com/?cid=8830602199061792783,OPERATIONAL,+62 852-1105-4605,restaurant,"restaurant, food",4.6,4292,PRICE_LEVEL_INEXPENSIVE
ChIJI1egomgj0i0R1sIwdt8UMEQ,ITA House Tegallalang,-8.4479274,115.27442570000001,"H72F+RQF, Jl. Raya Pandawa, Tegallalang, Kec. Tegallalang, Kabupaten Gianyar, Bali 80561, Indonesia",https://maps.google.com/?cid=4913450143454380758,OPERATIONAL,+62 878-6011-6646,guest_house,"guest_house, lodging",4.5,26,
ChIJKyaPzIYi0i0RvPFG_Ethqbo,Love Bali Bike Tours,-8.4467439,115.2779174,"Jl. Pejengaji, Tegallalang, Kecamatan Ubud, Kabupaten Gianyar, Bali 80561, Indonesia",https://maps.google.com/?cid=13450388741101646268,OPERATIONAL,+62 815-2933-4528,,tourist_attraction,5,121,
ChIJb_bwl4Ij0i0RQ2fGszsAFjg,Ajuna Suite Villas Ubud,-8.4471373,115.2738102,"H73F+4GV, Tegallalang, Gianyar Regency, Bali 80561, Indonesia",https://maps.google.com/?cid=4041417972030793539,OPERATIONAL,+62 831-1583-9933,hotel,"hotel, lodging",4.5,22,
ChIJGxQ9qIMi0i0RcQb6T6m4qk0,Rumah Makan Padang Putra Minang,-8.4511538,115.2800419,"Jl. Raya Tegallalang, G7XJ+G2M, Gianyar, Tegallalang, Kec. Tegallalang, Denpasar, Bali 80561, Indonesia",https://maps.google.com/?cid=5596488524292032113,OPERATIONAL,+62 877-6046-2503,indonesian_restaurant,"indonesian_restaurant, restaurant, food",4.2,57,
ChIJr7WjmeIj0i0R0K54q-Lygo4,Warung BibikSuma,-8.4492472,115.27890689999998,"Jl. Pejengaji, Tegallalang, Kec. Tegallalang, Kabupaten Gianyar, Bali 80561, Indonesia",https://maps.google.com/?cid=10269037155711495888,OPERATIONAL,+62 857-9234-8405,restaurant,"restaurant, food",3.9,54,
ChIJ-xNRyZwi0i0RESazTgams4I,ACK Fried Chicken Tegallalang,-8.452161,115.27959630000001,"Jl. Raya Tegallalang No.Depan, SMA 1, Kec. Tegallalang, Kabupaten Gianyar, Bali 80561, Indonesia",https://maps.google.com/?cid=9418053791782217233,OPERATIONAL,+62 878-6170-8355,meal_takeaway,"meal_takeaway, restaurant, food",3.8,119,
ChIJbXHVCoEi0i0R-ysjk9FrV2E,Warung Jowo,-8.4473454,115.28061389999999,"Jl. Raya Tegallalang No.5758, Tegallalang, Kec. Tegallalang, Kabupaten Gianyar, Bali 80561, Indonesia",https://maps.google.com/?cid=7014193492513729531,OPERATIONAL,+62 815-5818-9808,restaurant,"restaurant, food",4.6,18,
ChIJK_b4l_Mj0i0R5h2iP3s0jcY,Alankara Villa & Spa - Tegalalang Ubud,-8.448298,115.2740472,"Banjar Pejengaji, Tegallalang, Kec. Tegallalang, Kabupaten Gianyar, Bali 80561, Indonesia",https://maps.google.com/?cid=14307149295179144678,OPERATIONAL,,hotel,"hotel, lodging",,,
ChIJk1og1oMi0i0RehfsLeHbZEI,Warung Makan Nasi Sela Blenger,-8.4486407,115.28032290000002,"H72J+G4W, Tegallalang, Gianyar Regency, Bali 80561, Indonesia",https://maps.google.com/?cid=4784190464358881146,OPERATIONAL,+62 812-3738-0334,restaurant,"restaurant, food",4.8,22,
ChIJ2caAIYMi0i0RjX1w5jlcMCs,Pura Dalem Kangin,-8.452510199999999,115.27981629999998,"G7WH+XWW, Tegallalang, Gianyar Regency, Bali 80561, Indonesia",https://maps.google.com/?cid=3112088746262035853,OPERATIONAL,,hindu_temple,"hindu_temple, tourist_attraction, place_of_worship",4.8,12,
ChIJJxzyvUIj0i0R9pIdDxZLFnI,Warung CB,-8.448024799999999,115.28055889999997,"H72J+Q6V, Jl. Raya Tegallalang, Tegallalang, Kec. Tegallalang, Kabupaten Gianyar, Bali 80561, Indonesia",https://maps.google.com/?cid=8220840727926379254,OPERATIONAL,+62 818-562-977,restaurant,"restaurant, food",4.9,20,
ChIJb2D-p4Mi0i0R0L6-jjmEXJU,Bakso Pawon Wong Solo,-8.451158,115.2800432,"Jl. Raya Tegallalang, G7XJ+G2M, Tegallalang, Gianyar, Tegallalang, Kec. Tegallalang, Denpasar, Bali 80561, Indonesia",https://maps.google.com/?cid=10762622592251510480,OPERATIONAL,+62 823-4073-4108,indonesian_restaurant,"indonesian_restaurant, restaurant, food",4.2,16,
ChIJUXwgVRgj0i0RiPAYQRXK03Y,Cetroo Coffee Tegallalang,-8.4507056,115.2800183,"Jl. Raya Tegallalang, Banjar Triwangsa, Kec. Tegallalang, Kabupaten Gianyar, Bali 80561, Indonesia",https://maps.google.com/?cid=8562409509196722312,OPERATIONAL,,cafe,"cafe, food",5,8,
ChIJ3e9YE4Ij0i0R6g2A6cLB01k,Lalapan jik Balox,-8.451487300000002,115.27985419999999,"Jl. Raya Tegallalang No.184, Tegallalang, Kec. Tegallalang, Kabupaten Gianyar, Bali 80561, Indonesia",https://maps.google.com/?cid=6472730132346834410,OPERATIONAL,+62 819-3600-0607,indonesian_restaurant,"indonesian_restaurant, restaurant, food",5,10,
ChIJycF0wlYj0i0R8T6yaRF6oew,Rumah yogan,-8.4457183,115.2787464,"H73H+PF9, Tegallalang, Gianyar Regency, Bali 80561, Indonesia",https://maps.google.com/?cid=17051043879407730417,OPERATIONAL,+62 815-4763-4784,indonesian_restaurant,"indonesian_restaurant, restaurant, food",5,2,
ChIJq6qqqpki0i0RRWizO0rFWtc,Warung Jawa Timur,-8.4509934,115.2801696,"Jl. Tegallalang, G7XJ+J33, Tegallalang, Gianyar, Tegallalang, Kec. Tegallalang, Denpasar, Bali 80561, Indonesia",https://maps.google.com/?cid=15517932388678330437,OPERATIONAL,+62 821-4656-2173,indonesian_restaurant,"indonesian_restaurant, restaurant, food",5,2,
ChIJMZ6ZT3Ej0i0RV_gPZn5rme0,Warung sate dan gule kambing,-8.4497454,115.28043989999999,"H72J+46W, Tegallalang, Gianyar Regency, Bali 80561, Indonesia",https://maps.google.com/?cid=17120833649048025175,CLOSED_TEMPORARILY,+62 877-5515-6115,breakfast_restaurant,"breakfast_restaurant, restaurant, food",4.8,5,
ChIJk64DqIYi0i0RpP7ZgTbtItQ,Wr. Cak Sukir,-8.4488418,115.2771236,"H72G+FR9, Jl. Raya Pandawa, Tegallalang, Kec. Tegallalang, Kabupaten Gianyar, Bali 80561, Indonesia",https://maps.google.com/?cid=15286040903611448996,OPERATIONAL,,restaurant,"restaurant, food",,,
ChIJhTOXCdQj0i0R9zKeNHiMGJQ,Warung Men Kinar Tegallalang,-8.4471794,115.2804192,"BR, Tegallalang, Kec. Tegallalang, Kabupaten Gianyar, Bali 80561, Indonesia",https://maps.google.com/?cid=10671433764961137399,OPERATIONAL,+62 878-6136-0993,restaurant,"restaurant, food",5,3,
