id,name,latitude,longitude,address,url,status,phone,primary-type,types,rating,rating-count,price-level
ChIJXTkEqrcj0i0R5rIhQNt6tCE,Kresna Asih House,-8.4180761,115.28015309999999,"Sebatu, Tegallalang, Gianyar Regency, Bali 80561, Indonesia",https://maps.google.com/?cid=2428701181151916774,OPERATIONAL,+62 831-1964-0672,private_guest_room,"private_guest_room, lodging",5,11,
ChIJk4PPEwsi0i0RgNQSM5WEFJs,Village coffee shop,-8.421346699999999,115.2796432,"Jl. Raya Tegallalang No.65, Sebatu, Kec. Tegallalang, Kabupaten Gianyar, Bali 80561, Indonesia",https://maps.google.com/?cid=11174702351754908800,OPERATIONAL,+62 819-9972-3131,cafe,"cafe, food",4,5,
ChIJlSAEj1Qf0i0ROT4Xnc9pkAo,House Of Coffee Shop Scatter Lokate,-8.4204657,115.27971029999999,"H7HH+RV8, Jl. Raya Pujung Kaja, Sebatu, Kec. Tegallalang, Kabupaten Gianyar, Bali 80561, Indonesia",https://maps.google.com/?cid=761224677440306745,OPERATIONAL,+62 812-3646-8035,cafe,"cafe, coffee_shop, store, food",5,1,
ChIJ3Zz-118j0i0RNvGWO1wORwc,Coffee break,-8.4195042,115.28012049999998,"H7JJ+52X, Jl. Raya Pujung Kaja, Sebatu, Kec. Tegallalang, Kabupaten Gianyar, Bali 80561, Indonesia",https://maps.google.com/?cid=524403670911480118,OPERATIONAL,+62 878-5603-4373,coffee_shop,"coffee_shop, cafe, store, food",3,1,
ChIJ1-LppAsi0i0R2nT4hs14-9M,Warung Makan Nasi Campur,-8.4204072,115.27977299999999,"H7HH+RWJ, Jl. Raya Pujung Kaja, Sebatu, Kec. Tegallalang, Kabupaten Gianyar, Bali 80561, Indonesia",https://maps.google.com/?cid=15274935385285227738,OPERATIONAL,,restaurant,"restaurant, food",,,
ChIJAYtFUYYj0i0RiiKqSrNTaHE,Pondok dauh,-8.417326200000002,115.2795041,"H7MH+3R6, Jl. Raya Pujung Kaja, Sebatu, Kec. Tegallalang, Kabupaten Gianyar, Bali 80561, Indonesia",https://maps.google.com/?cid=8171873553380680330,OPERATIONAL,+62 822-4716-1635,bed_and_breakfast,"bed_and_breakfast, lodging",,,
ChIJL6GPmM4j0i0RACmcr0fgUNo,Coffee selem,-8.4194893,115.2801505,"H7JJ+63R, Jl. Raya Pujung Kaja, Sebatu, Kec. Tegallalang, Kabupaten Gianyar, Bali 80561, Indonesia",https://maps.google.com/?cid=15731320096898689280,OPERATIONAL,,coffee_shop,"coffee_shop, cafe, store, food",,,
