id,name,latitude,longitude,address,url,status,phone,primary-type,types,rating,rating-count,price-level
ChIJG7UCNAwU0i0RlG1gz941c_U,Siyut Beach,-8.5745263,115.37004950000001,"Jl. Raya Pantai Siyut, Tulikup, Kec. Gianyar, Kabupaten Gianyar, Bali, Indonesia",https://maps.google.com/?cid=17686539392692284820,OPERATIONAL,,tourist_attraction,tourist_attraction,4.3,417,
ChIJp2WS3REU0i0R8SSB6zIE9ls,Kori Maharani Villas - Lagoon Pool Access Ocean View 1,-8.572503000000001,115.36624499999999,"C9G8+XFX Prof. Dr. Ida Bagus, Jl. Bypass Ngurah Rai, Tulikup, Kec. Gianyar, Kabupaten Gianyar, Bali 80852, Indonesia",https://maps.google.com/?cid=6626488518468248817,OPERATIONAL,+62 453 6950111,guest_house,"guest_house, lodging",5,1,
ChIJvywI5sUV0i0RJEAgBkppwGo,"Cafe Amysta, Bar & Karaoke",-8.570978,115.36875609999998,"C9H9+JG2, Jl. Raya Pantai Siyut, Tulikup, Kec. Gianyar, Kabupaten Gianyar, Bali, Indonesia",https://maps.google.com/?cid=7692263930200080420,OPERATIONAL,+62 821-8577-7999,cafe,"cafe, food",4.3,33,
ChIJq8S-aQ4U0i0RCE91qBMscro,Gianyar Beach Hotel,-8.5721021,115.36638959999998,"Jl. Pantai Siyut (ida bagus mantra), C9H8+5H2, Tulikup, Kec. Gianyar, Tulikup, Kec. Gianyar, Kabupaten Gianyar, Bali 80361, Indonesia",https://maps.google.com/?cid=13434849101341871880,OPERATIONAL,+62 812-4944-4447,hotel,"hotel, lodging",4.2,17,
ChIJJVCwNhsU0i0RgCDKz3kQYf0,KAFE 88 BAR & KARAOKE,-8.571883999999999,115.36523500000001,"Jl. Prof.Ida Bagus Mantra, C9H8+63X, Banjar Siyut, Ketewel, Kecamatan Gianyar, Tulikup, Kec. Gianyar, Kabupaten Gianyar, Bali 80582, Indonesia",https://maps.google.com/?cid=18257892479699918976,OPERATIONAL,+62 812-3683-2256,cafe,"cafe, food",4,23,
ChIJ27VYTrgV0i0RpnpnOH3Vv2s,Maharani Beach Front Restaurant,-8.5755416,115.36449209999999,"Jalan By Pass, Jl. Prof. Dr. Ida Bagus Mantra Jl. Raya Pantai Siyut, Tulikup, Kec. Gianyar, Kabupaten Gianyar, Bali 80515, Indonesia",https://maps.google.com/?cid=7764159016403958438,OPERATIONAL,+62 361 4791690,restaurant,"restaurant, food",4.7,7,
ChIJ8whXMRAU0i0RYSrx17Xd5tU,Warung Lalapan Jawa Timur,-8.5709477,115.36563969999999,"C9H8+J7C, Jl. Prof. Dr. Ida Bagus Mantra, Medahan, Kec. Blahbatuh, Kabupaten Gianyar, Bali, Indonesia",https://maps.google.com/?cid=15413250547803826785,OPERATIONAL,,indonesian_restaurant,"indonesian_restaurant, restaurant, food",4.2,6,
ChIJVS6AyREU0i0RR-WPvbgKB9Y,Warung Kadek Darmi,-8.5716775,115.3654626,"C9H8+85G, Jl. Prof. Dr. Ida Bagus Mantra, Tulikup, Kec. Gianyar, Kabupaten Gianyar, Bali, Indonesia",https://maps.google.com/?cid=15422307237524137287,OPERATIONAL,,restaurant,"restaurant, food",2.7,3,
ChIJpWGf2d8V0i0RKbZnIXFhPio,Hello Cafe,-8.5703359,115.3689057,"C9H9+XHW, Jl. Raya Pantai Siyut, Tulikup, Kec. Gianyar, Kabupaten Gianyar, Bali, Indonesia",https://maps.google.com/?cid=3043977536668677673,OPERATIONAL,,bar,bar,4.5,2,
ChIJTaykOoYV0i0RYGFW0LrMjDY,Dewa Dewi Cafe,-8.570369099999999,115.36714959999999,"C9H8+VV2, Tulikup, Gianyar, Gianyar Regency, Bali, Indonesia",https://maps.google.com/?cid=3930741677518905696,OPERATIONAL,+62 823-1068-6514,cafe,"cafe, food",,,
ChIJlUZnefIV0i0RUvdl6p7rcek,Tukad melangit,-8.572471799999999,115.3712538,"C9HC+2G6, Negari, Banjarangkan, Klungkung Regency, Bali, Indonesia",https://maps.google.com/?cid=16821485150975424338,OPERATIONAL,,tourist_attraction,tourist_attraction,5,1,
ChIJ6WOFdg4U0i0RGLPWwV_Rv1Q,"Kafe New D, LEGEND BALI",-8.571989499999999,115.36889740000001,"C9H9+6H2, Jl. Raya Pantai Siyut, Tulikup, Kec. Gianyar, Kabupaten Gianyar, Bali, Indonesia",https://maps.google.com/?cid=6106829828941853464,OPERATIONAL,,cafe,"cafe, food",4.6,12,
ChIJ44cj0p4V0i0RmF3e4BBO5bg,Bali Banana Garden,-8.5717918,115.3647799,"C9H7+7WJ, Jl. Prof. Dr. Ida Bagus Mantra, Tulikup, Kec. Gianyar, Kabupaten Gianyar, Bali, Indonesia",https://maps.google.com/?cid=13323140907044593048,OPERATIONAL,,tourist_attraction,tourist_attraction,5,3,
ChIJm2ggsQ4U0i0RTnw9xqMQfvE,"Les's Bar & Grill. Negari, Banjaangkan.",-8.572532299999999,115.3720949,"Unnamed Road, C9GC+XRQ, Negari, Banjarangkan, Klungkung Regency, Bali, Indonesia",https://maps.google.com/?cid=17401364305797807182,OPERATIONAL,,cafe,"cafe, food",5,5,
ChIJnZklJBAU0i0R_fNiPJeXLW4,Warung Mentari Pagi,-8.570447,115.366319,"Jalan By Pass Proffesor Doktor Ida Bagus Mantra,Lebih, Gianyar, C9H8+RGG, Tulikup, Kec. Gianyar, Kabupaten Gianyar, Bali 80515, Indonesia",https://maps.google.com/?cid=7939168393933026301,OPERATIONAL,+62 813-5317-5509,restaurant,"restaurant, food",5,1,
ChIJL0dsn7kV0i0RHI2zlUkxt_Y,ARIS BOGA,-8.5745234,115.36835479999999,"C9G9+58X, Jl. Raya Pantai Siyut, Tulikup, Kec. Gianyar, Kabupaten Gianyar, Bali, Indonesia",https://maps.google.com/?cid=17777732246182268188,OPERATIONAL,+62 857-0462-5236,indonesian_restaurant,"indonesian_restaurant, restaurant, food",5,2,
ChIJXRGS3REU0i0RdGLXN4X_gaQ,New Horizon Rice Fields Beach Villas in Bali,-8.572503000000001,115.36623999999999,"C9G8+XFX Prof. Dr. Ida Bagus, Jl. Bypass Ngurah Rai, Tulikup, Kec. Gianyar, Kabupaten Gianyar, Bali 80852, Indonesia",https://maps.google.com/?cid=11854036641848451700,OPERATIONAL,+62 453 6950111,bed_and_breakfast,"bed_and_breakfast, lodging",,,
ChIJRforow8U0i0Ry-gNOpe2DAE,Kafe Cinta,-8.5700082,115.36896449999999,"C9H9+XHW, Jl. Raya Pantai Siyut, Tulikup, Kec. Gianyar, Kabupaten Gianyar, Bali, Indonesia",https://maps.google.com/?cid=75636054388762827,OPERATIONAL,,cafe,"cafe, food",3.2,5,
ChIJB08F_WMV0i0RhsI0Fqn38y0,PT SUKA ARTA,-8.5723747,115.36551449999999,"Unnamed Road, C9H8+362, Tulikup, Kec. Gianyar, Kabupaten Gianyar, Bali, Indonesia",https://maps.google.com/?cid=3311262456641536646,OPERATIONAL,+62 878-6000-3202,restaurant,"restaurant, food",,,
ChIJHSjpvMUV0i0R0ZgACLIPbrg,WARUNG BANYUWANGI Sebelah Cafe 88,-8.571893,115.36516149999999,"C9H8+63V, Tulikup, Gianyar, Gianyar Regency, Bali, Indonesia",https://maps.google.com/?cid=13289576807729764561,OPERATIONAL,+62 823-4159-1311,restaurant,"restaurant, food",5,3,
