id,name,latitude,longitude,address,url,status,phone,primary-type,types,rating,rating-count,price-level
ChIJfbmIOhr10S0RjngWf57yJ5k,Ritatkala Cafe,-8.256483099999999,115.33656309999999,"Jl. Raya Kintamani, Batur Sel., Kec. Kintamani, Kabupaten Bangli, Bali 80652, Indonesia",https://maps.google.com/?cid=11036056174445623438,OPERATIONAL,,cafe,"cafe, coffee_shop, indonesian_restaurant, restaurant, food, store",4.8,3038,PRICE_LEVEL_MODERATE
ChIJyVJLJxr10S0RbDBJocf46UA,Tegal Sari Cabin Kintamani,-8.2548981,115.3367147,"Jalan Pura Ulun Danu Batur, Batur Sel., Kec. Kintamani, Kabupaten Bangli, Bali 80652, Indonesia",https://maps.google.com/?cid=4677543224289079404,OPERATIONAL,+62 887-3152-727,hotel,"hotel, lodging",4.8,20,
ChIJ1cAB02P00S0Ryq4_3n4tTSo,Puncak Sari Rumah Makan,-8.2532704,115.33427939999999,"Desa Kintamani, P8WM+MPR, Batur Utara, Bangli, Kabupaten Bangli, Bali 80652, Indonesia",https://maps.google.com/?cid=3048142545717538506,OPERATIONAL,+62 366 51073,restaurant,"restaurant, food",4.4,37,
ChIJY38f4vn10S0Rz0uKEStFHQo,Warung Mujair Nyat nyat,-8.2531683,115.3331872,"P8WM+P7M, Jalan Raya, Batur Utara, Kec. Kintamani, Kabupaten Bangli, Bali 80652, Indonesia",https://maps.google.com/?cid=728814765984074703,OPERATIONAL,,indonesian_restaurant,"indonesian_restaurant, restaurant, food",3.3,3,
ChIJl9cTE2L00S0RuVN4vx7d6io,Mutiara Restaurant Kintamani,-8.2527403,115.33209629999999,"P8WJ+WR5, Jalan Raya, Batur Utara, Kec. Kintamani, Kabupaten Bangli, Bali 80652, Indonesia",https://maps.google.com/?cid=3092527218274358201,OPERATIONAL,,restaurant,"restaurant, food",3.8,11,
ChIJTZZDj4r10S0RE0A5tc9P07Q,Cabin Okana,-8.2559459,115.33699999999999,"P8VP+GM7, Jalan Raya, Batur Sel., Kec. Kintamani, Kabupaten Bangli, Bali 80652, Indonesia",https://maps.google.com/?cid=13029845900430229523,OPERATIONAL,+62 813-3901-2822,camping_cabin,"camping_cabin, lodging",5,11,
ChIJ9_kpI2L00S0Ra8RbUuddvD0,Warung Sonia,-8.2532417,115.3328382,"North Batur, Kintamani, Bangli Regency, Bali 80652, Indonesia",https://maps.google.com/?cid=4448533780035781739,OPERATIONAL,+62 853-3851-2710,restaurant,"restaurant, food",4.3,62,
ChIJHV87JWL00S0RyQsZUeqavvQ,WARUNG MAKAN ME ELLY,-8.2532307,115.33326849999999,"P8WM+P82, Jalan Raya, Batur Sel., Kec. Kintamani, Kabupaten Bangli, Bali 80652, Indonesia",https://maps.google.com/?cid=17635703522003061705,OPERATIONAL,+62 852-3720-4504,restaurant,"restaurant, food",4.6,45,
ChIJnR2TSjz10S0RYp40vAcKALI,Tegalsari camp,-8.2550046,115.33718169999999,"P8VP+XVV, South Batur, Kintamani, Bangli Regency, Bali 80652, Indonesia",https://maps.google.com/?cid=12826262767089786466,OPERATIONAL,+62 812-3820-0542,campground,"campground, park, lodging",5,6,
ChIJA2Jyz0710S0REfKQs_P1SB0,Mount batur trekking,-8.254156499999999,115.3347955,"P8WM+8WM, North Batur, Kintamani, Bangli Regency, Bali, Indonesia",https://maps.google.com/?cid=2110206852461556241,OPERATIONAL,+62 838-4567-1364,hiking_area,"hiking_area, park",5,2,
ChIJcUGFRGH00S0RQdx9K4nPx28,Klenteng Cong Po Kong,-8.2543845,115.3360253,"P8WP+6CR, South Batur, Kintamani, Bangli Regency, Bali 80652, Indonesia",https://maps.google.com/?cid=8054634646622559297,OPERATIONAL,,place_of_worship,"tourist_attraction, place_of_worship",5,6,
ChIJMWbYbWH00S0RbIU259HXcCY,Warung Makan Sate Gulai Kambing,-8.2546123,115.3349659,"P8WM+5X4, Jalan Raya, Batur Utara, Kec. Kintamani, Kabupaten Bangli, Bali 80652, Indonesia",https://maps.google.com/?cid=2769951067360101740,OPERATIONAL,+62 878-6108-6935,indonesian_restaurant,"indonesian_restaurant, restaurant, food",,,
ChIJ013kJQD10S0RcsSBFYT_IYo,Villa Jempana,-8.2498946,115.3356132,"Q82P+26X, North Batur, Kintamani, Bangli Regency, Bali 80652, Indonesia",https://maps.google.com/?cid=9953517594227098738,OPERATIONAL,,hostel,"hostel, lodging",,,
ChIJKbxxXwr10S0RIxrl8kSaVFM,BAKSO BALI BLI PARTO,-8.254554299999999,115.3351294,"North Batur, Kintamani, Bangli Regency, Bali 80652, Indonesia",https://maps.google.com/?cid=6004593824115268131,OPERATIONAL,,indonesian_restaurant,"indonesian_restaurant, restaurant, food",4,4,
ChIJY3VvmPT10S0RFR30S1vNIus,Yummy Donuts Kintamani,-8.253993699999999,115.33412659999999,"P8WM+CM2, Jalan Raya, Batur Utara, Kec. Kintamani, Kabupaten Bangli, Bali 80652, Indonesia",https://maps.google.com/?cid=16943330540121234709,OPERATIONAL,,restaurant,"restaurant, food",3.6,7,
ChIJ3QZQ0GD00S0RondxMlJODXY,"WARUNG MAKAN ""DEWI GANGGA""",-8.256604099999999,115.3365597,"P8VP+9J3, Jalan Raya, Batur Sel., Kec. Kintamani, Kabupaten Bangli, Bali 80652, Indonesia",https://maps.google.com/?cid=8506541386113316770,OPERATIONAL,+62 823-4000-0327,restaurant,"restaurant, food",5,1,
ChIJSdW_QOH10S0RkeR-2UYeA7A,Angkringan Edelweis,-8.253681499999999,115.3336554,"Dusun Gatra Kencana, Batur Utara, Kec. Kintamani, Kabupaten Bangli, Bali 80652, Indonesia",https://maps.google.com/?cid=12683014265250964625,OPERATIONAL,+62 817-9711-146,fast_food_restaurant,"fast_food_restaurant, restaurant, food",5,12,
ChIJc8HJ0LH10S0RK9DzZUxv8Uo,Pondokan Padang Belulang,-8.2524072,115.3368685,"P8XP+2P5, South Batur, Kintamani, Bangli Regency, Bali 80652, Indonesia",https://maps.google.com/?cid=5400219802112610347,OPERATIONAL,,coffee_shop,"coffee_shop, cafe, food, store",5,2,
ChIJZVQNPQD10S0RLLzAvIVAROQ,Danau Batur Spearfishing,-8.2529405,115.3324592,"P8WJ+RXG, North Batur, Kintamani, Bangli Regency, Bali, Indonesia",https://maps.google.com/?cid=16448342682205469740,OPERATIONAL,,private_guest_room,"private_guest_room, lodging",,,
ChIJ2zm8fdP10S0RDFftsdL9-2Q,bali 377,-8.2555677,115.3358335,"P8VP+Q8G, Jl. Raya Kintamani, Batur Sel., Kec. Kintamani, Kabupaten Bangli, Bali 80652, Indonesia",https://maps.google.com/?cid=7276688704317249292,OPERATIONAL,,restaurant,"restaurant, food",5,1,
