id,name,latitude,longitude,address,url,status,phone,primary-type,types,rating,rating-count,price-level
ChIJ4SYoKGmG0S0Rr8aLNBmuOwg,Dayang Rice Terraces,-8.2725157,115.06142750000001,"P3G6+XHV, Munduk, Banjar, Buleleng Regency, Bali 81152, Indonesia",https://maps.google.com/?cid=593259199208343215,OPERATIONAL,,,"tourist_attraction, food",4.6,64,
ChIJTZLAonOG0S0RtUALBuFhgao,Villa Bali Bening,-8.2665639,115.0630851,"P3M7+96G, Jl. Batugalih, Munduk, Kec. Banjar, Kabupaten Buleleng, Bali 81152, Indonesia",https://maps.google.com/?cid=12286208877540360373,OPERATIONAL,+62 812-3958-662,guest_house,"guest_house, lodging",4.6,81,
ChIJ1YrqIraH0S0R5mhS-gNiEpA,Pandan Bali warung,-8.270695,115.0638773,"Jl. Batugalih, Munduk, Kec. Banjar, Kabupaten Buleleng, Bali 81152, Indonesia",https://maps.google.com/?cid=10381467860266543334,OPERATIONAL,+62 858-5755-3855,cafe,"cafe, food",5,21,
ChIJlUcXE26G0S0R3SmRW_yqc2M,Warung Akar Asih,-8.2680074,115.06341359999999,"P3J7+Q9V, Jl. Batugalih, Munduk, Kec. Banjar, Kabupaten Buleleng, Bali 81152, Indonesia",https://maps.google.com/?cid=7166259432921311709,OPERATIONAL,+62 821-2988-5433,cafe,"cafe, food",4.7,6,
ChIJH0AoGj2H0S0RHgNandv1384,UtopiaKu,-8.2724418,115.06245849999998,"Jl. Pura Puseh, Munduk, Kec. Banjar, Kabupaten Buleleng, Bali 81152, Indonesia",https://maps.google.com/?cid=14906903615206195998,OPERATIONAL,+62 813-5303-6978,,"guest_house, lodging",5,2,
ChIJnzvPEZCH0S0RY-UrbLEfKtI,Little Munduk,-8.268008199999999,115.05974459999999,"P3J5+QVX, Jl. Pura Puseh, Munduk, Kec. Banjar, Kabupaten Buleleng, Bali 81161, Indonesia",https://maps.google.com/?cid=15143951543871202659,OPERATIONAL,,private_guest_room,"private_guest_room, lodging",,,
ChIJtcuMsneH0S0RhWFSB7Tc1Qw,Munduk Cafe,-8.273114399999999,115.0629148,"Jl. Pura Puseh, Dayang, Munduk, Kec. Banjar, Kabupaten Buleleng, Bali 81152, Indonesia",https://maps.google.com/?cid=924887964269568389,OPERATIONAL,,cafe,"cafe, food",,,
