id,name,latitude,longitude,address,url,status,phone,primary-type,types,rating,rating-count,price-level
ChIJ3QrHg9WT0S0Rgt5LHr3G36s,Villa Vajra,-8.1251156,115.189349,"V5FQ+XP5, Bila, Kubutambahan, Buleleng Regency, Bali 81172, Indonesia",https://maps.google.com/?cid=12384836015851560578,OPERATIONAL,+62 818-0564-6111,,lodging,4.3,4,
ChIJYZjWWcqT0S0RIC4FFcPCpKw,Warung Bu Sadar,-8.1278049,115.19362009999999,"V5CV+VCH, Jl. Gn. Batur, Tamblang, Kec. Kubutambahan, Kabupaten Buleleng, Bali 81172, Indonesia",https://maps.google.com/?cid=12440282213831224864,OPERATIONAL,+62 813-3878-4222,restaurant,"restaurant, food",5,3,
ChIJy5PNpU-T0S0R7nSon-V9li0,Doremiesetan (pizza-chicken-noodles),-8.1283397,115.19414159999998,"Abangan Indah, Banjar Dinas Kanginan, Bila, Kec. Kubutambahan, Kabupaten Buleleng, Bali 81172, Indonesia",https://maps.google.com/?cid=3284951403392955630,OPERATIONAL,+62 819-4343-8797,restaurant,"restaurant, food",5,3,
ChIJe9yrRGST0S0RxWuFaioSSBc,Pangkung Dangin,-8.130780000000001,115.1910539,"V59R+MCM, Bila, Kubutambahan, Buleleng Regency, Bali 81172, Indonesia",https://maps.google.com/?cid=1677610834580564933,OPERATIONAL,,hiking_area,"hiking_area, park",5,1,
ChIJkd7w2tST0S0RsUp-9ow7-Qc,WARUNG PONDOK RASA,-8.1268429,115.1924921,"V5FR+7X9, Jl. Gn. Batur, Bila, Kec. Kubutambahan, Kabupaten Buleleng, Bali 81172, Indonesia",https://maps.google.com/?cid=574555904083380913,OPERATIONAL,,restaurant,"restaurant, food",5,1,
ChIJhThD0SCT0S0RrtPDF6c8gAY,Glogor me Tut Sasih,-8.1317582,115.1905357,"V59R+76V, Bila, Kubutambahan, Buleleng Regency, Bali 81172, Indonesia",https://maps.google.com/?cid=468441049602446254,OPERATIONAL,,,lodging,,,
