id,name,latitude,longitude,address,url,status,phone,primary-type,types,rating,rating-count,price-level
ChIJlXXulRsP0i0RuUqvh5LBOCg,Candi Beach Resort & Spa Bali,-8.503379299999999,115.5523133,"Jl. Mendira, Sengkidu, Kec. Manggis, Kabupaten Karangasem, Bali 80871, Indonesia",https://maps.google.com/?cid=2898279195298712249,OPERATIONAL,+62 363 41234,hotel,"hotel, resort_hotel, lodging",4.6,1809,
ChIJuzEX6tcO0i0RAq5LdOLfQjM,Ramayana Candidasa,-8.5053124,115.55728409999999,"Jl. Raya Sengkidu, Sengkidu, Kec. Manggis, Kabupaten Karangasem, Bali 80801, Indonesia",https://maps.google.com/?cid=3693760808103947778,OPERATIONAL,+62 363 41974,hotel,"hotel, lodging",4.4,849,
ChIJf9BQTyAJ0i0RuDNPengnp8U,Nirwana Beach & Resort Candidasa,-8.5049639,115.55659929999999,"Jalan Sengkidu, Jl. Raya Candidasa, Sengkidu, Kec. Manggis, Kabupaten Karangasem, Bali 80871, Indonesia",https://maps.google.com/?cid=14242395744984052664,OPERATIONAL,+62 812-4643-3233,resort_hotel,"resort_hotel, hotel, spa, lodging, restaurant, food",4.3,431,
ChIJV0aM_CYP0i0RNpWfwCrUaRI,Warung Lu Putu,-8.502074,115.552828,"Jl. Mendira No.9, Sengkidu, Kec. Karangasem, Kabupaten Karangasem, Bali 80871, Indonesia",https://maps.google.com/?cid=1326824845322720566,OPERATIONAL,+62 821-4432-0002,restaurant,"restaurant, ice_cream_shop, seafood_restaurant, coffee_shop, cafe, liquor_store, bar, indonesian_restaurant, food, store",4.5,519,PRICE_LEVEL_INEXPENSIVE
ChIJ5U21lV8R0i0RG-tv3AvqWuQ,Qnara Indian Food,-8.5015467,115.5524536,"Jl. Mendira, Sengkidu, Kec. Manggis, Kabupaten Karangasem, Bali 80871, Indonesia",https://maps.google.com/?cid=16454721525215390491,OPERATIONAL,+62 821-4690-7840,indian_restaurant,"indian_restaurant, restaurant, food",4.9,264,
ChIJpQuATycP0i0Ri7fciAEZG-A,Amarta Beach Cottage,-8.5047903,115.5515449,"FHW2+3JM, Sengkidu, Manggis, Karangasem Regency, Bali, Indonesia",https://maps.google.com/?cid=16148528383248873355,OPERATIONAL,+62 363 41230,lodging,lodging,4.4,244,
ChIJ3z4mZicP0i0RJM69K_KxvkY,Oketo Cafe Candidasa,-8.5034128,115.5517457,"Jl. Mendira Jl. Raya Sengkidu, Sengkidu, Kec. Manggis, Kabupaten Karangasem, Bali 80871, Indonesia",https://maps.google.com/?cid=5097707481904041508,OPERATIONAL,+62 812-3708-4066,coffee_shop,"coffee_shop, cafe, food, store",4.9,207,
ChIJ2_8ubycP0i0RZjoas1zHWfo,Ocean Terrace Restaurant,-8.504435299999999,115.55208750000001,"mendira beach, Jl. Raya Candidasa, Sengkidu, Kec. Manggis, Kabupaten Karangasem, Bali 80871, Indonesia",https://maps.google.com/?cid=18039668983364991590,OPERATIONAL,+62 363 41234,restaurant,"restaurant, food",4.5,266,PRICE_LEVEL_MODERATE
ChIJ3WnbnCcP0i0RFbIuObi8rFg,Sengkidu Beach,-8.5048122,115.55387650000002,"Sea, FHW3+3HC, Sengkidu, Bali, Indonesia",https://maps.google.com/?cid=6389689470751257109,OPERATIONAL,,tourist_attraction,tourist_attraction,4.6,39,
ChIJg8PG6dcO0i0RzIGCeN9wgaw,Garpu Restaurant,-8.5057762,115.5575449,"Ramayana Candidasa, Jl. Raya Sengkidu, Sengkidu, Kec. Manggis, Kabupaten Karangasem, Bali 80801, Indonesia",https://maps.google.com/?cid=12430340551621116364,OPERATIONAL,+62 363 41974,restaurant,"restaurant, breakfast_restaurant, food",4.4,71,
ChIJt0sY8CAP0i0RWuJ-V5uT4o4,Warung Boga Samatra,-8.5031269,115.5520628,"FHW2+PRW, Jl. Mendira, Sengkidu, Kec. Manggis, Kabupaten Karangasem, Bali 80871, Indonesia",https://maps.google.com/?cid=10295953993519522394,OPERATIONAL,+62 878-6099-8444,indonesian_restaurant,"indonesian_restaurant, restaurant, food",4.8,261,PRICE_LEVEL_INEXPENSIVE
ChIJAfOFTp8P0i0RNnRI3hbnaN8,Basil Restaurant and Pool Bar,-8.504364400000002,115.5537999,"Jl. Pura Segara No.9, Sengkidu, Kec. Manggis, Kabupaten Karangasem, Bali, Indonesia",https://maps.google.com/?cid=16098370953440425014,OPERATIONAL,,restaurant,"restaurant, food",4.7,29,
ChIJt0sY8CAP0i0RfPsq0a8_omA,Warung Smiley,-8.5032056,115.5515811,"Jalan Mendira, Sengkidu, Manggis, Sengkidu, Kec. Manggis, Kabupaten Karangasem, Bali, Indonesia",https://maps.google.com/?cid=6963197998229289852,OPERATIONAL,+62 878-6303-8278,indonesian_restaurant,"indonesian_restaurant, restaurant, food",4.6,223,PRICE_LEVEL_INEXPENSIVE
ChIJjaxanScP0i0RWlaCQH9KAKk,Nusa Indah Candidasa,-8.504143899999999,115.55337370000001,"Jl. Pura Segara No.8, Sengkidu, Kec. Manggis, Kabupaten Karangasem, Bali 80871, Indonesia",https://maps.google.com/?cid=12177815302813406810,OPERATIONAL,+62 363 41062,hotel,"hotel, lodging",4.6,22,
ChIJIyF6LHsP0i0Rnk1neS5eKpc,Alam Zempol,-8.501022599999999,115.55246170000001,"Manggis Karangasem, Indonesia 80871, Jl. Mendira, Sengkidu, Kec. Manggis, Kabupaten Karangasem, Bali 80871, Indonesia",https://maps.google.com/?cid=10892622202447285662,OPERATIONAL,+62 813-3703-3531,store,"tourist_attraction, store",4.6,64,
ChIJ72AedgwP0i0RkYp3tckESS4,Nusa Indah Restaurant,-8.5043475,115.55344210000001,"Jl. Pura Segara No.8, Sengkidu, Kec. Manggis, Kabupaten Karangasem, Bali 80871, Indonesia",https://maps.google.com/?cid=3335202263424010897,OPERATIONAL,+62 812-3643-137,restaurant,"restaurant, food",4.8,20,
ChIJRXG44iYP0i0Rk6b09yFFTmI,Mendira House,-8.502741,115.55251799999999,"Jl. Mendira, Sengkidu, Kec. Manggis, Kabupaten Karangasem, Bali, Indonesia",https://maps.google.com/?cid=7083675276096611987,OPERATIONAL,+62 363 4381019,store,"ice_cream_shop, coffee_shop, grocery_store, cafe, food, store",4.7,78,
ChIJdWr5IWQP0i0RnsUaZ_t4zkA,Warung Mina Candidasa,-8.5040832,115.5587674,"Jl. Raya Candidasa, Nyuh Tebel, Kec. Manggis, Kabupaten Karangasem, Bali, Indonesia",https://maps.google.com/?cid=4669802884791715230,OPERATIONAL,+62 813-3804-2048,restaurant,"restaurant, food",4.2,131,
ChIJ6RGTEjIP0i0RiZLjT3T1338,Warung Paon Bali MBC,-8.5033022,115.55125009999999,"FHW2+MGQ, Jl Pantai Mendira, Sengkidu, Kec. Manggis, Kabupaten Karangasem, Bali 80871, Indonesia",https://maps.google.com/?cid=9214353242528649865,OPERATIONAL,+62 859-3349-4880,restaurant,"restaurant, food",4.8,59,
ChIJ9YlK8C0P0i0RdrTnI2lw5a0,Villa Mola Mola,-8.5056567,115.5581145,"FHV5+X56, Sengkidu, Manggis, Karangasem Regency, Bali, Indonesia",https://maps.google.com/?cid=12530545135104537718,OPERATIONAL,+62 812-3848-0168,,lodging,5,2,
