id,name,latitude,longitude,address,url,status,phone,primary-type,types,rating,rating-count,price-level
ChIJ4Qj-RlHs0S0R0HRiUWcqT14,The Amrita Salt Farm Villas,-8.112523099999999,115.3381144,"Jl. Kayu Dui, Dusun Sukadarma, Tejakula, Tejakula, Buleleng, Kabupaten Buleleng, Bali 81173, Indonesia",https://maps.google.com/?cid=6795696985960772816,OPERATIONAL,+62 852-3735-0144,hotel,"hotel, lodging",4.6,88,
ChIJCyWcgCjt0S0RVMjaYOOrhNM,The Jing,-8.1118755,115.3392008,"JL Kayu Dui, Sukadarma, Kec. Tejakula, Kabupaten Buleleng, Bali 81173, Indonesia",https://maps.google.com/?cid=15241496031999477844,OPERATIONAL,+62 811-3903-3322,hotel,"hotel, lodging",5,45,
ChIJpwML00nt0S0RhfC7G9GDIfk,Bembeng Beach,-8.1112307,115.33484250000001,"Unnamed Road, V8QM+GW4, Tejakula, Buleleng Regency, Bali 81173, Indonesia",https://maps.google.com/?cid=17951774523812212869,OPERATIONAL,,tourist_attraction,tourist_attraction,4.5,8,
ChIJi_PUSNrt0S0R6zg4p3ctU08,Villa Uma Suksma,-8.1127403,115.33977010000001,"Jl. Kulkul Kumis, Suka Darma, Kec. Tejakula, Kabupaten Buleleng, Bali 81173, Indonesia",https://maps.google.com/?cid=5715962343993129195,OPERATIONAL,+62 852-3734-2706,hotel,"hotel, lodging",4.4,7,
ChIJueMJIwjt0S0R0tEo4jVbw3s,Buitan diving zone,-8.1124677,115.3318118,"Unnamed Road, V8QJ+2P7, Tejakula, Kec. Tejakula, Kabupaten Buleleng, Bali 81173, Indonesia",https://maps.google.com/?cid=8918071974109434322,OPERATIONAL,,tourist_attraction,tourist_attraction,,,
ChIJ1TAxvFnt0S0RnGDsHIf-R7c,Garam Palungan Desa Tejakula,-8.1113985,115.33655300000001,"V8QP+CJ, Tejakula, Buleleng Regency, Bali, Indonesia",https://maps.google.com/?cid=13206804288546562204,OPERATIONAL,,tourist_attraction,tourist_attraction,5,1,
