id,name,latitude,longitude,address,url,status,phone,primary-type,types,rating,rating-count,price-level
ChIJBZyXYHIx0i0R9l6tMZh6lPU,Villa Leona,-8.551129,115.01964,"Banjar Klecung Kelod, Tegalmengkeb, Selemadeg, Tegal Mengkeb, Kec. Selemadeg Tim., Kabupaten Tabanan, Bali, Indonesia",https://maps.google.com/?cid=17695903629932584694,OPERATIONAL,+62 859-7177-1977,resort_hotel,"resort_hotel, spa, hotel, lodging",4.8,30,
ChIJOXg5SHIx0i0RTNEYTzZ81Qc,KembangdesaVillas Retreat,-8.550424,115.01849700000001,"Kletchung beach, Tegal Mengkeb, Kletchung- Tabanan, Tabanan Regency, Bali 80361, Indonesia",https://maps.google.com/?cid=564493901001969996,OPERATIONAL,+62 815-5810-1052,hotel,"hotel, lodging",4.8,17,
ChIJicTpLTkx0i0Ryfo-6YbJWhM,Villa sitara pantai,-8.5482524,115.0155895,"F228+M6W, Tegal Mengkeb, Selemadeg Timur, Tabanan Regency, Bali, Indonesia",https://maps.google.com/?cid=1394648615900609225,OPERATIONAL,,lodging,lodging,,,
ChIJ-0pIaoUx0i0RRY2ZIQoUILw,Puspayasa Jungle,-8.5478532,115.0212879,"F229+WX8, Tegal Mengkeb, Selemadeg Timur, Tabanan Regency, Bali, Indonesia",https://maps.google.com/?cid=13555856912131132741,OPERATIONAL,,park,park,5,1,
ChIJzXY-ttAx0i0Rzvg9MFf_ahY,Enjung Rumpuh,-8.5524664,115.02163289999999,"C2XC+3FF, Tegal Mengkeb, Selemadeg Timur, Tabanan Regency, Bali, Indonesia",https://maps.google.com/?cid=1615384166302349518,CLOSED_TEMPORARILY,,tourist_attraction,tourist_attraction,,,
