id,name,latitude,longitude,address,url,status,phone,primary-type,types,rating,rating-count,price-level
ChIJrWtWUEYH0i0R-49Ls_bzCZ0,The Gate Enter to Lempuyang Temple,-8.3907633,115.6295612,"JJ5H+MRV, Tri Buana, Abang, Karangasem Regency, Bali 80852, Indonesia",https://maps.google.com/?cid=11315843779640659963,OPERATIONAL,,museum,museum,3.3,3,
ChIJGz-n3PcH0i0RBcX4lxgJIkU,Maha Kencana,-8.3910983,115.6292029,"JJ5H+HM8, Jl. Pura Telaga Mas Lempuyang, Tri Buana, Kec. Abang, Kabupaten Karangasem, Bali 80852, Indonesia",https://maps.google.com/?cid=4981554139058717957,OPERATIONAL,+62 812-3651-9474,restaurant,"restaurant, food",3.8,61,
ChIJi_A5VAcH0i0RWwvb2p1Pyl4,Warung Makan,-8.3912137,115.6294846,"JJ5H+GQ9, Jl. Pura Telaga Mas Lempuyang, Tri Buana, Kec. Abang, Kabupaten Karangasem, Bali 80852, Indonesia",https://maps.google.com/?cid=6830359324261026651,OPERATIONAL,,indonesian_restaurant,"indonesian_restaurant, restaurant, food",4.1,17,
ChIJjTMKBSUH0i0RDRwkm3xUNoM,Warung HadiDana,-8.391636199999999,115.62489419999999,"JJ5F+8XR, Tri Buana, Abang, Karangasem Regency, Bali 80852, Indonesia",https://maps.google.com/?cid=9454837361866447885,OPERATIONAL,+62 858-5804-8626,restaurant,"restaurant, food",4,40,
ChIJcwII938H0i0RgNL5eJ1slVc,Tiiet enter,-8.3906856,115.62964439999999,"JJ5H+PVC, Tri Buana, Abang, Karangasem Regency, Bali 80852, Indonesia",https://maps.google.com/?cid=6311069876424921728,OPERATIONAL,,restaurant,"restaurant, food",5,3,
ChIJE9W1BwAH0i0REkCnjR3GWF0,Maha Kencana Paradise,-8.3911391,115.62929129999999,"JJ5H+HM8, Jl. Pura Telaga Mas Lempuyang, Tri Buana, Kec. Abang, Kabupaten Karangasem, Bali 80852, Indonesia",https://maps.google.com/?cid=6726343873710735378,OPERATIONAL,,tourist_attraction,tourist_attraction,5,1,
ChIJiVE0MAoH0i0RmrOCkMzhF5M,Nyoman tour guide,-8.3912107,115.6294051,"Lempuyang temple, Tri Buana, Kec. Abang, Kabupaten Karangasem, Bali 80852, Indonesia",https://maps.google.com/?cid=10599188516753814426,OPERATIONAL,+62 856-3835-557,tourist_attraction,tourist_attraction,5,12,
