id,name,latitude,longitude,address,url,status,phone,primary-type,types,rating,rating-count,price-level
ChIJEyYMUesb0i0R5tpjGtF8YvE,Sidemen beautiful view,-8.4502876,115.46649230000001,"GFX8+VHQ, Jl. Raya Selat, Sindu Wati, Kec. Sidemen, Kabupaten Karangasem, Bali 80862, Indonesia",https://maps.google.com/?cid=17393601948391037670,OPERATIONAL,,tourist_attraction,tourist_attraction,4.8,39,
ChIJ6Y1LROob0i0RtrC83BlK8qo,Wr. Bisbis view mount agung,-8.4492374,115.46896419999999,"HF29+8H4, Jl. Baledan, Selat, Kec. Selat, Kabupaten Karangasem, Bali 80862, Indonesia",https://maps.google.com/?cid=12317989405749719222,OPERATIONAL,+62 857-3701-3392,brunch_restaurant,"brunch_restaurant, restaurant, food",4.9,27,
ChIJ5zfvAMEb0i0R0U0txq_ocwE,Warung Makan Iseh,-8.450003800000001,115.46673030000001,"GFX8+XMX, Jl. Semarapura-Karangasem, Sindu Wati, Kec. Sidemen, Kabupaten Karangasem, Bali 80862, Indonesia",https://maps.google.com/?cid=104683058001432017,OPERATIONAL,+62 857-3885-5281,restaurant,"restaurant, food",4.7,38,
ChIJ17ohMtIb0i0RuzzOUENgrK4,Warung Bisbis,-8.449429400000001,115.46869669999998,"Jl. Raya Sinduwati, iseh, Kec. Sidemen, Kabupaten Karangasem, Bali 80864, Indonesia",https://maps.google.com/?cid=12586540900828462267,OPERATIONAL,+62 813-3889-6737,restaurant,"restaurant, indonesian_restaurant, food",4.8,19,
ChIJt4XXw8oa0i0R_NW7Z7wtUhc,Wr BU Sayun,-8.448941800000002,115.47210419999999,"Selat, Karangasem Regency, Bali, Indonesia",https://maps.google.com/?cid=1680455898180081148,OPERATIONAL,,restaurant,"restaurant, food",5,2,
