id,name,latitude,longitude,address,url,status,phone,primary-type,types,rating,rating-count,price-level
ChIJPV6QbVaP0S0RGu87o5AYupA,Munduk Waterfalls Trekking Point,-8.248916099999999,115.09576519999999,"Q32W+C8J, Jl. Raya Pancasari, Gobleg, Kec. Banjar, Kabupaten Buleleng, Bali, Indonesia",https://maps.google.com/?cid=10428674896622776090,OPERATIONAL,,tourist_attraction,tourist_attraction,4.5,190,
ChIJG27_1FaP0S0R4fbWOqo5kXo,Bali Twin Lake Trekking Point,-8.2473297,115.0991074,"Jl. Raya Pancasari, Gobleg, Kec. Banjar, Kabupaten Buleleng, Bali, Indonesia",https://maps.google.com/?cid=8831903747544643297,OPERATIONAL,+62 821-4432-7656,tourist_attraction,tourist_attraction,4.4,158,
ChIJ70rk61aP0S0RA6s5yReDDng,Buyan Lake Nature Park - Lake Tamblingan,-8.2479249,115.09816739999998,"Q32X+R7M, Jl. Raya Pancasari, Gobleg, Kec. Banjar, Kabupaten Buleleng, Bali, Indonesia",https://maps.google.com/?cid=8650996072408787715,OPERATIONAL,,tourist_attraction,tourist_attraction,4.4,43,
ChIJyRFTPQ2P0S0Rh8qbKQEsgYk,Jungle Amerta Jati Trekking point,-8.247455,115.09883660000001,"Q32X+XFP, Gobleg, Banjar, Buleleng Regency, Bali, Indonesia",https://maps.google.com/?cid=9908249038696467079,OPERATIONAL,+62 812-3935-0788,tourist_attraction,tourist_attraction,4.8,34,
ChIJ5wJ3gd-F0S0ROxWS9P2gHMQ,ASTAMA FARM,-8.2430038,115.0935348,"Q34V+QC, Gobleg, Banjar, Buleleng Regency, Bali, Indonesia",https://maps.google.com/?cid=14131346743372158267,OPERATIONAL,,park,park,5,1,
