id,name,latitude,longitude,address,url,status,phone,primary-type,types,rating,rating-count,price-level
ChIJIZ5IF0sl0i0RJzZ61MyFR6s,Penginapan Mongan By Sila Dharma Mesari Management,-8.4253546,115.13181979999999,"Jl. Desa Mongan Penatahan, Penatahan, Kec. Penebel, Kabupaten Tabanan, Bali 82152, Indonesia",https://maps.google.com/?cid=12341980418616735271,OPERATIONAL,,private_guest_room,"private_guest_room, lodging",5,2,
ChIJN83fsggl0i0RlZD7FPGBH3A,Murni Arta Guest House,-8.4246837,115.13067939999999,"Jl. Banjar Mongan, Penatahan, Kec. Penebel, Kabupaten Tabanan, Bali 82152, Indonesia",https://maps.google.com/?cid=8079319128965091477,OPERATIONAL,+62 857-9267-6533,guest_house,"guest_house, lodging",,,
ChIJf0znus8l0i0RKK-r2seV4s0,Warung Mongan,-8.4252798,115.13171690000001,"Jl. Raya Batukaru No.63, Penatahan, Kec. Penebel, Kabupaten Tabanan, Bali 82152, Indonesia",https://maps.google.com/?cid=14835584808111550248,OPERATIONAL,,restaurant,"restaurant, food",5,2,
ChIJkQ_3iMYl0i0R-kvIuZFndyg,Warung Makan Telaga Sari,-8.4296172,115.1264538,"H4CG+5H4, Jl. Penatahan - Wongayagede, Penatahan, Kec. Penebel, Kabupaten Tabanan, Bali 82152, Indonesia",https://maps.google.com/?cid=2915913159330515962,OPERATIONAL,+62 823-3987-0287,restaurant,"restaurant, food",5,4,
ChIJT6mqARwl0i0R3xP4zdrZiHc,Kandang ayam,-8.4286175,115.12560369999998,"H4CG+H65, Penatahan, Penebel, Tabanan Regency, Bali 82152, Indonesia",https://maps.google.com/?cid=8613373821127758815,CLOSED_TEMPORARILY,,historical_landmark,historical_landmark,,,
