id,name,latitude,longitude,address,url,status,phone,primary-type,types,rating,rating-count,price-level
ChIJWdAVxNfV0y0RsgdyjjwAwSw,Kos Bli Eka,-8.4314052,114.85987259999999,"HV95+CWQ, Pangyangan, Pekutatan, Jembrana Regency, Bali 82262, Indonesia",https://maps.google.com/?cid=3224859068261861298,OPERATIONAL,+62 819-1608-6764,motel,"motel, lodging",5,11,
ChIJ57hso27T0y0RpD3zyfqSVaw,Pakmade,-8.4347007,114.85947770000001,"HV85+4Q9, Jl. Raya Denpasar - Gilimanuk, Pangyangan, Kec. Pekutatan, Kabupaten Jembrana, Bali 82262, Indonesia",https://maps.google.com/?cid=12417993153371651492,OPERATIONAL,,hotel,"hotel, lodging",,,
ChIJO9m6N37T0y0RJUCeQcbw67k,WARUNG ARIK,-8.4328871,114.86032879999999,"Pangyangan, Pekutatan, Jembrana Regency, Bali, Indonesia",https://maps.google.com/?cid=13397066250838753317,OPERATIONAL,,restaurant,"restaurant, food",,,
ChIJBdkaOH7T0y0RxavBVsea7UA,Warung Beten Jepun BrotherÂ´s,-8.4329483,114.8604928,"Pangyangan, Pekutatan, Jembrana Regency, Bali, Indonesia",https://maps.google.com/?cid=4678565768852515781,OPERATIONAL,,restaurant,"restaurant, food",,,
ChIJLWvK4H_T0y0RZnZaseEccBM,W&W,-8.4321762,114.8581865,"Desa pangyangan br, swastika, kec. Pekutatan, Pangyangan, Kec. Negara, Kabupaten Jembrana, Bali 82262, Indonesia",https://maps.google.com/?cid=1400651239780939366,OPERATIONAL,+62 878-8538-4156,tailor,"tailor, restaurant, food",5,2,
ChIJFc0LHADV0y0RzJIytPK1UyU,Rumah pak jimat,-8.4302218,114.8576574,"HV95+W37, Br Swastika, Pangyangan, Kec. Pekutatan, Kabupaten Jembrana, Bali, Indonesia",https://maps.google.com/?cid=2689693456480244428,OPERATIONAL,,park,park,,,
ChIJW7R-r5vT0y0RNG_mkpY1TWM,Warung Adi Jaya,-8.4329257,114.86158089999999,"HV86+RJG, Jl. Darmawangsa, Banjar cepaka, Pangyangan, Kec. Pekutatan, Kabupaten Jembrana, Bali 82262, Indonesia",https://maps.google.com/?cid=7155434303787527988,OPERATIONAL,,meal_takeaway,"meal_takeaway, restaurant, food",,,
ChIJ91hgAQDT0y0RGakCdnjr5Nc,kubu,-8.4355146,114.85957950000001,"HV85+4Q9, Jl. Raya Denpasar - Gilimanuk, Pangyangan, Kec. Pekutatan, Kabupaten Jembrana, Bali 82262, Indonesia",https://maps.google.com/?cid=15556817915453024537,OPERATIONAL,,historical_landmark,historical_landmark,,,
