id,name,latitude,longitude,address,url,status,phone,primary-type,types,rating,rating-count,price-level
ChIJeZn9j68b0i0RCKW2aMtEUUk,Lapangan Umum Desa Adat Metra,-8.4077675,115.387046,"Unnamed Road, H9RP+VRV, Yangapi, Tembuku, Bangli Regency, Bali 80671, Indonesia",https://maps.google.com/?cid=5283079478308152584,OPERATIONAL,,lodging,lodging,5,1,
ChIJCe1WV-Qb0i0RXr3vaaklxV8,Warung Jati Ning,-8.4090367,115.3871926,"H9RP+9VP, Jl. Metra Kelod, Tembuku, Kec. Bangli, Kabupaten Bangli, Bali 80671, Indonesia",https://maps.google.com/?cid=6900963413572173150,OPERATIONAL,+62 853-3838-9122,restaurant,"restaurant, food",4.8,4,
ChIJ1bXcZNUb0i0RdkfjBRvkfUY,Jfc,-8.405820199999999,115.3904215,"H9VR+M5F Jfc cbg, Yangapi, Kec. Tembuku, Kabupaten Bangli, Bali 80671, Indonesia",https://maps.google.com/?cid=5079466759457818486,OPERATIONAL,,restaurant,"restaurant, food",,,
ChIJIzJqrUMb0i0RpdzdjhdDzLY,Warung Pak Tri,-8.4093039,115.3875207,"H9RQ+72C, Jl.Metra Kelod, Tembuku, Kec. Tembuku, Kabupaten Bangli, Bali 80671, Indonesia",https://maps.google.com/?cid=13171976778612071589,OPERATIONAL,+62 823-3930-4346,restaurant,"restaurant, food",3.8,4,
ChIJSwt-prYb0i0Rb-4SnQutwoA,Warung Bakso Sri Aris,-8.4117532,115.3883316,"H9QQ+78W Metro Kelod, Jalan Raya, Undisan, Kec. Tembuku, Kabupaten Bangli, Bali 80614, Indonesia",https://maps.google.com/?cid=9278168447728152175,OPERATIONAL,+62 812-3698-386,restaurant,"restaurant, food",5,1,
ChIJPXxcRsAb0i0RBCTdS12J6Uk,Warung sate babi Pan BAGia,-8.406955199999999,115.3902589,"H9VR+646, Jl. Tri Purnama, Yangapi, Kec. Tembuku, Kabupaten Bangli, Bali 80671, Indonesia",https://maps.google.com/?cid=5325939068140069892,OPERATIONAL,+62 853-3719-0136,meal_takeaway,"meal_takeaway, restaurant, food",1,1,
ChIJC1k4lq8b0i0ROJDN62pO2fs,Lapangan voli vaskal,-8.4068421,115.3882962,"Unnamed Road, H9VQ+787, Yangapi, Kec. Tembuku, Kabupaten Bangli, Bali 80671, Indonesia",https://maps.google.com/?cid=18147622394595741752,CLOSED_TEMPORARILY,,bar,bar,,,
ChIJezD5xHMb0i0RNO7qi7lCGzE,L D R,-8.4079522,115.38675660000001,"H9RP+RP6, Yangapi, Tembuku, Bangli Regency, Bali 80671, Indonesia",https://maps.google.com/?cid=3538495296913468980,OPERATIONAL,,tourist_attraction,tourist_attraction,4,1,
