id,name,latitude,longitude,address,url,status,phone,primary-type,types,rating,rating-count,price-level
ChIJeZRQbl8Z0i0RrItOeR8jIHk,Nukad Tampaksiring,-8.4348068,115.31790939999999,"Jl. Pertiwi Brata, Selat, Kec. Tampaksiring, Kabupaten Gianyar, Bali 80552, Indonesia",https://maps.google.com/?cid=8728014695930170284,OPERATIONAL,+62 877-9065-2875,restaurant,"restaurant, food",4.5,455,
ChIJleQX2O0Y0i0R3iDmAPpTbQk,Subak Pulagan,-8.429407,115.3133,"Jl. Pertiwi Brata, Tampaksiring, Kec. Tampaksiring, Kabupaten Gianyar, Bali 80552, Indonesia",https://maps.google.com/?cid=679291452024824030,OPERATIONAL,,tourist_attraction,tourist_attraction,4.5,183,
ChIJQ3cFwTMZ0i0RDOAm9OXnADI,Aksha Riverside Ubud,-8.432747599999999,115.3177814,"Jl. Pertiwi Brata, Tampaksiring, Kec. Tampaksiring, Kabupaten Gianyar, Bali 80552, Indonesia",https://maps.google.com/?cid=3603134676726112268,OPERATIONAL,+62 813-3715-5266,bed_and_breakfast,"bed_and_breakfast, lodging",5,4,
ChIJc53MkMEZ0i0RjB8GiS2YpfA,Warung ala pulaga,-8.4302543,115.31375129999999,"Tampaksiring, Gianyar Regency, Bali 80552, Indonesia",https://maps.google.com/?cid=17340433261599793036,OPERATIONAL,+62 852-3702-8267,restaurant,"restaurant, food",4.6,61,
ChIJFcbLY0YZ0i0RF-nD54isY44,warung D'campuhan,-8.4328279,115.31777950000001,"Jl. Pertiwi Brata No.200, Selat, Kec. Susut, Kabupaten Bangli, Bali 80552, Indonesia",https://maps.google.com/?cid=10260234080084027671,OPERATIONAL,+62 821-4436-1199,restaurant,"restaurant, food",4.8,18,
ChIJZU7KeLoZ0i0R9B3_kxNS2nQ,HOUSE PANDE,-8.431009099999999,115.3122073,"Jl. Pertiwi Brata, Tampaksiring, Kec. Tampaksiring, Kabupaten Gianyar, Bali 80552, Indonesia",https://maps.google.com/?cid=8420132697363389940,OPERATIONAL,+62 819-3600-9259,guest_house,"guest_house, lodging",,,
ChIJd5vC1ZsZ0i0REuvBlVAxf6o,Ayam Bakar Tepi Sawah Soto Dan Rawon,-8.4307305,115.31443449999999,"H897+PQ3, Jl. Pertiwi Brata, Tampaksiring, Kec. Tampaksiring, Kabupaten Gianyar, Bali 80552, Indonesia",https://maps.google.com/?cid=12285592530669660946,OPERATIONAL,+62 813-3930-5501,brunch_restaurant,"brunch_restaurant, indonesian_restaurant, restaurant, food",4.2,5,
ChIJ7QTu-X8Z0i0RSnCgZW06okc,Dapur ny patkay,-8.430750399999999,115.3144342,"Jl. Pertiwi Brata, Tampaksiring, Kec. Tampaksiring, Kabupaten Gianyar, Bali 80552, Indonesia",https://maps.google.com/?cid=5161752364450869322,OPERATIONAL,+62 818-0556-5505,indonesian_restaurant,"indonesian_restaurant, restaurant, food",5,9,
ChIJc5Ra93EZ0i0Rmogyg_smkh8,Wr Mbok Sriman,-8.4307915,115.314254,"H897+MPJ, Tampaksiring, Gianyar Regency, Bali 80552, Indonesia",https://maps.google.com/?cid=2274923623455295642,OPERATIONAL,,cafe,"cafe, food",4.9,7,
ChIJS4svt9QZ0i0RsHLw0n4zoTY,Warung Tanjakan,-8.4334267,115.3182395,"Jl. Pertiwi Brata No.98, Tampaksiring, Kec. Tampaksiring, Kabupaten Gianyar, Bali 80552, Indonesia",https://maps.google.com/?cid=3936484169096393392,OPERATIONAL,,coffee_shop,"coffee_shop, cafe, food, store",5,6,
ChIJV2vPy0YZ0i0R7BHXG4tSsc8,Pondok Sri Sari Pulaga,-8.4311428,115.311744,"H896+GRQ, Tampaksiring, Gianyar Regency, Bali, Indonesia",https://maps.google.com/?cid=14965833794149880300,OPERATIONAL,,motel,"motel, lodging",5,1,
ChIJk4qAYQAZ0i0RVVByoW1LaSg,Aksa homestay,-8.432841,115.31766100000002,"H889+V37, Tampaksiring, Gianyar Regency, Bali, Indonesia",https://maps.google.com/?cid=2911941568303878229,OPERATIONAL,,private_guest_room,"private_guest_room, lodging",,,
