id,name,latitude,longitude,address,url,status,phone,primary-type,types,rating,rating-count,price-level
ChIJ6fHlgbOD0S0R2kvYlzPMxxc,Gunung Paradis Retreat,-8.2383948,114.95491059999999,"Mayong, Jalan Serma Nyoman Mangku, Rangdu, Kec. Seririt, Kabupaten Buleleng, Bali 81153, Indonesia",https://maps.google.com/?cid=1713562705200696282,OPERATIONAL,+62 813-3784-4944,hotel,"hotel, lodging",4.5,49,
ChIJB7locbOD0S0RLrZ6LzZBUaU,Villa Tunjung,-8.2381574,114.95438379999999,"Rangdu, Seririt, Buleleng Regency, Bali 81153, Indonesia",https://maps.google.com/?cid=11912374190352283182,OPERATIONAL,,hotel,"hotel, lodging",4.8,17,
ChIJJRfycFuD0S0R452-mjcWQf0,Villa Wana,-8.2378381,114.954403,"Nyoman Mangku, Royal Residence, Jl. Serma Gede, Rangdu, Kec. Seririt, Kabupaten Buleleng, Bali 81153, Indonesia",https://maps.google.com/?cid=18248891593157156323,OPERATIONAL,+31 6 22745587,hotel,"hotel, lodging",4.6,5,
ChIJ2V6kjbOD0S0Rjh40yxeVvbM,Warung Babi Guling Bu Jero,-8.2407749,114.9562291,"QX54+MFX, Jl. Seririt-Pupuan, Ringdikit, Kec. Seririt, Kabupaten Buleleng, Bali 81153, Indonesia",https://maps.google.com/?cid=12951672032813391502,OPERATIONAL,+62 813-3950-3693,indonesian_restaurant,"indonesian_restaurant, restaurant, food",4.1,38,
ChIJE_dDNrSD0S0RGeSNXI57KkE,Warung Nasi Khas Bali Luh War,-8.240820099999999,114.9562351,"QX54+MFH, Jl. Seririt-Pupuan, Rangdu, Kec. Seririt, Kabupaten Buleleng, Bali 81153, Indonesia",https://maps.google.com/?cid=4695701412855538713,OPERATIONAL,+62 813-3807-2485,indonesian_restaurant,"indonesian_restaurant, restaurant, food",4.4,31,
ChIJd0XnFc6D0S0RQsfSw6rNA-E,Warung Sopen Nasi Babi Guling,-8.2406054,114.9562017,"QX54+MFH, Jl. Seririt-Pupuan, Rangdu, Kec. Seririt, Kabupaten Buleleng, Bali 81153, Indonesia",https://maps.google.com/?cid=16214029216777422658,OPERATIONAL,+62 818-0678-0698,indonesian_restaurant,"indonesian_restaurant, restaurant, food",3,4,
ChIJqwIsQcaD0S0RDKcMCz9FWsU,Beten paras,-8.2384825,114.95590980000001,"Jl. Seririt-Pupuan, Rangdu, Kec. Seririt, Kabupaten Buleleng, Bali 81153, Indonesia",https://maps.google.com/?cid=14220754910446397196,OPERATIONAL,,coffee_shop,"coffee_shop, cafe, store, food",5,1,
ChIJD_E-FxeD0S0RQvjAX6LSle0,bali 564,-8.2383414,114.9558139,"QX64+M88, Jl. Seririt-Pupuan, Rangdu, Kec. Seririt, Kabupaten Buleleng, Bali 81153, Indonesia",https://maps.google.com/?cid=17119821153351825474,OPERATIONAL,,restaurant,"restaurant, food",,,
ChIJ98tokbOD0S0Rv0jQYH3pwqQ,WARUNG BU WAYYAN,-8.237825599999999,114.95570280000001,"QX64+V78, Jl. Seririt-Pupuan, Rangdu, Kec. Seririt, Kabupaten Buleleng, Bali 81153, Indonesia",https://maps.google.com/?cid=11872308292406495423,OPERATIONAL,,restaurant,"restaurant, food",5,2,
ChIJfV4xA1GD0S0R7sZYPgOhdd4,Bakso solo super queen,-8.2354886,114.9508587,"Jl. Seririt-Pupuan, Rangdu, Kec. Seririt, Kabupaten Buleleng, Bali 81153, Indonesia",https://maps.google.com/?cid=16029895483998127854,OPERATIONAL,,restaurant,"restaurant, food",4.6,5,
ChIJ4dlyN02C0S0RkM4APavyZWA,Warung Bu Dayu,-8.2354748,114.9510396,"QX72+RC7, Jl. Seririt-Pupuan, Rangdu, Kec. Seririt, Kabupaten Buleleng, Bali 81153, Indonesia",https://maps.google.com/?cid=6946224817565650576,OPERATIONAL,,restaurant,"restaurant, food",,,
ChIJXR88v7aD0S0RAojsiDm5xCU,SISIN CARIK RANGDU,-8.2355535,114.95088039999999,"QX72+Q9C, Jl. Seririt-Pupuan, Rangdu, Kec. Seririt, Kabupaten Buleleng, Bali 81153, Indonesia",https://maps.google.com/?cid=2721503731600099330,OPERATIONAL,+62 877-6247-4777,restaurant,"restaurant, food",5,3,
ChIJfzXcRxmD0S0RhIhE1IxgvSg,Umah mayong,-8.237298599999999,114.95909850000001,"QX75+3JQ, Mayong, Seririt, Buleleng Regency, Bali, Indonesia",https://maps.google.com/?cid=2935608690088380548,OPERATIONAL,,private_guest_room,"private_guest_room, lodging",,,
ChIJw3kT2X2D0S0RYB1lkb0cc8U,bakso mas hanung,-8.2355128,114.9508956,"QX72+Q9R, Rangdu, Seririt, Buleleng Regency, Bali 81153, Indonesia",https://maps.google.com/?cid=14227747248307248480,OPERATIONAL,,indonesian_restaurant,"indonesian_restaurant, restaurant, food",4.3,3,
ChIJCVy_fzGD0S0RVwzpzgcuqo0,WARUNG MAKAN JERO KADEK SARI,-8.2352401,114.95100500000001,"jl. rangdu-pupuan, karya nadi, rangdu, QX72+WC2, seririt, Rangdu, Kec. Seririt, Kabupaten Buleleng, Bali 81152, Indonesia",https://maps.google.com/?cid=10208022116459678807,OPERATIONAL,+62 813-3950-3693,restaurant,"restaurant, food",,,
ChIJGdLS5USD0S0RBwLg1Gvtla0,Kubu cokming,-8.234732,114.95831799999999,"QX85+9P4, Mayong, Seririt, Buleleng Regency, Bali 81153, Indonesia",https://maps.google.com/?cid=12508164587480154631,OPERATIONAL,,,lodging,,,
