id,name,latitude,longitude,address,url,status,phone,primary-type,types,rating,rating-count,price-level
ChIJNbv4KzoO0i0RnJ0tB_kdi_w,Taru Agro,-8.5344378,115.49020519999998,"FF8R+63G, banjar bengkel, Antiga Kelod, Kec. Manggis, Kabupaten Karangasem, Bali 80871, Indonesia",https://maps.google.com/?cid=18197671674725113244,OPERATIONAL,+62 813-3819-2258,cafe,"cafe, food",4,86,
ChIJv512hhQO0i0RPugmcN06tM8,Warung Catrin,-8.534054,115.49443989999999,"FF8V+9QG, Antiga, Manggis, Karangasem Regency, Bali 80871, Indonesia",https://maps.google.com/?cid=14966652184402782270,OPERATIONAL,,restaurant,"restaurant, food",5,2,
ChIJw65btiIP0i0RAiPG-zbjS9k,Jika butuh mobil silakan hubungi saya,-8.534825999999999,115.4938392,"Jl. Raya Padang Bai, Antiga Kelod, Kec. Manggis, Kabupaten Karangasem, Bali, Indonesia",https://maps.google.com/?cid=15657858354775466754,OPERATIONAL,,hotel,"hotel, lodging",,,
ChIJw9Y2c5EP0i0R851pIf4xTf8,C'bezt point Manggis,-8.5390357,115.49177420000001,"FF6R+9PJ, Jl. Raya Padang Bai, Antiga Kelod, Kec. Manggis, Kabupaten Karangasem, Bali 80871, Indonesia",https://maps.google.com/?cid=18396415020430368243,OPERATIONAL,+62 813-3968-9577,restaurant,"restaurant, food",4.7,7,PRICE_LEVEL_INEXPENSIVE
ChIJjQcMhhQO0i0RvOA4YGGftpo,Warung Nasi Jingga,-8.534018099999999,115.49443570000001,"FF8V+9QV, Antiga, Manggis, Karangasem Regency, Bali 80871, Indonesia",https://maps.google.com/?cid=11148273168177225916,OPERATIONAL,,indonesian_restaurant,"indonesian_restaurant, restaurant, food",4,4,
ChIJcY_6oRMP0i0R2A0vS4YRRTc,Jako Herbal,-8.5321527,115.4938463,"gang celagi geder pangitebel, FF9V+4GQ, Antiga Kelod, Kec. Manggis, Kabupaten Karangasem, Bali 80871, Indonesia",https://maps.google.com/?cid=3982608713963736536,OPERATIONAL,+62 819-1567-8646,coffee_shop,"coffee_shop, cafe, store, food",5,2,
ChIJwZn8axMO0i0RJZMc7Pch8_E,USM UPK,-8.535491799999999,115.4952352,"FF7W+R35, Antiga, Manggis, Karangasem Regency, Bali 80871, Indonesia",https://maps.google.com/?cid=17434315931183256357,OPERATIONAL,,,lodging,5,2,
